Year,Data Source,NPDES Permit Number,FRS ID,Facility Name,City,County,State,Major/Non-Major Status,Facility Latitude,Facility Longitude,SIC Code,4-Digit SIC Code,SIC Description,HUC 12 Code,Watershed Name,Total Pounds (lb/yr),Load Over Limit,Total TWPE (lb-eq/yr),TWPE Over Limit,Avg Concentration (mg/L),Max Concentration (mg/L),Average Flow (MGD),Links to TRI ID,Contains Potential Outliers?,Link to DFR
2014,ICIS,NY0026158,1.10001E+11,NYCDEP - BOWERY BAY WPCP,ASTORIA,QUEENS,NY,Major,40.778405,-73.89459,4952,4952,SEWERAGE SYSTEMS,20301020105,Westchester Creek-East River,3982100,0,0,0,0,0,,,,https://echo.epa.gov/detailed-facility-report?fid=NY0026158&sys=ICP
2014,ICIS,NY0026191,1.10013E+11,HUNTS POINT WATER POLLUTION CONTROL PLANT,BRONX,BRONX,NY,Major,40.803694,-73.885083,4952,4952,SEWERAGE SYSTEMS,20301020105,Westchester Creek-East River,3180400,0,0,0,0,0,,,,https://echo.epa.gov/detailed-facility-report?fid=NY0026191&sys=ICP
2014,ICIS,NY0026239,1.10002E+11,TALLMAN ISLAND WASTEWATER TREATMENT PLANT,COLLEGE POINT,QUEENS,NY,Major,40.795556,-73.839333,4952,4952,SEWERAGE SYSTEMS,20301020105,Westchester Creek-East River,1866700,0,0,0,10.9597758,17.86391671,56.25,,,https://echo.epa.gov/detailed-facility-report?fid=NY0026239&sys=ICP
2014,ICIS,MA0101613,1.10008E+11,SPRINGFIELD REGIONAL WASTEWATER TREATMENT PLANT,AGAWAM,HAMPDEN,MA,Major,42.087793,-72.588998,4952,4952,SEWERAGE SYSTEMS,10802010702,Stony Brook-Connecticut River,840753.6571,0,0,0,3.509708333,5.2815,39.475,,,https://echo.epa.gov/detailed-facility-report?fid=MA0101613&sys=ICP
2014,ICIS,MA0101508,1.10001E+11,CHICOPEE WATER POLLUTION CONTROL,CHICOPEE,HAMPDEN,MA,Major,42.15376,-72.62166,4952,4952,SEWERAGE SYSTEMS,10802040402,Outlet Chicopee River,810331.2182,0,0,0,562.2806387,1627.879733,4.205885831,,,https://echo.epa.gov/detailed-facility-report?fid=MA0101508&sys=ICP
2014,ICIS,MA0100439,1.10024E+11,WEBSTER WASTWATER TREATMENT FACILITY,WEBSTER,WORCESTER,MA,Major,42.038576,-71.888022,4952,4952,SEWERAGE SYSTEMS,11000010203,Middle French River,568590.2777,0,0,0,4.964722222,7.673333333,3.144833333,,,https://echo.epa.gov/detailed-facility-report?fid=MA0100439&sys=ICP
2014,ICIS,NY0026697,1.10019E+11,NEW ROCHELLE STP,NEW ROCHELLE,WESTCHESTER,NY,Major,40.913,-73.769361,4952,4952,SEWERAGE SYSTEMS,20301020203,East Creek-Mamaroneck Harbor,526420,0,0,0,0,0,0.007044956,,,https://echo.epa.gov/detailed-facility-report?fid=NY0026697&sys=ICP
2014,ICIS,MA0101681,1.10007E+11,PITTSFIELD WASTEWATER TREATMENT FACILITY,PITTSFIELD,BERKSHIRE,MA,Major,42.407678,-73.24276,4952,4952,SEWERAGE SYSTEMS,11000050104,Sackett Brook-Housatonic River,416121,0,0,0,12.57522451,15.86463613,11.14166667,,,https://echo.epa.gov/detailed-facility-report?fid=MA0101681&sys=ICP
2014,ICIS,NY0026786,1.10001E+11,PORT CHESTER  WASTEWATER TREATMENT PLANT,PORT CHESTER,WESTCHESTER,NY,Major,40.992028,-73.658556,4952,4952,SEWERAGE SYSTEMS,11000060403,Byram River,260342,0,0,0,0,0,4.434246575,,,https://echo.epa.gov/detailed-facility-report?fid=NY0026786&sys=ICP
2014,ICIS,CT0101249,1.10007E+11,NORWALK WASTEWATER TREATMENT PLANT,NORWALK,FAIRFIELD,CT,Major,41.102216,-73.412604,4952,4952,SEWERAGE SYSTEMS,11000060202,Norwalk River-Frontal Norwalk Harbor,249051,0,0,0,6.299503084,7.751765343,13.15833333,,,https://echo.epa.gov/detailed-facility-report?fid=CT0101249&sys=ICP
2014,ICIS,CT0003760,1.10001E+11,PSEG FOSSIL LLC/ POWER CT LLC,NEW HAVEN,NEW HAVEN,CT,Major,41.283986,-72.904546,4911,4911,ELECTRICAL SERVICES,11000040208,Indian River-Frontal Long Island Sound,227889.1232,0,0,0,0.304583333,1.06,22.04788804,,,https://echo.epa.gov/detailed-facility-report?fid=CT0003760&sys=ICP
2014,ICIS,MA0101630,1.10001E+11,HOLYOKE WATER POLLUTION CONTROL FACILITY,HOLYOKE,HAMPDEN,MA,Major,42.191041,-72.612574,4952,4952,SEWERAGE SYSTEMS,10802010702,Stony Brook-Connecticut River,213263.9056,0,0,0,8.504166667,11.31,8.35,,,https://echo.epa.gov/detailed-facility-report?fid=MA0101630&sys=ICP
2014,ICIS,NY0026701,1.10019E+11,MAMARONECK (V) SANITARY SD,MAMARONECK,WESTCHESTER,NY,Major,40.946833,-73.733694,4952,4952,SEWERAGE SYSTEMS,20301020202,Sheldrake River-Mamaroneck River,186377,0,0,0,0,0,14.63780822,,,https://echo.epa.gov/detailed-facility-report?fid=NY0026701&sys=ICP
2014,ICIS,MA0101818,1.10002E+11,NORTHAMPTON WASTEWATER TREATMENT PLANT,NORTHAMPTON,HAMPSHIRE,MA,Major,42.313056,-72.623333,4952,4952,SEWERAGE SYSTEMS,10802010610,Dry Brook-Connecticut River,178589.1,0,0,0,14.34172201,21.4722613,4.191666667,,,https://echo.epa.gov/detailed-facility-report?fid=MA0101818&sys=ICP
2014,ICIS,CT0100617,1.10001E+11,WALLINGFORD WATER POLLUTION CONTROL FACILITY,WALLINGFORD,NEW HAVEN,CT,Major,41.446099,-72.837583,4952,4952,SEWERAGE SYSTEMS,11000040105,Outlet Quinnipiac River,172646.7281,0,0,0,10.28916667,14.15,5.39,,,https://echo.epa.gov/detailed-facility-report?fid=CT0100617&sys=ICP
2014,ICIS,MA0100218,1.1001E+11,AMHERST WASTEWATER TREATMENT PLANT,HADLEY,HAMPSHIRE,MA,Major,42.387696,-72.537382,4952,4952,SEWERAGE SYSTEMS,10802010603,Doolittle Brook-Mill River,166333.8,0,0,0,13.54594917,22.2360699,3.959166667,,,https://echo.epa.gov/detailed-facility-report?fid=MA0100218&sys=ICP
2014,ICIS,MA0101214,1.10024E+11,GREENFIELD WATER POLLUTION CONTROL FACILITY,GREENFIELD,FRANKLIN,MA,Major,42.571367,-72.598121,4952,4952,SEWERAGE SYSTEMS,10802030402,Lower Green River,159033.6206,0,0,0,16.1,20,3.270833333,,,https://echo.epa.gov/detailed-facility-report?fid=MA0101214&sys=ICP
2014,ICIS,MA0100994,1.10044E+11,GARDNER WWTF,EAST TEMPLETON,WORCESTER,MA,Major,42.5698,-72.0201,4952,4952,SEWERAGE SYSTEMS,10802020201,Otter River,150887.5,0,0,0,16.6919887,39.52843044,2.955,,,https://echo.epa.gov/detailed-facility-report?fid=MA0100994&sys=ICP
2014,ICIS,MA0100455,1.10001E+11,SOUTH HADLEY WASTEWATER TREATMENT FACILITY,CHICOPEE,HAMPDEN,MA,Major,42.205371,-72.58814,4952,4952,SEWERAGE SYSTEMS,10802010702,Stony Brook-Connecticut River,143276.1637,0,0,0,19.80833333,31.4,2.533333333,,,https://echo.epa.gov/detailed-facility-report?fid=MA0100455&sys=ICP
2014,ICIS,CT0000086,1.10051E+11,ALLNEX USA RESINS AND ADDITIVES MANUFACTURING FACILITY,WALLINGFORD,NEW HAVEN,CT,Major,41.435,-72.836389,2821,2821,PLSTC MAT./SYN RESINS/NV ELAST,11000040105,Outlet Quinnipiac River,128917.6785,0,0,0,18.92490766,47.80776247,0.129778083,,,https://echo.epa.gov/detailed-facility-report?fid=CT0000086&sys=ICP
2014,ICIS,CT0026808,1.1E+11,"SEIDEL, INC.",WATERBURY,NEW HAVEN,CT,Major,41.60094,-73.05825,3471,3471,PLATING AND POLISHING,11000051105,Northfield Brook-Naugatuck River,125088.4247,0,0,0,54444.23507,217470.7247,0.018971,,Y,https://echo.epa.gov/detailed-facility-report?fid=CT0026808&sys=ICP
2014,ICIS,CT0100641,1.10001E+11,NAUGATUCK WATER POLLUTION CONTROL FACILITY,NAUGATUCK,NEW HAVEN,CT,Major,41.472975,-73.053986,4952,4952,SEWERAGE SYSTEMS,11000051205,Long Meadow Pond Brook-Naugatuck River,124298.1562,0,0,0,3.525,9.5,5.341666667,,,https://echo.epa.gov/detailed-facility-report?fid=CT0100641&sys=ICP
2014,ICIS,CT0003875,1.10002E+11,CRRA MID-CONN FACILITY,HARTFORD,HARTFORD,CT,Major,41.748663,-72.650764,4911,4911,ELECTRICAL SERVICES,10802050505,Goff Brook-Connecticut River,105253.115,0,0,0,0.265833333,0.31,13.87636808,,,https://echo.epa.gov/detailed-facility-report?fid=CT0003875&sys=ICP
2014,ICIS,MA0101800,1.10024E+11,WESTFIELD WASTEWATER TREATMENT PLANT,WESTFIELD,HAMPDEN,MA,Non-Major,42.125314,-72.730211,4952,4952,SEWERAGE SYSTEMS,10802060301,Moose Meadow Brook-Westfield River,100614.5,0,0,0,10.12485251,18.38097634,3.275833333,,,https://echo.epa.gov/detailed-facility-report?fid=MA0101800&sys=ICP
2014,ICIS,CT0100625,1.10002E+11,WATERBURY WATER POLLUTION CONTROL FACILITY,WATERBURY,NEW HAVEN,CT,Major,41.52161,-73.04427,4952,4952,SEWERAGE SYSTEMS,11000051205,Long Meadow Pond Brook-Naugatuck River,100013.1335,0,0,0,1.638333333,5.01,19.18083333,,,https://echo.epa.gov/detailed-facility-report?fid=CT0100625&sys=ICP
2014,ICIS,NY0026719,1.10001E+11,BLIND BROOK SD WWTP,RYE,WESTCHESTER,NY,Major,40.96475,-73.690778,4952,4952,SEWERAGE SYSTEMS,11000060405,Blind Brook-Horseneck Brook,81309,0,0,0,8.649349552,13.46386662,3.025,,,https://echo.epa.gov/detailed-facility-report?fid=NY0026719&sys=ICP
2014,ICIS,MA0101478,1.10001E+11,EASTHAMPTON WASTEWATER TREATMENT PLANT,EASTHAMPTON,HAMPSHIRE,MA,Major,42.277698,-72.648897,4952,4952,SEWERAGE SYSTEMS,10802010609,Lower Manhan River,73896.9,0,0,0,8.655349751,25.52664663,1.206444444,,,https://echo.epa.gov/detailed-facility-report?fid=MA0101478&sys=ICP
2014,ICIS,NY0026620,1.10001E+11,GLEN COVE WASTEWATER TREATMENT FACILITY,GLEN COVE,NASSAU,NY,Major,40.858722,-73.641667,4952,4952,SEWERAGE SYSTEMS,20302010103,Glen Cove Creek-Hempstead Harbor,58910.46275,0,0,0,2.288888889,3.033333333,2.808333333,,,https://echo.epa.gov/detailed-facility-report?fid=NY0026620&sys=ICP
2014,ICIS,MA0000671,1.10002E+11,CRANE WASTEWATER TREATEMENT PLANT,DALTON,BERKSHIRE,MA,Major,42.46776,-73.18482,2621,2621,PAPER MILLS,11000050103,East Branch Housatonic River,56653,0,0,0,6.413752646,9.146180122,2.908333333,,,https://echo.epa.gov/detailed-facility-report?fid=MA0000671&sys=ICP
2014,ICIS,MA0110264,1.10007E+11,"AUSTRALIS AQUACULTURE, LLC",MONTAGUE (TURNERS FALLS),FRANKLIN,MA,Non-Major,42.59159,-72.5291,921,921,FISH HATCHERIES AND PRESERVES,10802010503,Dry Brook-Connecticut River,54502.76,0,0,0,118.7029319,138.886143,0.150833333,,,https://echo.epa.gov/detailed-facility-report?fid=MA0110264&sys=ICP
2014,ICIS,MA0101524,1.10001E+11,GREAT BARRINGTON WASTEWATER TREATMENT FACILITY,GREAT BARRINGTON,BERKSHIRE,MA,Major,42.18994,-73.35709,4952,4952,SEWERAGE SYSTEMS,11000050204,Ironwork Brook-Housatonic River,53660.56128,0,0,0,4.190222222,5.89,1.1035,,,https://echo.epa.gov/detailed-facility-report?fid=MA0101524&sys=ICP
2014,ICIS,NY0026778,1.10002E+11,WATER POLL CONTR DIST,PORT WASHINGTON,NASSAU,NY,Major,40.83944,-73.69721,4952,4952,SEWERAGE SYSTEMS,20302010102,Mitchells Creek-Manhassett Bay,52211,0,0,0,6.573044321,10.78370582,2.616666667,,,https://echo.epa.gov/detailed-facility-report?fid=NY0026778&sys=ICP
2014,ICIS,MA0101168,1.1001E+11,PALMER WATER POLLUTION CONTROL FACILITY,PALMER (THREE RIVERS),HAMPDEN,MA,Major,42.185311,-72.362228,4952,4952,SEWERAGE SYSTEMS,10802040207,Danforth Brook-Ware River,51801.39548,0,0,0,10.25,22.4,1.591666667,,,https://echo.epa.gov/detailed-facility-report?fid=MA0101168&sys=ICP
2014,ICIS,MA0101061,1.10007E+11,NORTH BROOKFIELD WASTE WATER TREATMENT PLANT,NORTH BROOKFIELD,WORCESTER,MA,Major,42.248876,-72.074475,4952,4952,SEWERAGE SYSTEMS,10802040303,Upper Quaboag River,46647.465,0,0,0,6.438213809,13.76680897,0.320441667,,,https://echo.epa.gov/detailed-facility-report?fid=MA0101061&sys=ICP
2014,ICIS,VT0000248,1.10001E+11,FIBERMARK,BRATTLEBORO,WINDHAM,VT,Major,42.888826,-72.546158,,,,10801070505,Catsbane Brook-Connecticut River,42730.78547,0,0,0,13.54166667,21,1.045,,,https://echo.epa.gov/detailed-facility-report?fid=VT0000248&sys=ICP
2014,ICIS,MA0100137,1.10001E+11,MONTAGUE WASTEWATER TREATMENT FACILITY,MONTAGUE,FRANKLIN,MA,Major,42.5808,-72.57232,4952,4952,SEWERAGE SYSTEMS,10802010602,Russellville Brook-Connecticut River,39235,0,0,0,15.010798,38.01663094,0.850666667,,,https://echo.epa.gov/detailed-facility-report?fid=MA0100137&sys=ICP
2014,ICIS,NH0100200,1.10007E+11,NEWPORT WASTEWATER TREATMENT FACILITY,NEWPORT,SULLIVAN,NH,Major,43.376645,-72.181957,4952,4952,SEWERAGE SYSTEMS,10801060405,Long Pond Brook-Sugar River,35318.61925,0,0,0,15.99166667,22,0.74,,,https://echo.epa.gov/detailed-facility-report?fid=NH0100200&sys=ICP
2014,ICIS,MA0103152,1.10007E+11,BARRE WASTEWATER TREATMENT FACILITY,BARRE,WORCESTER,MA,Non-Major,42.37624,-72.12048,4952,4952,SEWERAGE SYSTEMS,10802040205,Winimusset Brook-Ware River,33575.16,0,0,0,23.8675222,40.15714434,0.191916667,,,https://echo.epa.gov/detailed-facility-report?fid=MA0103152&sys=ICP
2014,ICIS,MA0005011,1.10002E+11,PAPERLOGIC TURNERS FALLS MILL,MONTAGUE (TURNERS FALLS),FRANKLIN,MA,Major,42.609152,-72.560239,2621,2621,PAPER MILLS,10802010503,Dry Brook-Connecticut River,31070.47666,0,0,0,13.95,52,0.368208333,,,https://echo.epa.gov/detailed-facility-report?fid=MA0005011&sys=ICP
2014,ICIS,NH0100145,1.10007E+11,LANCASTER WASTEWATER TREATMENT FACILITY,LANCASTER,COOS,NH,Major,44.484948,-71.595363,4952,4952,SEWERAGE SYSTEMS,10801010903,Mink Brook-Connecticut River,30556.94,0,0,0,10.74906761,26.10074526,0.891666667,,,https://echo.epa.gov/detailed-facility-report?fid=NH0100145&sys=ICP
2014,ICIS,CT0100293,1.10014E+11,HOCKANUM RIVER WATER POLLUTION CONTROL FACILITY,MANCHESTER,HARTFORD,CT,Major,41.777345,-72.561071,4952,4952,SEWERAGE SYSTEMS,10802050402,Lower Hockanum River,30309.8033,0,0,0,1.535714286,2.99,6.189166667,,,https://echo.epa.gov/detailed-facility-report?fid=CT0100293&sys=ICP
2014,ICIS,NY0026841,1.10007E+11,BELGRAVE WPCP,GREAT NECK,NASSAU,NY,Major,40.778861,-73.7425,4952,4952,SEWERAGE SYSTEMS,20302010101,Alley Creek-Little Neck Bay,29639.60287,0,0,0,2.244083333,4.235,1.450833333,,,https://echo.epa.gov/detailed-facility-report?fid=NY0026841&sys=ICP
2014,ICIS,CT0100218,1.10001E+11,FARMINGTON WPCF,FARMINGTON,HARTFORD,CT,Major,41.728989,-72.828711,4952,4952,SEWERAGE SYSTEMS,10802070405,Roaring Brook-Farmington River,28731.34757,0,0,0,3.18,4.6,3.708333333,,,https://echo.epa.gov/detailed-facility-report?fid=CT0100218&sys=ICP
2014,ICIS,MA0100005,1.10007E+11,ATHOL WASTEWATER TREATMENT FACILITY,ATHOL,WORCESTER,MA,Major,42.586234,-72.242982,4952,4952,SEWERAGE SYSTEMS,10802020204,Beaver Brook-Millers River,27731.16,0,0,0,10.79634072,19.19611096,0.838833333,,,https://echo.epa.gov/detailed-facility-report?fid=MA0100005&sys=ICP
2014,ICIS,MA0100935,1.10009E+11,LENOX CENTER WASTEWATER TREATMENT FACILITY,LENOX,BERKSHIRE,MA,Major,42.34831,-73.24545,4952,4952,SEWERAGE SYSTEMS,11000050104,Sackett Brook-Housatonic River,26893.75833,0,0,0,3.348777778,8.036666667,0.633416667,,,https://echo.epa.gov/detailed-facility-report?fid=MA0100935&sys=ICP
2014,ICIS,MA0101257,1.10007E+11,ORANGE WASTEWATER TREATMENT PLANT,ORANGE,FRANKLIN,MA,Major,42.59606,-72.33146,4952,4952,SEWERAGE SYSTEMS,10802020205,Mill Brook-Millers River,26233.35688,0,0,0,14.28874184,21.08166667,1.032,,,https://echo.epa.gov/detailed-facility-report?fid=MA0101257&sys=ICP
2014,ICIS,CT0101001,1.10056E+11,WILLIMANTIC WPCF,WILLIMANTIC,WINDHAM,CT,Major,41.71599,-72.19466,4952,4952,SEWERAGE SYSTEMS,11000020206,Sawmill Brook-Natchaug River,25190.9269,0,0,0,3.618333333,18.2,1.851666667,,,https://echo.epa.gov/detailed-facility-report?fid=CT0101001&sys=ICP
2014,ICIS,CT0100935,1.10001E+11,MONTVILLE WATER POLLUTION CONTROL FACILITY,MONTVILLE (UNCASVILLE),NEW LONDON,CT,Major,41.43932,-72.10547,4952,4952,SEWERAGE SYSTEMS,11000030202,Stony Brook,24358.96754,0,0,0,4.61,21,1.516666667,,,https://echo.epa.gov/detailed-facility-report?fid=CT0100935&sys=ICP
2014,ICIS,MA0100889,1.10007E+11,WARE WASTEWATER TREATMENT PLANT,WARE,HAMPSHIRE,MA,Major,42.25194,-72.25514,4952,4952,SEWERAGE SYSTEMS,10802040207,Danforth Brook-Ware River,22589.76355,0,0,0,4.347083333,7.333333333,0.572833333,,,https://echo.epa.gov/detailed-facility-report?fid=MA0100889&sys=ICP
2014,ICIS,MA0102148,1.10002E+11,BELCHERTOWN WATER RECLAMATION FACILITY,BELCHERTOWN,HAMPSHIRE,MA,Major,42.281579,-72.42563,4952,4952,SEWERAGE SYSTEMS,10802010701,Batchelor Brook,22442.45478,0,0,0,6.651851804,17,0.39175,,,https://echo.epa.gov/detailed-facility-report?fid=MA0102148&sys=ICP
2014,ICIS,CT0101087,1.10056E+11,STAMFORD WATER POLLUTION CONTROL FACILITY,STAMFORD,FAIRFIELD,CT,Major,41.046247,-73.52996,4952,4952,SEWERAGE SYSTEMS,11000060404,Fivemile River,22329.71847,0,0,0,0.41125,2.31,15.95,,,https://echo.epa.gov/detailed-facility-report?fid=CT0101087&sys=ICP
2014,ICIS,MA0003697,1.10001E+11,BARNHARDT MANUFACTURING,COLRAIN,FRANKLIN,MA,Major,42.655709,-72.714796,2269,2269,"FINISHERS OF TEXTILES, NEC",10802030302,Taylor Brook-North River,21170.51811,0,0,0,10.22604167,23.4,0.3538105,,Y,https://echo.epa.gov/detailed-facility-report?fid=MA0003697&sys=ICP
2014,ICIS,MA0100099,1.1001E+11,HADLEY WASTEWATER TREATMENT PLANT,HADLEY,HAMPSHIRE,MA,Non-Major,42.32859,-72.586487,4952,4952,SEWERAGE SYSTEMS,10802010610,Dry Brook-Connecticut River,20817.40606,0,0,0,5.934885802,8.259325451,0.383166667,,,https://echo.epa.gov/detailed-facility-report?fid=MA0100099&sys=ICP
2014,ICIS,NY0021342,1.10007E+11,HUNTINGTON SEWER DISTRICT STP,HUNTINGTON,SUFFOLK,NY,Major,40.88122,-73.42209,4952,4952,SEWERAGE SYSTEMS,20302010203,Huntington Harbor-Lloyd Harbor,20722.9,0,0,0,3.642450786,7.829278685,1.868183333,,,https://echo.epa.gov/detailed-facility-report?fid=NY0021342&sys=ICP
2014,ICIS,NY0021822,1.10002E+11,OYSTER BAY WPCP,OYSTER BAY,NASSAU,NY,Major,40.878222,-73.526778,4952,4952,SEWERAGE SYSTEMS,20302010201,Mill Neck Creek-Oyster Bay Harbor,20523.1,0,0,0,0,0,,,,https://echo.epa.gov/detailed-facility-report?fid=NY0021822&sys=ICP
2014,ICIS,MA0001848,1.10011E+11,ONYX SPECIALTY PAPERS INC - WILLOW MILL,LEE,BERKSHIRE,MA,Major,42.274705,-73.286202,2621,2621,PAPER MILLS,11000050107,Konkapot Brook-Housatonic River,18451.15,0,0,0,6.084124565,10.33681356,1.005900417,,,https://echo.epa.gov/detailed-facility-report?fid=MA0001848&sys=ICP
2014,ICIS,MA0101290,1.1001E+11,HATFIELD WASTEWATER TREATMENT FACILITY,HATFIELD,HAMPSHIRE,MA,Non-Major,42.394226,-72.592828,4952,4952,SEWERAGE SYSTEMS,10802010602,Russellville Brook-Connecticut River,18448,0,0,0,32.18884141,47.62989458,0.19225,,,https://echo.epa.gov/detailed-facility-report?fid=MA0101290&sys=ICP
2014,ICIS,NY0165891,1.1001E+11,PAWLING JOINT SEWER COMM WWTP,PAWLING,DUTCHESS,NY,Non-Major,41.573667,-73.594194,4952,4952,SEWERAGE SYSTEMS,11000050505,Swamp River,18364.34917,0,0,0,12.62208333,20.55,0.244333333,,,https://echo.epa.gov/detailed-facility-report?fid=NY0165891&sys=ICP
2014,ICIS,CT0100404,1.10002E+11,NORTH HAVEN WATER POLLUTION CONTROL FACILITY,NORTH HAVEN,NEW HAVEN,CT,Major,41.364329,-72.871671,4952,4952,SEWERAGE SYSTEMS,11000040104,Muddy River,18001.14202,0,0,0,1.75,3.5,3.318333333,,,https://echo.epa.gov/detailed-facility-report?fid=CT0100404&sys=ICP
2014,ICIS,CT0020630,1.10007E+11,MYSTIC MARINELIFE AQUARIUM,MYSTIC,NEW LONDON,CT,Non-Major,41.37171,-71.951156,8412,8412,MUSEUMS AND ART GALLERIES,11000030303,Stony Brook-Frontal Fishers Island Sound,17338.63819,0,0,0,11.70087963,69.00666667,0.009104609,,Y,https://echo.epa.gov/detailed-facility-report?fid=CT0020630&sys=ICP
2014,ICIS,MA0101567,1.10001E+11,WARREN WASTEWATER TREATMENT PLANT,WARREN,WORCESTER,MA,Major,42.210084,-72.24737,4952,4952,SEWERAGE SYSTEMS,10802040305,Middle Quaboag River,16498.9,0,0,0,9.281641245,13.31101289,0.291333333,,,https://echo.epa.gov/detailed-facility-report?fid=MA0101567&sys=ICP
2014,ICIS,NY0206644,1.1001E+11,SUFFOLK CO SD#21 SUNY,STONY BROOK,SUFFOLK,NY,Major,40.924472,-73.121139,4952,4952,SEWERAGE SYSTEMS,20302010304,Mt Sinai Harbor-Port Jefferson Harbor,16492.18042,0,0,0,1.061111111,2.116666667,1.744333333,,,https://echo.epa.gov/detailed-facility-report?fid=NY0206644&sys=ICP
2014,ICIS,MA0100421,1.10002E+11,STURBRIDGE WATER POLLUTION CONTROL FACILITY,STURBRIDGE,WORCESTER,MA,Major,42.104697,-72.088066,4952,4952,SEWERAGE SYSTEMS,11000010103,McKinstry Brook-Quinebaug River,16187.71087,0,0,0,3.208909091,4.69,0.533916667,,,https://echo.epa.gov/detailed-facility-report?fid=MA0100421&sys=ICP
2014,ICIS,MA0101141,1.10002E+11,CHARLTON WASTEWATER TREATMENT FACILITY,CHARLTON,WORCESTER,MA,Major,42.141435,-71.995382,4952,4952,SEWERAGE SYSTEMS,11000010104,Cady Brook-Quinebaug River,14442.12484,0,0,0,10.97948624,32.0516129,0.21525,,,https://echo.epa.gov/detailed-facility-report?fid=MA0101141&sys=ICP
2014,ICIS,MA0110043,1.10007E+11,MCLAUGHLIN STATE TROUT HATCHERY,BELCHERTOWN,HAMPSHIRE,MA,Non-Major,42.267471,-72.338576,921,921,FISH HATCHERIES AND PRESERVES,10802040106,Quabbin Reservoir-Swift River,14393.5,2567.5,0,2567.5,0.548179752,2.192719007,5.89,,,https://echo.epa.gov/detailed-facility-report?fid=MA0110043&sys=ICP
2014,ICIS,NH0100790,1.10002E+11,KEENE WASTEWATER TREATMENT FACILITY,KEENE,CHESHIRE,NH,Major,42.89049,-72.27547,4952,4952,SEWERAGE SYSTEMS,10802010303,South Branch Ashuelot River,14061,0,0,0,1.311025416,5.144193118,3.256416667,,,https://echo.epa.gov/detailed-facility-report?fid=NH0100790&sys=ICP
2014,ICIS,CT0003212,1.10033E+11,KIMBERLY-CLARK TISSUE MILL,NEW MILFORD,LITCHFIELD,CT,Major,41.5567,-73.4102,2676,2676,SANITARY PAPER PRODUCTS,11000050604,Great Brook-Housatonic River,13771.9008,0,0,0,1.654351626,2.537533088,1.3725,,,https://echo.epa.gov/detailed-facility-report?fid=CT0003212&sys=ICP
2014,ICIS,CT0025305,1.1E+11,"UNIMETAL SURFACE FINISHING, LLC",THOMASTON,LITCHFIELD,CT,Major,41.66935,-73.07774,3471,3471,PLATING AND POLISHING,11000051105,Northfield Brook-Naugatuck River,13330.548,2160.65745,0,2160.65745,57.64525765,106.4213398,0.042372833,,,https://echo.epa.gov/detailed-facility-report?fid=CT0025305&sys=ICP
2014,ICIS,CT0000434,1.10036E+11,AHLSTROM NONWOVENS,WINDSOR LOCKS,HARTFORD,CT,Major,41.925376,-72.625924,2621,2621,PAPER MILLS,10802050105,Freshwater Brook-Connecticut River,13319.65599,0,0,0,1.0075,1.27,0.405806767,,,https://echo.epa.gov/detailed-facility-report?fid=CT0000434&sys=ICP
2014,ICIS,NH0100510,1.1001E+11,WHITEFIELD WASTEWATER TREATMENT FACILITY,WHITEFIELD,COOS,NH,Non-Major,44.376294,-71.622598,4952,4952,SEWERAGE SYSTEMS,10801030101,Bog Brook,12941.55136,0,0,0,30.24636364,38,0.072583333,,,https://echo.epa.gov/detailed-facility-report?fid=NH0100510&sys=ICP
2014,ICIS,NH0000621,1.1001E+11,BERLIN STATE FISH HATCHERY,BERLIN,COOS,NH,Non-Major,44.505428,-71.334325,921,921,FISH HATCHERIES AND PRESERVES,10801010701,Headwaters Upper Ammonoosuc River,12828.48,0,0,0,0.402194305,3.370285277,1.913333333,,,https://echo.epa.gov/detailed-facility-report?fid=NH0000621&sys=ICP
2014,ICIS,MA0101052,1.10023E+11,ERVING WASTEWATER TREATMENT PLANT #2,ERVING,FRANKLIN,MA,Major,42.5975,-72.3879,4952,4952,SEWERAGE SYSTEMS,10802020207,Lyons Brook-Millers River,12823.19,0,0,0,2.289379608,3.894115991,1.8275,,,https://echo.epa.gov/detailed-facility-report?fid=MA0101052&sys=ICP
2014,ICIS,VT0100579,1.10011E+11,ST JOHNSBURY,ST JOHNSBURY,CALEDONIA,VT,Major,44.410639,-72.016572,,,,10801020403,Water Andric-Passumpsic River,12307.44,0,0,0,5.180692722,8.896146963,0.88525,,,https://echo.epa.gov/detailed-facility-report?fid=VT0100579&sys=ICP
2014,ICIS,CT0101273,1.1004E+11,NEW CANAAN WASTEWATER TREATMENT PLANT,NEW CANAAN,FAIRFIELD,CT,Major,41.14066,-73.48368,4952,4952,SEWERAGE SYSTEMS,11000060404,Fivemile River,12061.36589,0,0,0,4.08,6.04,0.93775,,,https://echo.epa.gov/detailed-facility-report?fid=CT0101273&sys=ICP
2014,ICIS,VT0101010,1.10002E+11,HARTFORD WASTE WATER TREATMENT FACILITY,HARTFORD,WINDSOR,VT,Major,43.646444,-72.314662,,,,10801060302,Lulls Brook-Connecticut River,11902.97409,0,0,0,5.708333333,8.7,0.692166667,,,https://echo.epa.gov/detailed-facility-report?fid=VT0101010&sys=ICP
2014,ICIS,NH0100153,1.10001E+11,LITTLETON WASTEWATER TREATMENT PLANT,LITTLETON,GRAFTON,NH,Major,44.30882,-71.79048,4952,4952,SEWERAGE SYSTEMS,10801030403,Baker Brook-Ammonoosuc River,11682.11254,0,0,0,1.677777778,3.366666667,0.76275,,,https://echo.epa.gov/detailed-facility-report?fid=NH0100153&sys=ICP
2014,ICIS,CT0100145,1.10001E+11,DANBURY WATER POLLUTION CONTROL FACILITY,DANBURY,FAIRFIELD,CT,Major,41.402711,-73.418112,4952,4952,SEWERAGE SYSTEMS,11000050802,Limekiln Brook-Still River,11584.32751,0,0,0,0.476363636,1.28,7.808333333,,,https://echo.epa.gov/detailed-facility-report?fid=CT0100145&sys=ICP
2014,ICIS,CT0100455,1.10056E+11,PLAINVILLE WPCF,PLAINVILLE,HARTFORD,CT,Major,41.68032,-72.86501,4952,4952,SEWERAGE SYSTEMS,10802070404,Pequabuck River,11555.05376,1015.109433,0,1015.109433,1.785833333,3.68,2.168333333,,,https://echo.epa.gov/detailed-facility-report?fid=CT0100455&sys=ICP
2014,ICIS,CT0100579,1.1003E+11,TORRINGTON WATER POLLUTION CONTROL FACILITY,TORRINGTON,LITCHFIELD,CT,Major,41.780542,-73.116477,4952,4952,SEWERAGE SYSTEMS,11000051105,Northfield Brook-Naugatuck River,11130.6714,0,0,0,0.444285714,1.15,5.956666667,,,https://echo.epa.gov/detailed-facility-report?fid=CT0100579&sys=ICP
2014,ICIS,MA0100919,1.10001E+11,SPENCER WASTEWATER TREATMENT PLANT,SPENCER,WORCESTER,MA,Major,42.231774,-72.013348,4952,4952,SEWERAGE SYSTEMS,10802040301,Sevenmile River,10174.855,0,0,0,19.46300287,66.14006237,0.3225,,,https://echo.epa.gov/detailed-facility-report?fid=MA0100919&sys=ICP
2014,ICIS,NHG580421,1.1001E+11,LISBON WASTEWATER TREATMENT FACILITY,LISBON,GRAFTON,NH,Non-Major,44.20149,-71.928419,,,,10801030503,Pearl Lake Brook-Ammonoosuc River,9635.4,0,0,0,21.91192885,32.20134377,0.141333333,,,https://echo.epa.gov/detailed-facility-report?fid=NHG580421&sys=ICP
2014,ICIS,MA0000469,1.10064E+11,SEAMAN PAPER OF MASSACHUSETTS,TEMPLETON,WORCESTER,MA,Major,42.59574,-72.05228,2621,2621,PAPER MILLS,10802020201,Otter River,9520.57504,0,0,0,3.4975,12.365,0.868833333,,,https://echo.epa.gov/detailed-facility-report?fid=MA0000469&sys=ICP
2014,ICIS,NHG580315,1.10028E+11,COLEBROOK WASTEWATER TREATMENT PLANT,COLEBROOK,COOS,NH,Non-Major,44.901096,-71.498637,,,,10801010305,Willard Stream-Connecticut River,9376.2,0,0,0,15.4987279,22.92188677,0.19625,,,https://echo.epa.gov/detailed-facility-report?fid=NHG580315&sys=ICP
2014,ICIS,NHG580501,1.10028E+11,BETHLEHEM VILLAGE WASTEWATER TREATMENT PLANT,BETHLEHEM,GRAFTON,NH,Non-Major,44.28789,-71.6821,,,,10801030403,Baker Brook-Ammonoosuc River,9209.2,0,0,0,13.5080762,23.51069383,0.221333333,,,https://echo.epa.gov/detailed-facility-report?fid=NHG580501&sys=ICP
2014,ICIS,MA0110035,1.10008E+11,MCLAUGHLIN STATE FISH HATCHERY/SUNDERLAND,SUNDERLAND,FRANKLIN,MA,Non-Major,42.437028,-72.552917,921,921,FISH HATCHERIES AND PRESERVES,10802010602,Russellville Brook-Connecticut River,9184.23394,0,0,0,4.346642473,5.4,2.084166667,,,https://echo.epa.gov/detailed-facility-report?fid=MA0110035&sys=ICP
2014,ICIS,CT0100447,1.1003E+11,PLAINFIELD NORTH WATER POLLUTION CONTROL FACILITY,PLAINFIELD,WINDHAM,CT,Major,41.71937,-71.91721,4952,4952,SEWERAGE SYSTEMS,11000010503,Lower Moosup River,9169.526251,265.175075,0,265.175075,5.5,16.9,0.646083333,,,https://echo.epa.gov/detailed-facility-report?fid=CT0100447&sys=ICP
2014,ICIS,MA0100862,1.10001E+11,WINCHENDON WATER POLLUTION CONTROL FACILITY,WINCHENDON,WORCESTER,MA,Major,42.68367,-72.08202,4952,4952,SEWERAGE SYSTEMS,10802020103,Torbell Brook-Millers River,9130.21,0,0,0,6.021630658,15.0710548,0.499666667,,,https://echo.epa.gov/detailed-facility-report?fid=MA0100862&sys=ICP
2014,ICIS,NH0101052,1.1001E+11,TROY WASTEWATER TREATMENT FACILITY,TROY,CHESHIRE,NH,Non-Major,42.835252,-72.178076,4952,4952,SEWERAGE SYSTEMS,10802010303,South Branch Ashuelot River,8734,0,0,0,16.67353834,33.1046181,0.073666667,,,https://echo.epa.gov/detailed-facility-report?fid=NH0101052&sys=ICP
2014,ICIS,MA0101796,1.10007E+11,LEICESTER WATER SUPPLY WWTF,LEICESTER,WORCESTER,MA,Non-Major,42.240643,-71.917223,4952,4952,SEWERAGE SYSTEMS,11000010201,Upper French River,8609.6,0,0,0,7.757606854,15.10403723,0.18525,,,https://echo.epa.gov/detailed-facility-report?fid=MA0101796&sys=ICP
2014,ICIS,MA0110051,1.1001E+11,MCLAUGHLIN STATE TROUT HATCHERY BITZER TROUT HATCHERY,MONTAGUE,FRANKLIN,MA,Non-Major,42.559611,-72.549889,921,921,FISH HATCHERIES AND PRESERVES,10802010602,Russellville Brook-Connecticut River,8417.823815,0,0,0,1.828390587,4.332903226,1.511875,,,https://echo.epa.gov/detailed-facility-report?fid=MA0110051&sys=ICP
2014,ICIS,VT0000108,1.10009E+11,PUTNEY PAPER COMPANY MILL & LAGOONS,PUTNEY,WINDHAM,VT,Non-Major,42.974631,-72.517117,,,,10801070504,Sacketts Brook,8198.022306,0,0,0,14.41666667,36,0.18748325,,,https://echo.epa.gov/detailed-facility-report?fid=VT0000108&sys=ICP
2014,ICIS,NH0100765,1.10007E+11,CHARLESTOWN WASTEWATER TREATMENT PLANT,CHARLESTOWN,SULLIVAN,NH,Major,43.225795,-72.432518,4952,4952,SEWERAGE SYSTEMS,10801060703,Jabes Hackett Brook-Connecticut River,8075.1,0,0,0,8.156079076,15.39137777,0.311666667,,,https://echo.epa.gov/detailed-facility-report?fid=NH0100765&sys=ICP
2014,ICIS,NHG580978,1.10046E+11,WOODSVILLE WASTEWATER TREATMENT FACILITY,WOODSVILLE,GRAFTON,NH,Non-Major,44.14762,-72.038489,4941,4941,WATER SUPPLY,10801030703,Clark Brook-Connecticut River,8006.36,0,0,0,16.04562002,25.983994,0.165416667,,,https://echo.epa.gov/detailed-facility-report?fid=NHG580978&sys=ICP
2014,ICIS,MA0040207,1.10022E+11,CHANG FARMS INC,DEERFIELD,FRANKLIN,MA,Non-Major,42.522248,-72.571247,182,182,FOOD CROPS GROWN UNDER COVER,10802010602,Russellville Brook-Connecticut River,7976.852729,0,0,0,2.126587302,10.60714286,0.103291667,,,https://echo.epa.gov/detailed-facility-report?fid=MA0040207&sys=ICP
2014,ICIS,MA0103110,1.1001E+11,WEST STOCKBRIDGE WASTEWATER TREAMENT FACILITY,WEST STOCKBRIDGE,BERKSHIRE,MA,Non-Major,42.33241,-73.36937,4952,4952,SEWERAGE SYSTEMS,11000050201,Williams River,7629.517198,0,0,0,4.927762118,13.683,0.016416667,,,https://echo.epa.gov/detailed-facility-report?fid=MA0103110&sys=ICP
2014,ICIS,MAG580005,1.1001E+11,SUNDERLAND WASTEWATER TREATMENT FACILITY,SUNDERLAND,FRANKLIN,MA,Non-Major,42.452405,-72.584683,,,,10802010602,Russellville Brook-Connecticut River,7289.07,0,0,0,14.31681584,32.71130941,0.16875,,,https://echo.epa.gov/detailed-facility-report?fid=MAG580005&sys=ICP
2014,ICIS,MA0100340,1.10024E+11,TEMPLETON WASTEWATER TREATMENT FACILITY,TEMPLETON (BALDWINVILLE),WORCESTER,MA,Major,42.601436,-72.073756,4952,4952,SEWERAGE SYSTEMS,10802020201,Otter River,7080.78217,0,0,0,4.003075717,5.886021505,0.276416667,,,https://echo.epa.gov/detailed-facility-report?fid=MA0100340&sys=ICP
2014,ICIS,MA0100153,1.10001E+11,LEE WASTEWATER TREATMENT FACILITY,LEE,BERKSHIRE,MA,Major,42.286286,-73.241279,4952,4952,SEWERAGE SYSTEMS,11000050105,Goose Pond Brook-Housatonic River,6502.286048,0,0,0,3.288333333,5.6,0.671666667,,,https://echo.epa.gov/detailed-facility-report?fid=MA0100153&sys=ICP
2014,ICIS,NY0021750,1.10008E+11,NATIONAL GRID - PORT JEFFERSON POWER STATION,PORT JEFFERSON,SUFFOLK,NY,Major,40.94969,-73.078431,4952,4952,SEWERAGE SYSTEMS,20302010304,Mt Sinai Harbor-Port Jefferson Harbor,6483,0,0,0,3.079891193,3.993965119,0.690833333,,,https://echo.epa.gov/detailed-facility-report?fid=NY0021750&sys=ICP
2014,ICIS,NHG580226,1.10028E+11,GROVETON WASTEWATER TREATMENT PLANT,NORTHUMBERLAND,COOS,NH,Non-Major,44.59855,-71.51745,,,,10801010707,Upper Ammonoosuc River,6430.3,0,0,0,14.34819401,32.97570562,0.14475,,,https://echo.epa.gov/detailed-facility-report?fid=NHG580226&sys=ICP
2014,ICIS,VT0100625,1.10011E+11,CANAAN MTP,CANAAN,ESSEX,VT,Non-Major,44.98831,-71.53981,,,,10801010304,Leach Creek,6363.399681,0,0,0,19.97272727,27.8,0.102666667,,,https://echo.epa.gov/detailed-facility-report?fid=VT0100625&sys=ICP
2014,ICIS,CT0100501,1.10002E+11,SEYMOUR WPCF,SEYMOUR,NEW HAVEN,CT,Major,41.366379,-73.087313,4952,4952,SEWERAGE SYSTEMS,11000051207,Bladens River-Naugatuck River,6300.357477,0,0,0,2.366,5.98,1.26,,,https://echo.epa.gov/detailed-facility-report?fid=CT0100501&sys=ICP
2014,ICIS,MAG580002,1.1001E+11,SHELBURNE WASTEWATER TREATMENT FACILITY,SHELBURNE,FRANKLIN,MA,Non-Major,42.595262,-72.731942,,,,10802030502,Bear River-Deerfield River,5656.565,0,0,0,12.30321258,18.299622,0.1505,,,https://echo.epa.gov/detailed-facility-report?fid=MAG580002&sys=ICP
2014,ICIS,VT0100862,1.10011E+11,CAVENDISH WASTEWATER TREATMENT FACILITY,CAVENDISH,WINDSOR,VT,Non-Major,43.3866,-72.6015,,,,10801060503,Twentymile Stream-Black River,5598.055901,0,0,0,24.7,24.7,0.073818182,,,https://echo.epa.gov/detailed-facility-report?fid=VT0100862&sys=ICP
2014,ICIS,MAG580004,1.10007E+11,SOUTH DEERFIELD WASTEWATER TREATMENT PLANT,DEERFIELD,FRANKLIN,MA,Non-Major,42.46829,-72.58914,,,,10802010602,Russellville Brook-Connecticut River,5522.46,0,0,0,4.419521726,12.15554601,0.407583333,,,https://echo.epa.gov/detailed-facility-report?fid=MAG580004&sys=ICP
2014,ICIS,CT0003824,1.10011E+11,ELECTRIC BOAT CORP,GROTON,NEW LONDON,CT,Major,41.350752,-72.082098,3731,3731,SHIP BUILDING AND REPAIRING,11000030203,Thames River-Frontal New London Harbor,5344.094077,0,0,0,6.995,13.81,3.698504282,,,https://echo.epa.gov/detailed-facility-report?fid=CT0003824&sys=ICP
2014,ICIS,NY0024881,1.10009E+11,NORTHPORT (V) STP,NORTHPORT,SUFFOLK,NY,Non-Major,40.889667,-73.355417,4952,4952,SEWERAGE SYSTEMS,20302010204,Northport Bay,5169.026532,0,0,0,2.161527778,3.816666667,0.256666667,,,https://echo.epa.gov/detailed-facility-report?fid=NY0024881&sys=ICP
2014,ICIS,CT0100374,1.10002E+11,BRISTOL WATER RECLAMATION FACILITY,BRISTOL,HARTFORD,CT,Major,41.66049,-72.9197,4952,4952,SEWERAGE SYSTEMS,10802070404,Pequabuck River,5006.475872,1155.693618,0,1155.693618,0.415,3.57,6.413333333,,,https://echo.epa.gov/detailed-facility-report?fid=CT0100374&sys=ICP
2014,ICIS,MAG580001,1.10002E+11,OLD DEERFIELD WASTEWATER TREATMENT PLANT,DEERFIELD,FRANKLIN,MA,Non-Major,42.551231,-72.61107,,,,10802030502,Bear River-Deerfield River,4886.36,0,0,0,25.44060832,46.80427873,0.063041667,,,https://echo.epa.gov/detailed-facility-report?fid=MAG580001&sys=ICP
2014,ICIS,CT0100463,1.10006E+11,PLYMOUTH WPCF,PEQUABUCK,LITCHFIELD,CT,Major,41.668987,-72.991771,4952,4952,SEWERAGE SYSTEMS,10802070404,Pequabuck River,4860.030093,0,0,0,1.7175,5.13,0.837416667,,,https://echo.epa.gov/detailed-facility-report?fid=CT0100463&sys=ICP
2014,ICIS,CT0003921,1.10007E+11,US NAVAL SUBMARINE BASE,GROTON,NEW LONDON,CT,Major,41.400139,-72.087081,9711,9711,NATIONAL SECURITY,11000030203,Thames River-Frontal New London Harbor,4679.436535,0,0,0,2.347052083,6.14,0.57821689,,,https://echo.epa.gov/detailed-facility-report?fid=CT0003921&sys=ICP
2014,ICIS,VT0100978,1.10011E+11,HARTFORD - QUECHEE,HARTFORD,WINDSOR,VT,Non-Major,43.64441,-72.41415,,,,10801060207,Ottauquechee River,4133.785476,0,0,0,6.675,18,0.203083333,,,https://echo.epa.gov/detailed-facility-report?fid=VT0100978&sys=ICP
2014,ICIS,CT0030309,1.10013E+11,MILFORD POWER STATION,MILFORD,NEW HAVEN,CT,Major,41.223948,-73.099068,,,,11000051302,Housatonic River-Frontal Long Island Sound,4002.250601,0,0,0,1.167231597,1.981727831,0.415083333,,,https://echo.epa.gov/detailed-facility-report?fid=CT0030309&sys=ICP
2014,ICIS,VT0100048,1.10011E+11,BETHEL,BETHEL,WINDSOR ,VT,Non-Major,43.824634,-72.616361,,,,10801050501,Broad Brook-White River,3795.165844,0,0,0,19.1,19.1,0.066790909,,,https://echo.epa.gov/detailed-facility-report?fid=VT0100048&sys=ICP
2014,ICIS,CT0101133,1.10011E+11,HERITAGE VILLAGE COMPANY,SOUTHBURY,NEW HAVEN,CT,Non-Major,41.48477,-73.22364,6514,6514,OPER OF DWELL OTHER THAN APART,11000050903,Pomperaug River,3793.47,0,0,0,2.49284547,4.841711411,0.48925,,,https://echo.epa.gov/detailed-facility-report?fid=CT0101133&sys=ICP
2014,ICIS,MA0101087,1.1001E+11,STOCKBRIDGE WASTEWATER TREATMENT PLANT,STOCKBRIDGE,BERKSHIRE,MA,Non-Major,42.293751,-73.325903,4952,4952,SEWERAGE SYSTEMS,11000050107,Konkapot Brook-Housatonic River,3653.1,0,0,0,8.292136929,11.12604569,0.141666667,,,https://echo.epa.gov/detailed-facility-report?fid=MA0101087&sys=ICP
2014,ICIS,CT0100439,1.1001E+11,PLAINFIELD VILLAGE SEWAGE TREATMENT PLANT,PLAINFIELD,WINDHAM,CT,Non-Major,41.669458,-71.928107,4952,4952,SEWERAGE SYSTEMS,11000010702,Mill Brook,3583.982227,258.0768658,0,258.0768658,3.155,7.9,0.442583333,,,https://echo.epa.gov/detailed-facility-report?fid=CT0100439&sys=ICP
2014,ICIS,CT0101222,1.10007E+11,WINSTED WPCF,WINSTED,LITCHFIELD,CT,Major,41.941792,-73.053825,4952,4952,SEWERAGE SYSTEMS,10802070103,Still River,3333.216391,0,0,0,0.771666667,1.46,1.4875,,,https://echo.epa.gov/detailed-facility-report?fid=CT0101222&sys=ICP
2014,ICIS,MA0100102,1.1001E+11,HARDWICK WATER POLLUTION CONTROL FACILITY,GILBERTVILLE,WORCESTER,MA,Non-Major,42.300309,-72.214159,4952,4952,SEWERAGE SYSTEMS,10802040207,Danforth Brook-Ware River,3277.472324,0,0,0,12.18928599,43.80477872,0.115141667,,,https://echo.epa.gov/detailed-facility-report?fid=MA0100102&sys=ICP
2014,ICIS,CT0002127,1.10044E+11,CELLU TISSUE,EAST HARTFORD,HARTFORD,CT,Major,41.776151,-72.606406,2679,2679,CONV PAPER & PAPERBRD PRODUCTS,10802050402,Lower Hockanum River,3239.977303,0,0,0,0.769166667,1.066666667,0.453333333,,,https://echo.epa.gov/detailed-facility-report?fid=CT0002127&sys=ICP
2014,ICIS,CT0100781,1.10056E+11,THOMASTON WPCF,THOMASTON,LITCHFIELD,CT,Major,41.645097,-73.079553,4952,4952,SEWERAGE SYSTEMS,11000051104,Branch Brook,3124.91978,0,0,0,0.939833333,3.87,0.9885,,,https://echo.epa.gov/detailed-facility-report?fid=CT0100781&sys=ICP
2014,ICIS,NY0109584,1.1002E+11,NORTH CASTLE (T) SD#2,ARMONK,WESTCHESTER,NY,Non-Major,41.120361,-73.710806,4952,4952,SEWERAGE SYSTEMS,11000060403,Byram River,3028.8,0,0,0,0,0,0.369964384,,,https://echo.epa.gov/detailed-facility-report?fid=NY0109584&sys=ICP
2014,ICIS,CT0101681,1.10007E+11,LEDYARD WATER POLLUTION CONTROL FACILITY,LEDYARD,NEW LONDON,CT,Non-Major,41.43364,-71.96512,4952,4952,SEWERAGE SYSTEMS,11000030301,Mystic River-Frontal Fishers Island Sound,2968.41434,347.4658955,0,347.4658955,6.891666667,17.9,0.141666667,,,https://echo.epa.gov/detailed-facility-report?fid=CT0101681&sys=ICP
2014,ICIS,MA0100901,1.10024E+11,SOUTHBRIDGE WASTEWTER TREATMENT FACILITY,SOUTHBRIDGE,WORCESTER,MA,Major,42.06969,-72.0063,4952,4952,SEWERAGE SYSTEMS,11000010104,Cady Brook-Quinebaug River,2949.339729,0,0,0,0.457142857,2,1.988583333,,,https://echo.epa.gov/detailed-facility-report?fid=MA0100901&sys=ICP
2014,ICIS,VT0101061,1.10011E+11,LUNENBURG FIRE DISTRICT #2,GILMAN,ESSEX,VT,Non-Major,44.41235,-71.71851,,,,10801030201,Miles Stream-Connecticut River,2785.341468,0,0,0,13.14166667,20,0.072416667,,,https://echo.epa.gov/detailed-facility-report?fid=VT0101061&sys=ICP
2014,ICIS,MAG580003,1.1001E+11,CHARLEMONT WASTEWATER TREATMENT FACILITY,CHARLEMONT,FRANKLIN,MA,Non-Major,42.62751,-72.87252,,,,10802030205,Mill Brook-Deerfield River,2737.56,0,0,0,62.60112399,303.541349,0.01475,,,https://echo.epa.gov/detailed-facility-report?fid=MAG580003&sys=ICP
2014,ICIS,MA0102431,1.1001E+11,HARDWICK WWTP,HARDWICK (WHEELWRIGHT),WORCESTER,MA,Non-Major,42.350037,-72.139237,4952,4952,SEWERAGE SYSTEMS,10802040205,Winimusset Brook-Ware River,2698.389926,0,0,0,50.67187619,105.3988818,0.016675,,,https://echo.epa.gov/detailed-facility-report?fid=MA0102431&sys=ICP
2014,ICIS,MA0101516,1.10001E+11,ERVING WASTEWATER TREATMENT PLANT #1,ERVING,FRANKLIN,MA,Major,42.588774,-72.49445,4952,4952,SEWERAGE SYSTEMS,10802020207,Lyons Brook-Millers River,2641.5,0,0,0,7.306774188,15.20091202,0.130583333,,,https://echo.epa.gov/detailed-facility-report?fid=MA0101516&sys=ICP
2014,ICIS,CT0100315,1.10001E+11,MERIDEN WATER POLLUTION CONTROL FACILITY,MERIDEN,NEW HAVEN,CT,Major,41.513431,-72.827878,4952,4952,SEWERAGE SYSTEMS,11000040105,Outlet Quinnipiac River,2478.172202,0,0,0,0.0775,0.19,10.24166667,,,https://echo.epa.gov/detailed-facility-report?fid=CT0100315&sys=ICP
2014,ICIS,CT0001341,1.10001E+11,PHARMACIA & UPJOHN (FORMER),NORTH HAVEN,NEW HAVEN,CT,Non-Major,41.375384,-72.878626,2869,2869,INDUST. ORGANIC CHEMICALS NEC,11000040105,Outlet Quinnipiac River,2427.08,0,0,0,5.093836532,6.376431975,0.159542917,,,https://echo.epa.gov/detailed-facility-report?fid=CT0001341&sys=ICP
2014,ICIS,NY0005941,1.10001E+11,NATIONAL GRID - NORTHPORT POWER STATION,NORTHPORT,SUFFOLK,NY,Major,40.923488,-73.342561,4911,4911,ELECTRICAL SERVICES,20302010301,Crab Meadow-Fresh Pond,2379.296959,0,0,0,2.75375,8.8,10.09172064,,,https://echo.epa.gov/detailed-facility-report?fid=NY0005941&sys=ICP
2014,ICIS,MA0102776,1.1001E+11,ERVING WASTEWATER TREATMENT PLANT #3,ERVING,FRANKLIN,MA,Non-Major,42.598361,-72.43875,4952,4952,SEWERAGE SYSTEMS,10802020207,Lyons Brook-Millers River,2232,0,0,0,802.359064,868.6874133,0.006166667,,,https://echo.epa.gov/detailed-facility-report?fid=MA0102776&sys=ICP
2014,ICIS,NHG580404,1.10028E+11,WINCHESTER WASTEWATER TREATMENT PLANT,WINCHESTER,CHESHIRE,NH,Non-Major,42.770205,-72.389345,,,,10802010403,Ashuelot River,2226.84,0,0,0,4.215338711,10.30386438,0.173108333,,,https://echo.epa.gov/detailed-facility-report?fid=NHG580404&sys=ICP
2014,ICIS,NH0101150,1.1001E+11,WEST SWANZY WWTP,SWANZEY,CHESHIRE,NH,Non-Major,42.8682,-72.32657,4952,4952,SEWERAGE SYSTEMS,10802010401,Wheelock Brook-Ashuelot River,2213.37276,0,0,0,12.682,28,0.068066667,,,https://echo.epa.gov/detailed-facility-report?fid=NH0101150&sys=ICP
2014,ICIS,CT0003883,1.1E+11,NRG MIDDLETOWN POWER STATION,MIDDLETOWN,MIDDLESEX,CT,Major,41.554782,-72.58358,4911,4911,ELECTRICAL SERVICES,10802050702,Mill Creek-Connecticut River,2210.90866,0,0,0,0.316666667,1.216666667,15.6007746,,,https://echo.epa.gov/detailed-facility-report?fid=CT0003883&sys=ICP
2014,ICIS,CT0000957,1.1E+11,PFIZER GROTON CAMPUS,GROTON,NEW LONDON,CT,Non-Major,41.3309,-72.0771,2834,2834,PHARMACEUTICAL PREPARATIONS,11000030203,Thames River-Frontal New London Harbor,2160.602667,0,0,0,0.181774584,0.602713461,2.7675,,,https://echo.epa.gov/detailed-facility-report?fid=CT0000957&sys=ICP
2014,ICIS,NY0066028,1.10009E+11,SCSD#22 /HAUPPAUGE CTY CTR STP,HAUPPAUGE,SUFFOLK,NY,Non-Major,40.826333,-73.227917,4952,4952,SEWERAGE SYSTEMS,20302010302,Nissequogue River,2121.46236,430.2875169,0,430.2875169,6.508333333,14.7,0.1115,,,https://echo.epa.gov/detailed-facility-report?fid=NY0066028&sys=ICP
2014,ICIS,CT0100536,1.10009E+11,SOUTHINGTON WPCF,SOUTHINGTON (PLANTSVILLE),HARTFORD,CT,Major,41.566931,-72.883694,4952,4952,SEWERAGE SYSTEMS,11000040103,Headwaters Quinnipiac River,2109.099184,0,0,0,0.17,0.22,4.3225,,,https://echo.epa.gov/detailed-facility-report?fid=CT0100536&sys=ICP
2014,ICIS,VT0100854,1.10011E+11,ROYALTON WWTF,SOUTH ROYALTON,WINDSOR,VT,Non-Major,43.80187,-72.50589,,,,10801050501,Broad Brook-White River,1885.326931,0,0,0,25.125,49.2,0.023333333,,,https://echo.epa.gov/detailed-facility-report?fid=VT0100854&sys=ICP
2014,ICIS,CT0003981,1.1E+11,SPECIALTY MINERALS DOLOMITE PLANT,CANAAN,LITCHFIELD COUNTY,CT,Non-Major,42.026463,-73.31996,1422,1422,CRUSHED AND BROKEN LIMESTONE,11000050303,Blackberry River,1772.784135,0,0,0,1.7625,2.24,0.1653,,,https://echo.epa.gov/detailed-facility-report?fid=CT0003981&sys=ICP
2014,ICIS,CT0030449,1.10001E+11,HIGHWAY SAFETY CORP / CT GALVANIZING,GLASTONBURY,HARTFORD,CT,Non-Major,41.71099,-72.58229,3479,3479,METAL COATING & ALLIED SERVIC,10802050505,Goff Brook-Connecticut River,1743.48697,0,0,0,2.187083333,3.525,0.027672,,,https://echo.epa.gov/detailed-facility-report?fid=CT0030449&sys=ICP
2014,ICIS,CT0100081,1.10001E+11,"CHESIRE,WATER POLLUTION CONTROL FACILITY",CHESHIRE,NEW HAVEN,CT,Major,41.53378,-72.86655,4952,4952,SEWERAGE SYSTEMS,11000040103,Headwaters Quinnipiac River,1702.469383,0,0,0,0.224583333,0.6,2.726666667,,,https://echo.epa.gov/detailed-facility-report?fid=CT0100081&sys=ICP
2014,ICIS,CT0100498,1.10007E+11,TOWN OF SALISBURY WPCF,SALISBURY,LITCHFIELD,CT,Non-Major,42.014536,-73.431065,4952,4952,SEWERAGE SYSTEMS,11000050305,Salmon Creek,1611.931955,33.80099625,0,33.80099625,1.532,3.5,0.3875,,,https://echo.epa.gov/detailed-facility-report?fid=CT0100498&sys=ICP
2014,ICIS,MA0001716,1.10008E+11,MEADWESTVACO CUSTOM PAPERS LAUREL MILL,LEE,BERKSHIRE,MA,Major,42.278795,-73.264413,2621,2621,PAPER MILLS,11000050107,Konkapot Brook-Housatonic River,1571.692,0,0,0,1.63587462,5.984100881,0.300416667,,,https://echo.epa.gov/detailed-facility-report?fid=MA0001716&sys=ICP
2014,ICIS,NH0000744,1.10011E+11,NH DES,WHITEFIELD,COOS,NH,Non-Major,44.323049,-71.560259,921,921,FISH HATCHERIES AND PRESERVES,10801030102,Johns River,1463.352,0,0,0,0.978547088,2.07589934,0.7795,,,https://echo.epa.gov/detailed-facility-report?fid=NH0000744&sys=ICP
2014,ICIS,CT0100331,1.1001E+11,NEW HARTFORD WPCF,NEW HARTFORD,LITCHFIELD,CT,Non-Major,41.868318,-72.95786,4952,4952,SEWERAGE SYSTEMS,10802070204,Lower West Branch Farmington River,1412.63,37.2,0,37.2,7.094955473,18.88450899,0.054166667,,,https://echo.epa.gov/detailed-facility-report?fid=CT0100331&sys=ICP
2014,ICIS,MA0100200,1.1001E+11,NORTHFIELD WWTF,NORTHFIELD,FRANKLIN,MA,Non-Major,42.701976,-72.458138,4952,4952,SEWERAGE SYSTEMS,10802010501,Pauchaug Brook-Connecticut River,1398.12,0,0,0,13.3141515,25.09149851,0.086833333,,,https://echo.epa.gov/detailed-facility-report?fid=MA0100200&sys=ICP
2014,ICIS,VT0100706,1.10011E+11,WILMINGTON WWTP,WILMINGTON,WINDHAM,VT,Non-Major,42.86939,-72.88061,,,,10802030103,North Branch Deerfield River,1394.76,0,0,0,2.806080554,7.204799822,0.077991667,,,https://echo.epa.gov/detailed-facility-report?fid=VT0100706&sys=ICP
2014,ICIS,CT0101214,1.10002E+11,STAFFORD / WPCF,STAFFORD SPRINGS,TOLLAND,CT,Major,41.94688,-72.30454,4952,4952,SEWERAGE SYSTEMS,11000020108,Nelson Brook-Willimantic River,1379.222862,0,0,0,0.456,0.72,1.155833333,,,https://echo.epa.gov/detailed-facility-report?fid=CT0101214&sys=ICP
2014,ICIS,CT0101320,1.1004E+11,UNIVERSITY OF CT WATER POLLUTION CONTROL FACILITY,STORRS,TOLLAND,CT,Major,41.811635,-72.263126,8221,8221,"COLLEGES, UNIV & PROF SCHOOLS",11000020108,Nelson Brook-Willimantic River,1371.283834,0,0,0,0.516,0.913,0.849666667,,,https://echo.epa.gov/detailed-facility-report?fid=CT0101320&sys=ICP
2014,ICIS,CT0101788,1.10002E+11,NEWTOWN /WPCF,NEWTOWN,FAIRFIELD,CT,Non-Major,41.41472,-73.28424,4952,4952,SEWERAGE SYSTEMS,11000051001,Pootatuck River,1354.05143,0,0,0,0.820833333,2.87,0.433916667,,,https://echo.epa.gov/detailed-facility-report?fid=CT0101788&sys=ICP
2014,ICIS,VT0101044,1.10011E+11,WHITINGHAM (JACKSONVILLE),JACKSONVILLE,WINDHAM COUNTY,VT,Non-Major,42.7853,-72.81453,,,,10802030301,East Branch North River,1314.814273,0,0,0,17.76285714,21.5,0.0238625,,,https://echo.epa.gov/detailed-facility-report?fid=VT0101044&sys=ICP
2014,ICIS,CT0003778,1.1E+11,PSEG POWER CONNECTICUT LLC,BRIDGEPORT,FAIRFIELD,CT,Major,41.17067,-73.18408,4911,4911,ELECTRICAL SERVICES,11000060303,Rooster River-Frontal Long Island Sound,1279.385318,0,0,0,0.823888889,3.173333333,21.63009486,,,https://echo.epa.gov/detailed-facility-report?fid=CT0003778&sys=ICP
2014,ICIS,NH0101257,1.10007E+11,CLAREMONT WASTEWATER TREATMENT FACILITY,CLAREMONT,SULLIVAN,NH,Major,43.38962,-72.379045,4952,4952,SEWERAGE SYSTEMS,10801060407,Sugar River,1086.8,0,0,0,0.244506933,0.956827615,1.5435,,,https://echo.epa.gov/detailed-facility-report?fid=NH0101257&sys=ICP
2014,ICIS,VT0100633,1.1004E+11,DANVILLE WATER POLLUTION CONTROL FACILITY,DANVILLE,CALEDONIA,VT,Non-Major,44.411176,-72.147228,,,,10801020402,Joes Brook,1065.568645,0,0,0,10.7,18,0.030916667,,,https://echo.epa.gov/detailed-facility-report?fid=VT0100633&sys=ICP
2014,ICIS,NHG581206,1.1001E+11,NORTHUMBERLAND VILLAGE WATER POLLUTION CONTROL FACILITY,GROVETON,COOS,NH,Non-Major,44.597268,-71.521189,4941,4941,WATER SUPPLY,10801010707,Upper Ammonoosuc River,979.156,0,0,0,9.66065187,15.39492009,0.034583333,,,https://echo.epa.gov/detailed-facility-report?fid=NHG581206&sys=ICP
2014,ICIS,VT0100145,1.10009E+11,LUDLOW WASTEWATER TREATMENT FACILITY,LUDLOW,WINDSOR,VT,Major,43.392349,-72.679281,,,,10801060502,Branch Brook-Black River,963.4210329,0,0,0,1.175,1.5,0.367083333,,,https://echo.epa.gov/detailed-facility-report?fid=VT0100145&sys=ICP
2014,ICIS,CT0100609,1.10056E+11,VERNON WPCF,VERNON,TOLLAND,CT,Major,41.86545,-72.48457,4952,4952,SEWERAGE SYSTEMS,10802050401,Upper Hockanum River,918.4331588,0,0,0,0.09375,0.16,3.161666667,,,https://echo.epa.gov/detailed-facility-report?fid=CT0100609&sys=ICP
2014,ICIS,VT0000019,1.1E+11,WEIDMANN ELECTRICAL TECHNOLOGY,SAINT JOHNSBURY,CALEDONIA,VT,Non-Major,44.48239,-72.01343,,,,10801020302,South Wheelock Branch-Passumpsic River,892.3312783,0,0,0,2.083333333,4.6,0.14625,,,https://echo.epa.gov/detailed-facility-report?fid=VT0000019&sys=ICP
2014,ICIS,CT0003263,1.10017E+11,DOMINION MILLSTONE NUCLEAR POWER STATION,WATERFORD,NEW LONDON,CT,Major,41.307765,-72.165617,4911,4911,ELECTRICAL SERVICES,11000030305,Fenger Brook-Frontal Lond Island Sound,883.9642106,0,0,0,2.74361901,14.945,254.5900769,,,https://echo.epa.gov/detailed-facility-report?fid=CT0003263&sys=ICP
2014,ICIS,CT0003751,1.10055E+11,FUSION PAPERBOARD CT LLC,VERSAILLES,NEW LONDON,CT,Non-Major,41.619983,-72.042277,2631,2631,PAPERBOARD MILLS,11000020302,Little River,879.265693,0,0,0,0.092666667,0.17,2.263537875,,Y,https://echo.epa.gov/detailed-facility-report?fid=CT0003751&sys=ICP
2014,ICIS,MA0100170,1.1001E+11,OXFORD ROCHDALE WASTEWATER TREATMENT PLANT,NORTH OXFORD,WORCESTER COUNTY,MA,Non-Major,42.183647,-71.894113,4952,4952,SEWERAGE SYSTEMS,11000010201,Upper French River,863.5929202,0,0,0,1.091428571,5.4,0.247583333,,,https://echo.epa.gov/detailed-facility-report?fid=MA0100170&sys=ICP
2014,ICIS,NHG580536,1.10024E+11,STRATFORD VILLAGE SYSTEM,NORTH STRATFORD,COOS,NH,Non-Major,44.74926,-71.629411,4952,4952,SEWERAGE SYSTEMS,10801010603,Dennis Pond Brook-Connecticut River,796.78,0,0,0,20.7245057,35.98251857,0.012784917,,,https://echo.epa.gov/detailed-facility-report?fid=NHG580536&sys=ICP
2014,ICIS,NHG580391,1.10004E+11,CHESHIRE COUNTY MAPLEWOOD NURSING HOME,WESTMORELAND,CHESHIRE,NH,Non-Major,42.97351,-72.46554,4952,4952,SEWERAGE SYSTEMS,10801070503,Partridge Brook,778.9,0,0,0,13.67726108,20.18003428,0.018583333,,,https://echo.epa.gov/detailed-facility-report?fid=NHG580391&sys=ICP
2014,ICIS,CT0101231,1.10001E+11,TOWN OF NORFOLK WPCF,NORFOLK,LITCHFIELD,CT,Non-Major,41.99983,-73.21633,4952,4952,SEWERAGE SYSTEMS,11000050303,Blackberry River,716.8415134,0,0,0,0.56,0.7,0.450833333,,,https://echo.epa.gov/detailed-facility-report?fid=CT0101231&sys=ICP
2014,ICIS,NHG581214,1.10024E+11,STRATFORD-MILL HOUSE,NORTH STRATFORD,COOS,NH,Non-Major,44.869834,-71.526999,4952,4952,SEWERAGE SYSTEMS,10801010404,Clough Brook-Connecticut River,498.16,0,0,0,17.00237785,36.57999881,0.017802167,,,https://echo.epa.gov/detailed-facility-report?fid=NHG581214&sys=ICP
2014,ICIS,CT0090182,1.10003E+11,NATIONAL MARINE FISHERIES,MILFORD,NEW HAVEN,CT,Non-Major,41.21171,-73.05407,8731,8731,COMMERCIAL PHYSICAL RESEARCH,11000040303,Milford Harbor-Frontal Long Island Sound,488.4125409,0,0,0,0.1225,0.29,0.3160445,,,https://echo.epa.gov/detailed-facility-report?fid=CT0090182&sys=ICP
2014,ICIS,NH0100382,1.10002E+11,HINSDALE WASTEWATER TREATMENT PLANT,HINSDALE,CHESHIRE,NH,Major,42.780338,-72.49205,4952,4952,SEWERAGE SYSTEMS,10802010403,Ashuelot River,443.5940594,0,0,0,3.128,3.128,0.228158333,,,https://echo.epa.gov/detailed-facility-report?fid=NH0100382&sys=ICP
2014,ICIS,VT0101109,1.10011E+11,WHITINGHAM,WHITINGHAM /T/,WINDHAM,VT,Non-Major,42.790116,-72.889556,,,,10802030105,Sherman Dam-Deerfield River,429.4921435,0,0,0,21.837,35.4,0.006575,,,https://echo.epa.gov/detailed-facility-report?fid=VT0101109&sys=ICP
2014,ICIS,CT0101770,1.1001E+11,REDDING WASTEWATER TREATMENT FACILITY,REDDING,FAIRFIELD,CT,Non-Major,41.258249,-73.429303,4952,4952,SEWERAGE SYSTEMS,11000060202,Norwalk River-Frontal Norwalk Harbor,429.1,0,0,0,2.390293198,2.579153746,0.058833333,,,https://echo.epa.gov/detailed-facility-report?fid=CT0101770&sys=ICP
2014,ICIS,VT0100846,1.10011E+11,BRIDGEWATER WWTF,BRIDGEWATER,WINDSOR,VT,Non-Major,43.587651,-72.624059,,,,10801060205,Beaver Brook-Ottauquechee River,395.54,0,0,0,16.3071341,30.99664233,0.008283333,,,https://echo.epa.gov/detailed-facility-report?fid=VT0100846&sys=ICP
2014,ICIS,NH0100366,1.10002E+11,LEBANON WASTEWATER TREATMENT FACILITY,LEBANON,GRAFTON,NH,Major,43.636805,-72.320541,4952,4952,SEWERAGE SYSTEMS,10801060106,Mascoma River,334.3786171,0,0,0,0.245333333,0.245333333,1.737391667,,,https://echo.epa.gov/detailed-facility-report?fid=NH0100366&sys=ICP
2014,ICIS,NH0023523,1.10065E+11,AVRRDD WWTP,BERLIN,COOS,NH,Non-Major,44.51217,-71.240727,4953,4953,REFUSE SYSTEMS,10801010703,North Branch Upper Ammonoosuc River,316.68,0,0,0,0.267939786,2.139624171,0.916555556,,,https://echo.epa.gov/detailed-facility-report?fid=NH0023523&sys=ICP
2014,ICIS,NY0088510,1.10019E+11,SEAWANHAKA-CORINTHIAN YACHT CLUB PROPERT,CENTRE ISLAND,NASSAU,NY,Non-Major,40.902056,-73.511194,8999,8999,"SERVICES, NEC",20302010201,Mill Neck Creek-Oyster Bay Harbor,285.8606265,0,0,0,27.25346222,37.35337993,0.002968125,,,https://echo.epa.gov/detailed-facility-report?fid=NY0088510&sys=ICP
2014,ICIS,NY0005932,1.10008E+11,NATIONAL GRID - PORT JEFFERSON POWER STATION,PORT JEFFERSON,SUFFOLK,NY,Non-Major,40.94969,-73.078431,4911,4911,ELECTRICAL SERVICES,20302010304,Mt Sinai Harbor-Port Jefferson Harbor,262.1052842,0,0,0,0.474166667,0.85,7.500314738,,,https://echo.epa.gov/detailed-facility-report?fid=NY0005932&sys=ICP
2014,ICIS,CT0101761,1.10009E+11,EAST HADDAM WATER POLLUTION CONTROL FACILITY,EAST HADDAM,MIDDLESEX,CT,Non-Major,41.4504,-72.45851,4952,4952,SEWERAGE SYSTEMS,10802050901,Deep River-Connecticut River,262,0,0,0,6.265586811,7.987930237,0.014,,,https://echo.epa.gov/detailed-facility-report?fid=CT0101761&sys=ICP
2014,ICIS,CT0030341,1.1003E+11,ROCKVILLE WATER TREATMENT PLANT,VERNON,TOLLAND,CT,Non-Major,41.86911,-72.43475,,,,10802050401,Upper Hockanum River,255.5803965,0,0,0,0.1133425,0.156666667,0.115946292,,Y,https://echo.epa.gov/detailed-facility-report?fid=CT0030341&sys=ICP
2014,ICIS,NH0100544,1.10002E+11,SUNAPEE WASTEWATER TREATMENT FACILITY,SUNAPEE,SULLIVAN,NH,Major,43.379784,-72.113507,4952,4952,SEWERAGE SYSTEMS,10801060405,Long Pond Brook-Sugar River,215.5830545,0,0,0,0.104,0.27,0.487325,,,https://echo.epa.gov/detailed-facility-report?fid=NH0100544&sys=ICP
2014,ICIS,VT0101141,1.1004E+11,SHERBURNE WPCF,KILLINGTON,RUTLAND,VT,Non-Major,43.648364,-72.786313,,,,10801060201,Headwaters Ottauquechee River,208.8603619,0,0,0,1,1.6,0.08382,,,https://echo.epa.gov/detailed-facility-report?fid=VT0101141&sys=ICP
2014,ICIS,VT0100951,1.10014E+11,RYEGATE FIRE DEPARTMENT .#2,RYEGATE,CALEDONIA,VT,Non-Major,44.20007,-72.06483,,,,10801030206,Manchester Brook-Connecticut River,199.28,0,0,0,26.82723702,40.41812116,0.006799167,,,https://echo.epa.gov/detailed-facility-report?fid=VT0100951&sys=ICP
2014,ICIS,NH0101168,1.10011E+11,MERIDEN VILLAGE WATER DISTRICT,MERIDEN,SULLIVAN,NH,Non-Major,43.54017,-72.26377,4952,4952,SEWERAGE SYSTEMS,10801060301,Bloods Brook,194.55,0,0,0,4.4458685,15.2872458,0.039083333,,,https://echo.epa.gov/detailed-facility-report?fid=NH0101168&sys=ICP
2014,ICIS,CT0001180,1.1E+11,SUMMIT CORP OF AMERICA,THOMASTON,LITCHFIELD,CT,Major,41.623153,-73.064553,3471,3471,PLATING AND POLISHING,11000051105,Northfield Brook-Naugatuck River,190.379737,0,0,0,11.78835078,18.29282207,0.156991167,,,https://echo.epa.gov/detailed-facility-report?fid=CT0001180&sys=ICP
2014,ICIS,CT0029530,1.10009E+11,TA OPERATING LLC,WILLINGTON,TOLLAND,CT,Non-Major,41.91852,-72.26036,4215,4215,"COURIER SERVICES, EXCEPT AIR",11000020104,Roaring Brook,179.294305,0,0,0,7.50625,12.75,0.00444,,,https://echo.epa.gov/detailed-facility-report?fid=CT0029530&sys=ICP
2014,ICIS,NY0005894,1.10007E+11,GLENWOOD ENERGY CENTER - OLD TURB,GLENWOOD LANDING,NASSAU,NY,Non-Major,40.82517,-73.64703,4911,4911,ELECTRICAL SERVICES,20302010103,Glen Cove Creek-Hempstead Harbor,169.7963085,0,0,0,24.41,80,0.000884363,,,https://echo.epa.gov/detailed-facility-report?fid=NY0005894&sys=ICP
2014,ICIS,NHG581249,1.10028E+11,LANCASTER GRANGE WASTEWATER TREATMENT PLANT,LANCASTER,COOS,NH,Non-Major,44.481841,-71.528227,4952,4952,SEWERAGE SYSTEMS,10801010805,Otter Brook,166.036,0,0,0,15.75604929,21.96680815,0.003691667,,,https://echo.epa.gov/detailed-facility-report?fid=NHG581249&sys=ICP
2014,ICIS,CT0100854,1.10001E+11,RIDGEFIELD WATER POLLUTION CONTROL FACILITY,RIDGEFIELD,FAIRFIELD,CT,Major,41.290159,-73.490438,4952,4952,SEWERAGE SYSTEMS,11000060202,Norwalk River-Frontal Norwalk Harbor,161.7926713,0,0,0,0.074285714,0.1,0.803,,,https://echo.epa.gov/detailed-facility-report?fid=CT0100854&sys=ICP
2014,ICIS,MA0102156,1.10009E+11,TEMPLETON DEVELOPMENT CENTER,TEMPLETON (BALDWINVILLE),WORCESTER,MA,Non-Major,42.591474,-72.116216,8211,8211,ELEMENTARY & SECONDARY SCHOOLS,10802020204,Beaver Brook-Millers River,139.972958,0,0,0,0.567416667,4.05,0.0233325,,,https://echo.epa.gov/detailed-facility-report?fid=MA0102156&sys=ICP
2014,ICIS,VT0100765,1.10011E+11,WOODSTOCK - TAFTSVILLE,TAFTSVILLE,WINDSOR,VT,Non-Major,43.630932,-72.467758,,,,10801060207,Ottauquechee River,117.3658222,0,0,0,15.9125,26.3,0.0025,,,https://echo.epa.gov/detailed-facility-report?fid=VT0100765&sys=ICP
2014,ICIS,CT0101818,1.10011E+11,"CONVENT OF THE SACRED HEART SCHOOL GREENWICH, INC.",GREENWICH,FAIRFIELD,CT,Non-Major,41.06406,-73.69544,4952,4952,SEWERAGE SYSTEMS,11000060405,Blind Brook-Horseneck Brook,109.7906538,0,0,0,6.3625,11.97,0.005637417,,,https://echo.epa.gov/detailed-facility-report?fid=CT0101818&sys=ICP
2014,ICIS,CT0030155,1.10002E+11,TILCON CONNECTICUT AGGREGATE & ASPHALT,NEWINGTON,HARTFORD,CT,Non-Major,41.71873,-72.7152,1429,1429,"CRUSHED AND BROKEN STONE, NEC",10802050303,Piper Brook-Park River,80.81131158,0,0,0,1.114375,2.505,0.01193675,,,https://echo.epa.gov/detailed-facility-report?fid=CT0030155&sys=ICP
2014,ICIS,CT0030473,1.10041E+11,PLAINFIELD RENEWABLE ENRGY LLC,PLAINFIELD,WINDHAM,CT,Non-Major,41.66084,-71.92495,4911,4911,ELECTRICAL SERVICES,11000010702,Mill Brook,74.88568711,0,0,0,0.342555556,0.74,0.06260825,,,https://echo.epa.gov/detailed-facility-report?fid=CT0030473&sys=ICP
2014,ICIS,NY0030767,1.1002E+11,OAKRIDGE STP,SOUTH SALEM,WESTCHESTER,NY,Non-Major,41.213403,-73.518449,4952,4952,SEWERAGE SYSTEMS,11000060401,Rippowam River,73.30176836,0,0,0,0.446078432,0.823529412,0.053333333,,,https://echo.epa.gov/detailed-facility-report?fid=NY0030767&sys=ICP
2014,ICIS,MA0100188,1.1001E+11,MONROE WASTEWATER TREATMENT FACILITY,MONROE,FRANKLIN,MA,Non-Major,42.721141,-72.941875,4952,4952,SEWERAGE SYSTEMS,10802030201,Pelham Brook-Deerfield River,58.95004914,0,0,0,8.493666667,8.493666667,0.010999167,,,https://echo.epa.gov/detailed-facility-report?fid=MA0100188&sys=ICP
2014,ICIS,MA0040482,1.10065E+11,WEST PARISH WATER TREATMENT PLANT,WESTFIELD,HAMPDEN,MA,Non-Major,42.1156,-72.83238,,,,10802060303,Little River,56.87382141,0,0,0,0.092326059,0.122201139,0.9925,,,https://echo.epa.gov/detailed-facility-report?fid=MA0040482&sys=ICP
2014,ICIS,CT0021873,1.10034E+11,GBC METALS LLC SOMERS THIN STRIP,WATERBURY,NEW HAVEN,CT,Major,41.534338,-73.032406,3351,3351,ROLL/DRAW/EXTRUDING OF COPPER,11000051205,Long Meadow Pond Brook-Naugatuck River,49.23943804,0,0,0,0.0975,0.28,0.029309361,,,https://echo.epa.gov/detailed-facility-report?fid=CT0021873&sys=ICP
2014,ICIS,CT0028631,1.10002E+11,UNIVERSITY OF CONNECTICUT,GROTON,NEW LONDON,CT,Non-Major,41.315821,-72.062687,8221,8221,"COLLEGES, UNIV & PROF SCHOOLS",11000030303,Stony Brook-Frontal Fishers Island Sound,43.21920519,0,0,0,0.025,0.03,0.173869167,,,https://echo.epa.gov/detailed-facility-report?fid=CT0028631&sys=ICP
2014,ICIS,CT0101052,1.1001E+11,SHARON WATER POLLUTION CONTROL FACILITY,SHARON,LITCHFIELD,CT,Non-Major,41.88358,-73.48861,4952,4952,SEWERAGE SYSTEMS,11000050502,Mudge Pond Brook,41.77262321,0,0,0,0.3,0.7,0.045,,,https://echo.epa.gov/detailed-facility-report?fid=CT0101052&sys=ICP
2014,ICIS,CT0001376,1.10065E+11,"UNITED TECHNOLOGIES CORPORATION, PRATT AND WHITNEY DIVISION",EAST HARTFORD,HARTFORD COUNTY,CT,Major,41.740541,-72.640907,3724,3724,AIRCRAFT ENGINES & ENGINE PART,10802050505,Goff Brook-Connecticut River,40.37195906,0,0,0,0.8159375,4.18,0.089920021,,,https://echo.epa.gov/detailed-facility-report?fid=CT0001376&sys=ICP
2014,ICIS,NY0274526,1.10063E+11,PEACH LAKE SEWER DISTRICT WWTP,"SOUTHEAST, TOWN OF",PUTNAM,NY,Non-Major,41.21159,-73.51961,4952,4952,SEWERAGE SYSTEMS,11000060401,Rippowam River,38.95337761,0,0,0,0.247058824,0.576470588,0.051666667,,,https://echo.epa.gov/detailed-facility-report?fid=NY0274526&sys=ICP
2014,ICIS,MA0000272,1.10056E+11,PAN AM RAILWAYS YARD,DEERFIELD,FRANKLIN,MA,Non-Major,42.57221,-72.56679,4011,4011,"RAILROADS, LINE HAUL OPERATING",10802010602,Russellville Brook-Connecticut River,30.98839858,0,0,0,3.468067204,4.814666667,0.016042494,,,https://echo.epa.gov/detailed-facility-report?fid=MA0000272&sys=ICP
2014,ICIS,MA0005282,1.10065E+11,USM CORP TEXON DIV-RUSSELL,RUSSELL,HAMPDEN,MA,Major,42.2233,-72.86853,2621,2621,PAPER MILLS,10802060301,Moose Meadow Brook-Westfield River,30.3638105,0,0,0,0.815,0.815,0.006,,,https://echo.epa.gov/detailed-facility-report?fid=MA0005282&sys=ICP
2014,ICIS,CT0000841,1.10001E+11,"KING INDUSTRIES, INC.",NORWALK,FAIRFIELD COUNTY,CT,Non-Major,41.108491,-73.41271,2869,2869,INDUST. ORGANIC CHEMICALS NEC,11000060202,Norwalk River-Frontal Norwalk Harbor,28.5307783,0,0,0,0.4075,0.55,0.020249667,,,https://echo.epa.gov/detailed-facility-report?fid=CT0000841&sys=ICP
2014,ICIS,CT0003131,1.10065E+11,TRINSEO LLC,LEDYARD,NEW LONDON,CT,Major,41.44167,-72.07892,2819,2819,INDUSTRIAL INORGANIC CHEMICALS,11000030203,Thames River-Frontal New London Harbor,18.30693955,0,0,0,0.4225,0.6,0.007167021,,,https://echo.epa.gov/detailed-facility-report?fid=CT0003131&sys=ICP
2014,ICIS,CT0003107,1.10031E+11,NRG DEVON STATION POWER PLANT,MILFORD,NEW HAVEN,CT,Major,41.209171,-73.108209,4911,4911,ELECTRICAL SERVICES,11000051302,Housatonic River-Frontal Long Island Sound,11.02,0,0,0,0.155411867,1.04793137,0.022981917,,,https://echo.epa.gov/detailed-facility-report?fid=CT0003107&sys=ICP
2014,ICIS,MA0001350,1.1E+11,LS STARRETT PRECISION TOOLS,ATHOL,WORCESTER,MA,Major,42.595325,-72.226707,3545,3545,MACHINE TOOL ACCESSORIES,10802020204,Beaver Brook-Millers River,10.3075293,0,0,0,0.312941177,0.312941177,0.005857463,,,https://echo.epa.gov/detailed-facility-report?fid=MA0001350&sys=ICP
2014,ICIS,CT0003701,1.10041E+11,ALLEGHENY LUDLUM STEEL STRIP PLANT,WALLINGFORD,NEW HAVEN,CT,Major,41.45405,-72.8345,3316,3316,COLD ROLLED STEEL SHEET/STRIP,11000040105,Outlet Quinnipiac River,6.120895052,0,0,0,0.095,0.19,0.02723725,,,https://echo.epa.gov/detailed-facility-report?fid=CT0003701&sys=ICP
2014,ICIS,NY0105741,1.10008E+11,FOX LANE CAMPUS,BEDFORD,WESTCHESTER,NY,Non-Major,41.18632,-73.63554,8999,8999,"SERVICES, NEC",11000060402,Mianus River,5.270359343,0,0,0,0.190784314,0.988235294,0.008,,,https://echo.epa.gov/detailed-facility-report?fid=NY0105741&sys=ICP
2014,ICIS,CT0026212,1.10011E+11,IBM CORPORATION,SOUTHBURY,NEW HAVEN,CT,Non-Major,41.469707,-73.213669,7371,7371,CUSTOM COMPUTER PROG SERVICES,11000050903,Pomperaug River,4.759263731,0,0,0,0.2425,0.88,0.007833333,,,https://echo.epa.gov/detailed-facility-report?fid=CT0026212&sys=ICP
2014,ICIS,CT0003115,1.1E+11,NRG MONTVILLE POWER STATION,MONTVILLE (UNCASVILLE),NEW LONDON,CT,Major,41.427387,-72.102263,4911,4911,ELECTRICAL SERVICES,11000030203,Thames River-Frontal New London Harbor,3.316357756,0,0,0,0.152666667,0.203333333,14.5724889,,,https://echo.epa.gov/detailed-facility-report?fid=CT0003115&sys=ICP
2014,ICIS,CT0002968,1.1E+11,ANSONIA COPPER & BRASS,ANSONIA,NEW HAVEN,CT,Major,41.35053,-73.08159,3351,3351,ROLL/DRAW/EXTRUDING OF COPPER,11000051207,Bladens River-Naugatuck River,1.658903731,0,0,0,0.03625,0.145,0.002005958,,,https://echo.epa.gov/detailed-facility-report?fid=CT0002968&sys=ICP
2014,ICIS,NY0260312,1.1001E+11,"MOUNT VERNON DPW, CITY YARD",MOUNT VERNON,WESTCHESTER,NY,Non-Major,40.895833,-73.822222,7538,7538,GENERAL AUTO REPAIR SHOPS,20301020201,Hutchinson River-Eastchester Bay,1.00089699,0.34962532,0,0.34962532,3.09925,6.02,8.275E-05,,Y,https://echo.epa.gov/detailed-facility-report?fid=NY0260312&sys=ICP
2014,ICIS,MA0027871,1.10007E+11,"MAPLES, THE",WORTHINGTON,HAMPSHIRE,MA,Non-Major,42.41346,-72.93702,6513,6513,OPERATORS OF APART BUILDINGS,10802060105,Little River-Westfield River,0.279421569,0,0,0,0.033333333,0.3,0.0009,,,https://echo.epa.gov/detailed-facility-report?fid=MA0027871&sys=ICP
2014,ICIS,CT0020800,1.1001E+11,"HIGH TOWERS TRADING, LLC",GREENWICH,FAIRFIELD,CT,Non-Major,41.07411,-73.70177,,,,11000060405,Blind Brook-Horseneck Brook,1.34894E-05,0,0,0,0.9375,3.38,4.56667E-09,,,https://echo.epa.gov/detailed-facility-report?fid=CT0020800&sys=ICP
2014,ICIS,NYR00C613,1.10033E+11,J & J LOG AND LUMBER CORP,DOVER PLAINS,DUTCHESS,NY,Non-Major,41.686,-73.565,2411,2411,LOGGING CAMPS/LOGGING CONTRACT,11000050506,Tenmile River,0,0,0,0,0.4325,0.46,,,,https://echo.epa.gov/detailed-facility-report?fid=NYR00C613&sys=ICP
2014,ICIS,NYR00E083,1.10007E+11,AMENIA SAND & GRAVEL,AMENIA,DUTCHESS,NY,Non-Major,41.84088,-73.50957,2951,2951,PAVING MIXTURES AND BLOCKS,11000050503,Outlet Webatuck Creek,0,0,0,0,0.03,0.03,,,,https://echo.epa.gov/detailed-facility-report?fid=NYR00E083&sys=ICP
2014,ICIS,NYR00F294,1.10055E+11,WASSAIC PIT,AMENIA,DUTCHESS,NY,Non-Major,41.882,-73.561,1442,1442,CONSTRUCTION SAND AND GRAVEL,11000050504,Wassaic Creek,0,0,0,0,0,0,,,,https://echo.epa.gov/detailed-facility-report?fid=NYR00F294&sys=ICP
2014,ICIS,NY0022128,1.10065E+11,GREAT NECK (V) WPCP,GREAT NECK,NASSAU,NY,Major,40.797539,-73.713261,4952,4952,SEWERAGE SYSTEMS,20302010102,Mitchells Creek-Manhassett Bay,0,0,0,0,0,0,,,,https://echo.epa.gov/detailed-facility-report?fid=NY0022128&sys=ICP
2014,ICIS,MA0001503,1.1001E+11,JPS ELASTOMERICS CORP,EASTHAMPTON,HAMPSHIRE,MA,Non-Major,42.25437,-72.69332,3081,3081,UNSUPPORTED PLSTICS FILM/SHEET,10802010609,Lower Manhan River,0,0,0,0,0,0,9.5625E-05,,,https://echo.epa.gov/detailed-facility-report?fid=MA0001503&sys=ICP
2014,ICIS,CT0020826,1.10001E+11,AUTOSWAGE PRODUCTS,SHELTON,FAIRFIELD,CT,Major,41.26943,-73.09172,3559,3559,"SPECIAL INDUSTRY MACHINERY,NEC",11000051302,Housatonic River-Frontal Long Island Sound,0,0,0,0,0,0,0,,,https://echo.epa.gov/detailed-facility-report?fid=CT0020826&sys=ICP
2014,ICIS,NY0098868,1.10033E+11,TACONIC DDSO,WASSAIC,DUTCHESS,NY,Non-Major,41.775056,-73.566972,8999,8999,"SERVICES, NEC",11000050506,Tenmile River,0,0,0,0,1.333333333,3,0.0014,,,https://echo.epa.gov/detailed-facility-report?fid=NY0098868&sys=ICP
2014,ICIS,CT0030562,1.10002E+11,UNIVERSITY OF CONNECTICUT,GROTON,NEW LONDON,CT,Non-Major,41.315821,-72.062687,,,,11000030303,Stony Brook-Frontal Fishers Island Sound,0,0,0,0,0,0,0.0864,,,https://echo.epa.gov/detailed-facility-report?fid=CT0030562&sys=ICP
2014,ICIS,NYR00F018,1.10044E+11,MAGELLAN AEROSPACE NY CORONA,CORONA,QUEENS,NY,Non-Major,40.742,-73.865,3471,3471,PLATING AND POLISHING,20301020104,Flushing Creek-Flushing Bay,0,0,0,0,1.189666667,1.95,,,,https://echo.epa.gov/detailed-facility-report?fid=NYR00F018&sys=ICP
2014,ICIS,CT0101346,1.10009E+11,"LYNWOOD PLACE, LLC",SANDY HOOK,FAIRFIELD,CT,Non-Major,41.4322,-73.27559,4952,4952,SEWERAGE SYSTEMS,11000051001,Pootatuck River,0,0,0,0,0,0,0,,,https://echo.epa.gov/detailed-facility-report?fid=CT0101346&sys=ICP
2014,ICIS,CT0030635,1.10044E+11,"TILCON CONNECTICUT, INC",GRISWOLD,NEW LONDON,CT,Non-Major,41.536192,-71.895535,,,,11000010602,Lower Pachaug River,0,0,0,0,0,0,,,,https://echo.epa.gov/detailed-facility-report?fid=CT0030635&sys=ICP
2014,ICIS,CT0026972,1.10001E+11,STERLING ENERGY WASTE TIRE INCINERATION FAC,STERLING,WINDHAM,CT,Non-Major,41.7122,-71.8212,4931,4931,ELEC & OTHER SERVICES COMBINED,11000010503,Lower Moosup River,0,0,0,0,0,0,0,,,https://echo.epa.gov/detailed-facility-report?fid=CT0026972&sys=ICP
2014,ICIS,NHG580099,1.10002E+11,HANOVER WASTEWATER TREATMENT FACILITY,HANOVER,GRAFTON,NH,Non-Major,43.69523,-72.297549,4952,4952,SEWERAGE SYSTEMS,10801040401,Mink Brook,0,0,0,0,0,0,1.270583333,,,https://echo.epa.gov/detailed-facility-report?fid=NHG580099&sys=ICP
2014,ICIS,MA0032573,1.10009E+11,NORTHFIELD MOUNT HERMON SCHOOL WASTEWATER TREATMENT PLANT,GILL,FRANKLIN,MA,Non-Major,42.63016,-72.51697,4952,4952,SEWERAGE SYSTEMS,10802010503,Dry Brook-Connecticut River,0,0,0,0,33.15,53,0.080583333,,,https://echo.epa.gov/detailed-facility-report?fid=MA0032573&sys=ICP
2014,ICIS,CT0026298,1.1E+11,AES THAMES POWER PLANT,MONTVILLE (UNCASVILLE),NEW LONDON,CT,Major,41.43423,-72.0976,4931,4931,ELEC & OTHER SERVICES COMBINED,11000030203,Thames River-Frontal New London Harbor,0,0,0,0,0,0,0,,,https://echo.epa.gov/detailed-facility-report?fid=CT0026298&sys=ICP
2014,ICIS,MA0001147,1.1E+11,SOLUTIA CHEMICAL MANUFACTURING PLANT,SPRINGFIELD,HAMPDEN,MA,Non-Major,42.154981,-72.526419,2821,2821,PLSTC MAT./SYN RESINS/NV ELAST,10802040402,Outlet Chicopee River,0,0,0,0,0.065058824,0.337647059,0.206205483,,,https://echo.epa.gov/detailed-facility-report?fid=MA0001147&sys=ICP
2014,ICIS,VT0101214,1.10011E+11,COLD BROOK FIRE DISTRICT NO. 1,WILMINGTON,WINDHAM,VT,Non-Major,42.89781,-72.85709,,,,10802030103,North Branch Deerfield River,0,0,0,0,0,0,0,,,https://echo.epa.gov/detailed-facility-report?fid=VT0101214&sys=ICP
2014,ICIS,NH0021423,1.1001E+11,PINETREE POWER,BETHLEHEM,GRAFTON,NH,Non-Major,44.328297,-71.690298,4911,4911,ELECTRICAL SERVICES,10801030403,Baker Brook-Ammonoosuc River,0,0,0,0,0,0,0.017505625,,,https://echo.epa.gov/detailed-facility-report?fid=NH0021423&sys=ICP
2014,ICIS,NY0026999,1.10001E+11,VILLAGE OF GREAT NECK STP,GREAT NECK,NASSAU,NY,Major,40.797722,-73.712139,4952,4952,SEWERAGE SYSTEMS,20302010102,Mitchells Creek-Manhassett Bay,0,0,0,0,8.386333333,13,,,,https://echo.epa.gov/detailed-facility-report?fid=NY0026999&sys=ICP
2014,ICIS,CT0030678,1.10063E+11,HAYNES MATERIALS COMPANY,NAUGATUCK,NEW HAVEN,CT,Non-Major,41.46777,-73.02014,,,,11000051207,Bladens River-Naugatuck River,0,0,0,0,0,0,,,,https://echo.epa.gov/detailed-facility-report?fid=CT0030678&sys=ICP
2014,ICIS,NY0023311,1.10002E+11,SCSD#6 - KINGS PARK STP,KINGS PARK,SUFFOLK,NY,Major,40.895719,-73.231024,4952,4952,SEWERAGE SYSTEMS,20302010302,Nissequogue River,0,0,0,0,2.820833333,13.3,,,,https://echo.epa.gov/detailed-facility-report?fid=NY0023311&sys=ICP
2014,ICIS,MA0100161,1.10009E+11,ROYALSTON WASTEWATER TREATMENT PLANT,ROYALSTON,WORCESTER,MA,Non-Major,42.62896,-72.15324,4952,4952,SEWERAGE SYSTEMS,10802020204,Beaver Brook-Millers River,0,0,0,0,0,0,0.001811352,,,https://echo.epa.gov/detailed-facility-report?fid=MA0100161&sys=ICP
2014,ICIS,CT0026123,1.10012E+11,MERIDEN MUNICIPAL LANDFILL,MERIDEN,NEW HAVEN,CT,Non-Major,41.511446,-72.82824,4953,4953,REFUSE SYSTEMS,11000040105,Outlet Quinnipiac River,0,0,0,0,0,0,0,,,https://echo.epa.gov/detailed-facility-report?fid=CT0026123&sys=ICP
2014,ICIS,CT0030465,1.10031E+11,HAYNES MATERIALS COMPANY,DEEP RIVER,MIDDLESEX,CT,Non-Major,41.364706,-72.465156,1411,1411,DIMENSION STONE,10802050901,Deep River-Connecticut River,0,0,0,0,0,0,0,,,https://echo.epa.gov/detailed-facility-report?fid=CT0030465&sys=ICP
2014,ICIS,NYR00D814,1.10018E+11,H.O. PENN MACHINERY CO,BRONX,BRONX,NY,Non-Major,40.819,-73.837,5082,5082,CONST & MINING MACHINE & EQUIP,20301020105,Westchester Creek-East River,0,0,0,0,1.525,4,,,,https://echo.epa.gov/detailed-facility-report?fid=NYR00D814&sys=ICP
2014,ICIS,CT0027201,1.10009E+11,DEPT. OF TRANSPORTATION,GREENWICH,FAIRFIELD,CT,Non-Major,41.014357,-73.638416,4212,4212,LOCAL TRUCKING WITHOUT STORAGE,11000060405,Blind Brook-Horseneck Brook,0,0,0,0,1.56,1.56,,,,https://echo.epa.gov/detailed-facility-report?fid=CT0027201&sys=ICP
2014,ICIS,CT0024805,1.1001E+11,LAKE WARAMAUG RESTORATION SYS,WASHINGTON,LITCHFIELD,CT,Non-Major,41.698067,-73.373371,9999,9999,NONCLASSIFIABLE ESTABLISHMENTS,11000050602,East Aspetuck River,0,0,0,0,0,0,0.4875,,,https://echo.epa.gov/detailed-facility-report?fid=CT0024805&sys=ICP
2014,ICIS,CT0003441,1.1001E+11,"WINDSOR-STEVENS, INC.",WINDSOR,HARTFORD,CT,Non-Major,41.912483,-72.687101,2611,2611,PULP MILLS,10802070602,Mill Brook-Farmington River,0,0,0,0,0,0,0,,,https://echo.epa.gov/detailed-facility-report?fid=CT0003441&sys=ICP
2014,ICIS,MA0040312,1.10001E+11,PITTSFIELD SAND & GRAVEL,PITTSFIELD,BERKSHIRE ,MA,Non-Major,42.45462,-73.21171,1442,1442,CONSTRUCTION SAND AND GRAVEL,11000050103,East Branch Housatonic River,0,0,0,0,0,0,0,,,https://echo.epa.gov/detailed-facility-report?fid=MA0040312&sys=ICP
2014,ICIS,NYR00E884,1.10042E+11,DOVER MINE,DOVER PLAINS,DUTCHESS,NY,Non-Major,41.691,-73.582,1442,1442,CONSTRUCTION SAND AND GRAVEL,11000050505,Swamp River,0,0,0,0,0,0,,,,https://echo.epa.gov/detailed-facility-report?fid=NYR00E884&sys=ICP
2014,ICIS,NH0001562,1.1E+11,GROVETON PAPER BOARD MILL (FORMER),NORTHUMBERLAND,COOS,NH,Major,44.598865,-71.510138,2621,2621,PAPER MILLS,10801010707,Upper Ammonoosuc River,0,0,0,0,0,0,0,,,https://echo.epa.gov/detailed-facility-report?fid=NH0001562&sys=ICP
2014,ICIS,MA0040355,1.10012E+11,IPG PHOTONICS CORPORATION,OXFORD,WORCESTER,MA,Non-Major,42.081383,-71.881184,3674,3674,SEMICONDUCTORS & RELATED DEVIC,11000010203,Middle French River,0,0,0,0,0,0,0,,,https://echo.epa.gov/detailed-facility-report?fid=MA0040355&sys=ICP
2014,ICIS,CT0030431,1.10014E+11,HYPONEX CORPORATION,LEBANON,NEW LONDON,CT,Non-Major,41.640707,-72.17095,711,711,SOIL PREPARATION SERVICES,11000030102,Susquetonscut Brook,0,0,0,0,0.805333333,2.6,,,,https://echo.epa.gov/detailed-facility-report?fid=CT0030431&sys=ICP
2014,ICIS,NY0020079,1.10002E+11,GREENPORT POWER PLANT,GREENPORT,SUFFOLK,NY,Major,41.108361,-72.38575,4952,4952,SEWERAGE SYSTEMS,20302010402,Goldsmith Inlet-Mattituck Creek,0,0,0,0,0,0,0.124791667,,,https://echo.epa.gov/detailed-facility-report?fid=NY0020079&sys=ICP
2014,ICIS,CT0021504,1.1E+11,ROGERS CORPORATION,WOODSTOCK,WINDHAM,CT,Non-Major,41.98372,-71.97631,1752,1752,FLOOR LAY & OTHER FLOOR WORK,11000010401,Little River,0,0,0,0,0,0,0,,,https://echo.epa.gov/detailed-facility-report?fid=CT0021504&sys=ICP
