Year,Data Source,NPDES Permit Number,FRS ID,Facility Name,City,County,State,Major/Non-Major Status,Facility Latitude,Facility Longitude,SIC Code,4-Digit SIC Code,SIC Description,HUC 12 Code,Watershed Name,Total Pounds (lb/yr),Load Over Limit,Total TWPE (lb-eq/yr),TWPE Over Limit,Avg Concentration (mg/L),Max Concentration (mg/L),Average Flow (MGD),Links to TRI ID,Contains Potential Outliers?,Link to DFR
2016,ICIS,NY0026158,1.10001E+11,NYCDEP - BOWERY BAY WPCP,ASTORIA,QUEENS,NY,Major,40.778405,-73.89459,4952,4952,SEWERAGE SYSTEMS,20301020105,Westchester Creek-East River,3669100,0,0,0,11.84619263,17.11699337,101.5,,,https://echo.epa.gov/detailed-facility-report?fid=NY0026158&sys=ICP
2016,ICIS,NY0026191,1.10013E+11,HUNTS POINT WATER POLLUTION CONTROL PLANT,BRONX,BRONX,NY,Major,40.803694,-73.885083,4952,4952,SEWERAGE SYSTEMS,20301020105,Westchester Creek-East River,2210500,0,0,0,5.927623267,9.106240471,122.75,,,https://echo.epa.gov/detailed-facility-report?fid=NY0026191&sys=ICP
2016,ICIS,NY0026239,1.10002E+11,TALLMAN ISLAND WASTEWATER TREATMENT PLANT,COLLEGE POINT,QUEENS,NY,Major,40.795556,-73.839333,4952,4952,SEWERAGE SYSTEMS,20301020105,Westchester Creek-East River,1413700,0,0,0,8.286692751,10.27019602,56,,,https://echo.epa.gov/detailed-facility-report?fid=NY0026239&sys=ICP
2016,ICIS,MA0101508,1.10001E+11,CHICOPEE WATER POLLUTION CONTROL,CHICOPEE,HAMPDEN,MA,Major,42.15376,-72.62166,4952,4952,SEWERAGE SYSTEMS,10802040402,Outlet Chicopee River,676772,0,0,0,17.16618395,38.1714139,3.204323637,,,https://echo.epa.gov/detailed-facility-report?fid=MA0101508&sys=ICP
2016,ICIS,MA0101613,1.10008E+11,SPRINGFIELD REGIONAL WASTEWATER TREATMENT PLANT,AGAWAM,HAMPDEN,MA,Major,42.087793,-72.588998,4952,4952,SEWERAGE SYSTEMS,10802010702,Stony Brook-Connecticut River,599597.5091,0,0,0,2.924,5.7415,33.80833333,,,https://echo.epa.gov/detailed-facility-report?fid=MA0101613&sys=ICP
2016,ICIS,NY0026841,1.10007E+11,BELGRAVE WPCP,GREAT NECK,NASSAU,NY,Major,40.778861,-73.7425,4952,4952,SEWERAGE SYSTEMS,20302010101,Alley Creek-Little Neck Bay,450504.1866,0,0,0,36.52211111,411.0666667,1.338333333,,Y,https://echo.epa.gov/detailed-facility-report?fid=NY0026841&sys=ICP
2016,ICIS,MA0101681,1.10007E+11,PITTSFIELD WASTEWATER TREATMENT FACILITY,PITTSFIELD,BERKSHIRE,MA,Major,42.407678,-73.24276,4952,4952,SEWERAGE SYSTEMS,11000050104,Sackett Brook-Housatonic River,416810,0,0,0,15.76405017,18.15167729,8.833333333,,,https://echo.epa.gov/detailed-facility-report?fid=MA0101681&sys=ICP
2016,ICIS,MA0100439,1.10024E+11,WEBSTER WASTWATER TREATMENT FACILITY,WEBSTER,WORCESTER,MA,Major,42.038576,-71.888022,4952,4952,SEWERAGE SYSTEMS,11000010203,Middle French River,287232.0727,0,0,0,4.539166667,7.006666667,2.88675,,,https://echo.epa.gov/detailed-facility-report?fid=MA0100439&sys=ICP
2016,ICIS,NY0026786,1.10001E+11,PORT CHESTER  WASTEWATER TREATMENT PLANT,PORT CHESTER,WESTCHESTER,NY,Major,40.992028,-73.658556,4952,4952,SEWERAGE SYSTEMS,11000060403,Byram River,268898,0,0,0,0,0,4.226027397,,,https://echo.epa.gov/detailed-facility-report?fid=NY0026786&sys=ICP
2016,ICIS,CT0003760,1.10001E+11,PSEG FOSSIL LLC/ POWER CT LLC,NEW HAVEN,NEW HAVEN,CT,Major,41.283986,-72.904546,4911,4911,ELECTRICAL SERVICES,11000040208,Indian River-Frontal Long Island Sound,252589.6815,0,0,0,0.078958333,0.22,34.16881737,,,https://echo.epa.gov/detailed-facility-report?fid=CT0003760&sys=ICP
2016,ICIS,MA0101630,1.10001E+11,HOLYOKE WATER POLLUTION CONTROL FACILITY,HOLYOKE,HAMPDEN,MA,Major,42.191041,-72.612574,4952,4952,SEWERAGE SYSTEMS,10802010702,Stony Brook-Connecticut River,250883.8552,0,0,0,11.59583333,15.4,7.116666667,,,https://echo.epa.gov/detailed-facility-report?fid=MA0101630&sys=ICP
2016,ICIS,CT0101249,1.10007E+11,NORWALK WASTEWATER TREATMENT PLANT,NORWALK,FAIRFIELD,CT,Major,41.102216,-73.412604,4952,4952,SEWERAGE SYSTEMS,11000060202,Norwalk River-Frontal Norwalk Harbor,233305,0,0,0,6.205737213,7.03524131,12.45833333,,,https://echo.epa.gov/detailed-facility-report?fid=CT0101249&sys=ICP
2016,ICIS,CT0100366,1.10002E+11,GREATER NEW HAVEN WPCA,NEW HAVEN,NEW HAVEN,CT,Major,41.282563,-72.902505,4952,4952,SEWERAGE SYSTEMS,11000040208,Indian River-Frontal Long Island Sound,231768.7743,0,0,0,2.93,8.5,24.29166667,,,https://echo.epa.gov/detailed-facility-report?fid=CT0100366&sys=ICP
2016,ICIS,MA0101214,1.10024E+11,GREENFIELD WATER POLLUTION CONTROL FACILITY,GREENFIELD,FRANKLIN,MA,Major,42.571367,-72.598121,4952,4952,SEWERAGE SYSTEMS,10802030402,Lower Green River,168003.971,0,0,0,20.58333333,27,2.81275,,,https://echo.epa.gov/detailed-facility-report?fid=MA0101214&sys=ICP
2016,ICIS,CT0100617,1.10001E+11,WALLINGFORD WATER POLLUTION CONTROL FACILITY,WALLINGFORD,NEW HAVEN,CT,Major,41.446099,-72.837583,4952,4952,SEWERAGE SYSTEMS,11000040105,Outlet Quinnipiac River,165607.3059,0,0,0,11.3875,13.3,4.836666667,,,https://echo.epa.gov/detailed-facility-report?fid=CT0100617&sys=ICP
2016,ICIS,VT0100064,1.10005E+11,BRATTLEBORO WASTEWATER TREATMENT FACILITY,BRATTLEBORO,WINDHAM,VT,Major,42.841045,-72.549205,,,,10801070507,Vernon Dam-Connecticut River,162720.3662,0,0,0,55.13333333,67.4,1.104166667,,,https://echo.epa.gov/detailed-facility-report?fid=VT0100064&sys=ICP
2016,ICIS,MA0100994,1.10044E+11,GARDNER WWTF,EAST TEMPLETON,WORCESTER,MA,Major,42.5698,-72.0201,4952,4952,SEWERAGE SYSTEMS,10802020201,Otter River,137540,0,0,0,18.0845628,23.81869745,2.495833333,,,https://echo.epa.gov/detailed-facility-report?fid=MA0100994&sys=ICP
2016,ICIS,MA0101818,1.10002E+11,NORTHAMPTON WASTEWATER TREATMENT PLANT,NORTHAMPTON,HAMPSHIRE,MA,Major,42.313056,-72.623333,4952,4952,SEWERAGE SYSTEMS,10802010610,Dry Brook-Connecticut River,129401.82,0,0,0,12.33426007,20.0487064,3.416666667,,,https://echo.epa.gov/detailed-facility-report?fid=MA0101818&sys=ICP
2016,ICIS,MA0100218,1.1001E+11,AMHERST WASTEWATER TREATMENT PLANT,HADLEY,HAMPSHIRE,MA,Major,42.387696,-72.537382,4952,4952,SEWERAGE SYSTEMS,10802010603,Doolittle Brook-Mill River,122445,0,0,0,12.53844473,16.62610145,3.159833333,,,https://echo.epa.gov/detailed-facility-report?fid=MA0100218&sys=ICP
2016,ICIS,NH0100099,1.10002E+11,HANOVER WASTEWATER TREATMENT FACILITY,HANOVER,GRAFTON,NH,Non-Major,43.69523,-72.297549,,,,10801040401,Mink Brook,114222.5455,0,0,0,30.59952416,36.55315978,1.228363636,,,https://echo.epa.gov/detailed-facility-report?fid=NH0100099&sys=ICP
2016,ICIS,MA0100455,1.10001E+11,SOUTH HADLEY WASTEWATER TREATMENT FACILITY,CHICOPEE,HAMPDEN,MA,Major,42.205371,-72.58814,4952,4952,SEWERAGE SYSTEMS,10802010702,Stony Brook-Connecticut River,105165.4152,0,0,0,19.05,26.5,1.941666667,,,https://echo.epa.gov/detailed-facility-report?fid=MA0100455&sys=ICP
2016,ICIS,CT0100625,1.10002E+11,WATERBURY WATER POLLUTION CONTROL FACILITY,WATERBURY,NEW HAVEN,CT,Major,41.52161,-73.04427,4952,4952,SEWERAGE SYSTEMS,11000051205,Long Meadow Pond Brook-Naugatuck River,98528.35757,0,0,0,1.801666667,6.45,15.4975,,,https://echo.epa.gov/detailed-facility-report?fid=CT0100625&sys=ICP
2016,ICIS,MA0101478,1.10001E+11,EASTHAMPTON WASTEWATER TREATMENT PLANT,EASTHAMPTON,HAMPSHIRE,MA,Major,42.277698,-72.648897,4952,4952,SEWERAGE SYSTEMS,10802010609,Lower Manhan River,95660.192,0,0,0,13.7082926,46.35101625,1.004638889,,,https://echo.epa.gov/detailed-facility-report?fid=MA0101478&sys=ICP
2016,ICIS,CT0000086,1.10051E+11,ALLNEX USA RESINS AND ADDITIVES MANUFACTURING FACILITY,WALLINGFORD,NEW HAVEN,CT,Major,41.435,-72.836389,2821,2821,PLSTC MAT./SYN RESINS/NV ELAST,11000040105,Outlet Quinnipiac River,86619.20947,0,0,0,0.52175,1.9,0.1233461,,,https://echo.epa.gov/detailed-facility-report?fid=CT0000086&sys=ICP
2016,ICIS,NY0026697,1.10019E+11,NEW ROCHELLE STP,NEW ROCHELLE,WESTCHESTER,NY,Major,40.913,-73.769361,4952,4952,SEWERAGE SYSTEMS,20301020203,East Creek-Mamaroneck Harbor,85923,0,0,0,0,0,0,,,https://echo.epa.gov/detailed-facility-report?fid=NY0026697&sys=ICP
2016,ICIS,MA0101800,1.10024E+11,WESTFIELD WASTEWATER TREATMENT PLANT,WESTFIELD,HAMPDEN,MA,Non-Major,42.125314,-72.730211,4952,4952,SEWERAGE SYSTEMS,10802060301,Moose Meadow Brook-Westfield River,80758.2,0,0,0,10.59994469,20.18756111,2.365833333,,,https://echo.epa.gov/detailed-facility-report?fid=MA0101800&sys=ICP
2016,ICIS,CT0100382,1.10002E+11,PIACENTI WASTEWATER TREATMENT PLANT,NEW LONDON,NEW LONDON,CT,Major,41.34193,-72.096447,4952,4952,SEWERAGE SYSTEMS,11000030203,Thames River-Frontal New London Harbor,78493.82523,0,0,0,4.65,9.1,5.926666667,,,https://echo.epa.gov/detailed-facility-report?fid=CT0100382&sys=ICP
2016,ICIS,NY0026701,1.10019E+11,MAMARONECK (V) SANITARY SD,MAMARONECK,WESTCHESTER,NY,Major,40.946833,-73.733694,4952,4952,SEWERAGE SYSTEMS,20301020202,Sheldrake River-Mamaroneck River,71704,0,0,0,0,0,13.3260274,,,https://echo.epa.gov/detailed-facility-report?fid=NY0026701&sys=ICP
2016,ICIS,NH0101257,1.10007E+11,CLAREMONT WASTEWATER TREATMENT FACILITY,CLAREMONT,SULLIVAN,NH,Major,43.38962,-72.379045,4952,4952,SEWERAGE SYSTEMS,10801060407,Sugar River,67817.6,0,0,0,8.761542541,20.33504556,1.41275,,,https://echo.epa.gov/detailed-facility-report?fid=NH0101257&sys=ICP
2016,ICIS,CT0003875,1.10002E+11,CRRA MID-CONN FACILITY,HARTFORD,HARTFORD,CT,Major,41.748663,-72.650764,4911,4911,ELECTRICAL SERVICES,10802050505,Goff Brook-Connecticut River,63399.14157,0,0,0,0.195833333,0.246666667,11.87600056,,,https://echo.epa.gov/detailed-facility-report?fid=CT0003875&sys=ICP
2016,ICIS,MA0101524,1.10001E+11,GREAT BARRINGTON WASTEWATER TREATMENT FACILITY,GREAT BARRINGTON,BERKSHIRE,MA,Major,42.18994,-73.35709,4952,4952,SEWERAGE SYSTEMS,11000050204,Ironwork Brook-Housatonic River,62502.49239,0,0,0,5.174916667,7.206666667,0.773333333,,,https://echo.epa.gov/detailed-facility-report?fid=MA0101524&sys=ICP
2016,ICIS,NY0026719,1.10001E+11,BLIND BROOK SD WWTP,RYE,WESTCHESTER,NY,Major,40.96475,-73.690778,4952,4952,SEWERAGE SYSTEMS,11000060405,Blind Brook-Horseneck Brook,61974,0,0,0,7.826386497,9.429230693,2.65,,,https://echo.epa.gov/detailed-facility-report?fid=NY0026719&sys=ICP
2016,ICIS,MA0100901,1.10024E+11,SOUTHBRIDGE WASTEWTER TREATMENT FACILITY,SOUTHBRIDGE,WORCESTER,MA,Major,42.06969,-72.0063,4952,4952,SEWERAGE SYSTEMS,11000010104,Cady Brook-Quinebaug River,58430.62572,0,0,0,9.399166667,12,2.060416667,,,https://echo.epa.gov/detailed-facility-report?fid=MA0100901&sys=ICP
2016,ICIS,CT0101010,1.10001E+11,EASTSIDE WATER POLLUTION CONTROL FACILITY,BRIDGEPORT,FAIRFIELD,CT,Major,41.172214,-73.174261,4952,4952,SEWERAGE SYSTEMS,11000060303,Rooster River-Frontal Long Island Sound,55124.28046,0,0,0,4.255454545,10.38,5.119166667,,,https://echo.epa.gov/detailed-facility-report?fid=CT0101010&sys=ICP
2016,ICIS,VT0100374,1.10002E+11,SPRINGFIELD WASTEWATER TREATMENT FACILITY,SPRINGFIELD,WINDSOR,VT,Major,43.27919,-72.46746,,,,10801060505,Black River,48563.6412,0,0,0,18.76583333,26.65,0.858666667,,,https://echo.epa.gov/detailed-facility-report?fid=VT0100374&sys=ICP
2016,ICIS,NY0026620,1.10001E+11,GLEN COVE WASTEWATER TREATMENT FACILITY,GLEN COVE,NASSAU,NY,Major,40.858722,-73.641667,4952,4952,SEWERAGE SYSTEMS,20302010103,Glen Cove Creek-Hempstead Harbor,48508.01837,0,0,0,1.977777778,2.7,2.683333333,,,https://echo.epa.gov/detailed-facility-report?fid=NY0026620&sys=ICP
2016,ICIS,NH0100366,1.10002E+11,LEBANON WASTEWATER TREATMENT FACILITY,LEBANON,GRAFTON,NH,Major,43.636805,-72.320541,4952,4952,SEWERAGE SYSTEMS,10801060106,Mascoma River,48286,0,0,0,11.2325484,15.26485734,1.428958333,,,https://echo.epa.gov/detailed-facility-report?fid=NH0100366&sys=ICP
2016,ICIS,NY0026778,1.10002E+11,WATER POLL CONTR DIST,PORT WASHINGTON,NASSAU,NY,Major,40.83944,-73.69721,4952,4952,SEWERAGE SYSTEMS,20302010102,Mitchells Creek-Manhassett Bay,47377,0,0,0,6.094496344,7.955978516,2.55,,,https://echo.epa.gov/detailed-facility-report?fid=NY0026778&sys=ICP
2016,ICIS,MA0101567,1.10001E+11,WARREN WASTEWATER TREATMENT PLANT,WARREN,WORCESTER,MA,Major,42.210084,-72.24737,4952,4952,SEWERAGE SYSTEMS,10802040305,Middle Quaboag River,45369.63273,0,0,0,20.67620895,30.62340545,0.249333333,,,https://echo.epa.gov/detailed-facility-report?fid=MA0101567&sys=ICP
2016,ICIS,MA0110264,1.10007E+11,"AUSTRALIS AQUACULTURE, LLC",MONTAGUE (TURNERS FALLS),FRANKLIN,MA,Non-Major,42.59159,-72.5291,921,921,FISH HATCHERIES AND PRESERVES,10802010503,Dry Brook-Connecticut River,42469.5,0,0,0,112.9044544,160.428362,0.1725,,,https://echo.epa.gov/detailed-facility-report?fid=MA0110264&sys=ICP
2016,ICIS,MA0000671,1.10002E+11,CRANE WASTEWATER TREATEMENT PLANT,DALTON,BERKSHIRE,MA,Major,42.46776,-73.18482,2621,2621,PAPER MILLS,11000050103,East Branch Housatonic River,39267,0,0,0,4.328247051,6.190645934,2.991666667,,,https://echo.epa.gov/detailed-facility-report?fid=MA0000671&sys=ICP
2016,ICIS,NY0206644,1.1001E+11,SUFFOLK CO SD#21 SUNY,STONY BROOK,SUFFOLK,NY,Major,40.924472,-73.121139,4952,4952,SEWERAGE SYSTEMS,20302010304,Mt Sinai Harbor-Port Jefferson Harbor,35406.99342,0,0,0,1.743055556,14.41666667,2.027333333,,,https://echo.epa.gov/detailed-facility-report?fid=NY0206644&sys=ICP
2016,ICIS,VT0000248,1.10001E+11,FIBERMARK,BRATTLEBORO,WINDHAM,VT,Major,42.888826,-72.546158,,,,10801070505,Catsbane Brook-Connecticut River,32562.80316,0,0,0,10.975,14.7,0.976666667,,,https://echo.epa.gov/detailed-facility-report?fid=VT0000248&sys=ICP
2016,ICIS,MA0100889,1.10007E+11,WARE WASTEWATER TREATMENT PLANT,WARE,HAMPSHIRE,MA,Major,42.25194,-72.25514,4952,4952,SEWERAGE SYSTEMS,10802040207,Danforth Brook-Ware River,31608.69994,0,0,0,7.0475,9.125,0.49425,,,https://echo.epa.gov/detailed-facility-report?fid=MA0100889&sys=ICP
2016,ICIS,MA0101168,1.1001E+11,PALMER WATER POLLUTION CONTROL FACILITY,PALMER (THREE RIVERS),HAMPDEN,MA,Major,42.185311,-72.362228,4952,4952,SEWERAGE SYSTEMS,10802040207,Danforth Brook-Ware River,30509.95599,0,0,0,9.06,11.26,1.108333333,,,https://echo.epa.gov/detailed-facility-report?fid=MA0101168&sys=ICP
2016,ICIS,VT0100285,1.10009E+11,RANDOLPH,RANDOLPH,ORANGE,VT,Non-Major,43.92686,-72.65733,,,,10801050201,Headwaters Third Branch White River,30433.85818,0,0,0,13.2525,34,0.18975,,,https://echo.epa.gov/detailed-facility-report?fid=VT0100285&sys=ICP
2016,ICIS,NH0100200,1.10007E+11,NEWPORT WASTEWATER TREATMENT FACILITY,NEWPORT,SULLIVAN,NH,Major,43.376645,-72.181957,4952,4952,SEWERAGE SYSTEMS,10801060405,Long Pond Brook-Sugar River,29140.72354,0,0,0,18.83333333,28,0.51,,,https://echo.epa.gov/detailed-facility-report?fid=NH0100200&sys=ICP
2016,ICIS,VT0100919,1.10002E+11,WINDSOR WASTEWATER TREATMENT FACILITY,WINDSOR,WINDSOR,VT,Major,43.47222,-72.38846,,,,10801060305,Hubbard Brook-Connecticut River,24181.12255,0,0,0,32.56666667,46.5,0.252166667,,,https://echo.epa.gov/detailed-facility-report?fid=VT0100919&sys=ICP
2016,ICIS,MA0103152,1.10007E+11,BARRE WASTEWATER TREATMENT FACILITY,BARRE,WORCESTER,MA,Non-Major,42.37624,-72.12048,4952,4952,SEWERAGE SYSTEMS,10802040205,Winimusset Brook-Ware River,24144.4,0,0,0,16.7252979,26.91015842,0.1775,,,https://echo.epa.gov/detailed-facility-report?fid=MA0103152&sys=ICP
2016,ICIS,MA0100935,1.10009E+11,LENOX CENTER WASTEWATER TREATMENT FACILITY,LENOX,BERKSHIRE,MA,Major,42.34831,-73.24545,4952,4952,SEWERAGE SYSTEMS,11000050104,Sackett Brook-Housatonic River,23529.31183,0,0,0,4.665583333,10.70333333,0.564,,Y,https://echo.epa.gov/detailed-facility-report?fid=MA0100935&sys=ICP
2016,ICIS,MA0101257,1.10007E+11,ORANGE WASTEWATER TREATMENT PLANT,ORANGE,FRANKLIN,MA,Major,42.59606,-72.33146,4952,4952,SEWERAGE SYSTEMS,10802020205,Mill Brook-Millers River,21344.94555,0,0,0,15.81555079,26.51133333,0.73425,,,https://echo.epa.gov/detailed-facility-report?fid=MA0101257&sys=ICP
2016,ICIS,MA0100099,1.1001E+11,HADLEY WASTEWATER TREATMENT PLANT,HADLEY,HAMPSHIRE,MA,Non-Major,42.32859,-72.586487,4952,4952,SEWERAGE SYSTEMS,10802010610,Dry Brook-Connecticut River,20890.22168,0,0,0,6.166458174,10.49747854,0.376083333,,,https://echo.epa.gov/detailed-facility-report?fid=MA0100099&sys=ICP
2016,ICIS,MA0100137,1.10001E+11,MONTAGUE WASTEWATER TREATMENT FACILITY,MONTAGUE,FRANKLIN,MA,Major,42.5808,-72.57232,4952,4952,SEWERAGE SYSTEMS,10802010602,Russellville Brook-Connecticut River,20204.68,0,0,0,9.431297913,16.66356308,0.7095,,,https://echo.epa.gov/detailed-facility-report?fid=MA0100137&sys=ICP
2016,ICIS,MA0000469,1.10064E+11,SEAMAN PAPER OF MASSACHUSETTS,TEMPLETON,WORCESTER,MA,Major,42.59574,-72.05228,2621,2621,PAPER MILLS,10802020201,Otter River,19336.8,0,0,0,8.126654216,15.49547936,0.7742,,,https://echo.epa.gov/detailed-facility-report?fid=MA0000469&sys=ICP
2016,ICIS,CT0003212,1.10033E+11,KIMBERLY-CLARK TISSUE MILL,NEW MILFORD,LITCHFIELD,CT,Major,41.5567,-73.4102,2676,2676,SANITARY PAPER PRODUCTS,11000050604,Great Brook-Housatonic River,18274.88565,0,0,0,2.148374958,3.530996261,1.373333333,,,https://echo.epa.gov/detailed-facility-report?fid=CT0003212&sys=ICP
2016,ICIS,MA0003697,1.10001E+11,BARNHARDT MANUFACTURING,COLRAIN,FRANKLIN,MA,Major,42.655709,-72.714796,2269,2269,"FINISHERS OF TEXTILES, NEC",10802030302,Taylor Brook-North River,17835.23655,0,0,0,11.39416667,18.9,0.259333333,,,https://echo.epa.gov/detailed-facility-report?fid=MA0003697&sys=ICP
2016,ICIS,NH0100145,1.10007E+11,LANCASTER WASTEWATER TREATMENT FACILITY,LANCASTER,COOS,NH,Major,44.484948,-71.595363,4952,4952,SEWERAGE SYSTEMS,10801010903,Mink Brook-Connecticut River,16356.24,0,0,0,8.165987235,10.54739622,0.659166667,,,https://echo.epa.gov/detailed-facility-report?fid=NH0100145&sys=ICP
2016,ICIS,MA0001848,1.10011E+11,ONYX SPECIALTY PAPERS INC - WILLOW MILL,LEE,BERKSHIRE,MA,Major,42.274705,-73.286202,2621,2621,PAPER MILLS,11000050107,Konkapot Brook-Housatonic River,16203.5,0,0,0,5.660311734,9.351733966,0.9491735,,,https://echo.epa.gov/detailed-facility-report?fid=MA0001848&sys=ICP
2016,ICIS,NY0165891,1.1001E+11,PAWLING JOINT SEWER COMM WWTP,PAWLING,DUTCHESS,NY,Non-Major,41.573667,-73.594194,4952,4952,SEWERAGE SYSTEMS,11000050505,Swamp River,16149.16215,0,0,0,14.245,17.62,0.188166667,,,https://echo.epa.gov/detailed-facility-report?fid=NY0165891&sys=ICP
2016,ICIS,MA0110043,1.10007E+11,MCLAUGHLIN STATE TROUT HATCHERY,BELCHERTOWN,HAMPSHIRE,MA,Non-Major,42.267471,-72.338576,921,921,FISH HATCHERIES AND PRESERVES,10802040106,Quabbin Reservoir-Swift River,15514.8,3688.8,0,3688.8,2.809027559,4.021559787,5.610833333,,,https://echo.epa.gov/detailed-facility-report?fid=MA0110043&sys=ICP
2016,ICIS,NH0100790,1.10002E+11,KEENE WASTEWATER TREATMENT FACILITY,KEENE,CHESHIRE,NH,Major,42.89049,-72.27547,4952,4952,SEWERAGE SYSTEMS,10802010303,South Branch Ashuelot River,15251,0,0,0,1.544584334,7.141321409,2.410666667,,,https://echo.epa.gov/detailed-facility-report?fid=NH0100790&sys=ICP
2016,ICIS,MA0101141,1.10002E+11,CHARLTON WASTEWATER TREATMENT FACILITY,CHARLTON,WORCESTER,MA,Major,42.141435,-71.995382,4952,4952,SEWERAGE SYSTEMS,11000010104,Cady Brook-Quinebaug River,14950.28409,0,0,0,12.68529568,31.00714286,0.2,,,https://echo.epa.gov/detailed-facility-report?fid=MA0101141&sys=ICP
2016,ICIS,MA0100005,1.10007E+11,ATHOL WASTEWATER TREATMENT FACILITY,ATHOL,WORCESTER,MA,Major,42.586234,-72.242982,4952,4952,SEWERAGE SYSTEMS,10802020204,Beaver Brook-Millers River,14559.41,0,0,0,7.800507133,21.47865686,0.602333333,,,https://echo.epa.gov/detailed-facility-report?fid=MA0100005&sys=ICP
2016,ICIS,CT0100218,1.10001E+11,FARMINGTON WPCF,FARMINGTON,HARTFORD,CT,Major,41.728989,-72.828711,4952,4952,SEWERAGE SYSTEMS,10802070405,Roaring Brook-Farmington River,14033.17213,0,0,0,1.76,4.1,3.033333333,,,https://echo.epa.gov/detailed-facility-report?fid=CT0100218&sys=ICP
2016,ICIS,MA0101052,1.10023E+11,ERVING WASTEWATER TREATMENT PLANT #2,ERVING,FRANKLIN,MA,Major,42.5975,-72.3879,4952,4952,SEWERAGE SYSTEMS,10802020207,Lyons Brook-Millers River,13779.87273,0,0,0,2.570339571,5.39509126,1.7225,,,https://echo.epa.gov/detailed-facility-report?fid=MA0101052&sys=ICP
2016,ICIS,NY0021342,1.10007E+11,HUNTINGTON SEWER DISTRICT STP,HUNTINGTON,SUFFOLK,NY,Major,40.88122,-73.42209,4952,4952,SEWERAGE SYSTEMS,20302010203,Huntington Harbor-Lloyd Harbor,13530.9,0,0,0,2.899811365,4.204942256,1.542616667,,,https://echo.epa.gov/detailed-facility-report?fid=NY0021342&sys=ICP
2016,ICIS,VT0100145,1.10009E+11,LUDLOW WASTEWATER TREATMENT FACILITY,LUDLOW,WINDSOR,VT,Major,43.392349,-72.679281,,,,10801060502,Branch Brook-Black River,12918.90326,0,0,0,11.88,33.4,0.328583333,,,https://echo.epa.gov/detailed-facility-report?fid=VT0100145&sys=ICP
2016,ICIS,NY0021822,1.10002E+11,OYSTER BAY WPCP,OYSTER BAY,NASSAU,NY,Major,40.878222,-73.526778,4952,4952,SEWERAGE SYSTEMS,20302010201,Mill Neck Creek-Oyster Bay Harbor,12637.2,0,0,0,0,0,,,,https://echo.epa.gov/detailed-facility-report?fid=NY0021822&sys=ICP
2016,ICIS,CT0025305,1.1E+11,"UNIMETAL SURFACE FINISHING, LLC",THOMASTON,LITCHFIELD,CT,Major,41.66935,-73.07774,3471,3471,PLATING AND POLISHING,11000051105,Northfield Brook-Naugatuck River,12635.46785,1298.7009,0,1298.7009,59.24273699,100.777241,0.039783042,,,https://echo.epa.gov/detailed-facility-report?fid=CT0025305&sys=ICP
2016,ICIS,MA0040207,1.10022E+11,CHANG FARMS INC,DEERFIELD,FRANKLIN,MA,Non-Major,42.522248,-72.571247,182,182,FOOD CROPS GROWN UNDER COVER,10802010602,Russellville Brook-Connecticut River,12456.25744,192,0,192,7.081380355,9.793897074,0.215083333,,,https://echo.epa.gov/detailed-facility-report?fid=MA0040207&sys=ICP
2016,ICIS,MA0100919,1.10001E+11,SPENCER WASTEWATER TREATMENT PLANT,SPENCER,WORCESTER,MA,Major,42.231774,-72.013348,4952,4952,SEWERAGE SYSTEMS,10802040301,Sevenmile River,11180.155,0,0,0,27.47197979,83.91964902,0.245833333,,,https://echo.epa.gov/detailed-facility-report?fid=MA0100919&sys=ICP
2016,ICIS,VT0101010,1.10002E+11,HARTFORD WASTE WATER TREATMENT FACILITY,HARTFORD,WINDSOR,VT,Major,43.646444,-72.314662,,,,10801060302,Lulls Brook-Connecticut River,10813.72489,0,0,0,5.308333333,7.2,0.68,,,https://echo.epa.gov/detailed-facility-report?fid=VT0101010&sys=ICP
2016,ICIS,MA0100862,1.10001E+11,WINCHENDON WATER POLLUTION CONTROL FACILITY,WINCHENDON,WORCESTER,MA,Major,42.68367,-72.08202,4952,4952,SEWERAGE SYSTEMS,10802020103,Torbell Brook-Millers River,10474.02,0,0,0,7.688645281,13.84949595,0.449166667,,,https://echo.epa.gov/detailed-facility-report?fid=MA0100862&sys=ICP
2016,ICIS,CT0100447,1.1003E+11,PLAINFIELD NORTH WATER POLLUTION CONTROL FACILITY,PLAINFIELD,WINDHAM,CT,Major,41.71937,-71.91721,4952,4952,SEWERAGE SYSTEMS,11000010503,Lower Moosup River,10444.44575,1585.809209,0,1585.809209,9.4,25,0.543833333,,,https://echo.epa.gov/detailed-facility-report?fid=CT0100447&sys=ICP
2016,ICIS,MA0101290,1.1001E+11,HATFIELD WASTEWATER TREATMENT FACILITY,HATFIELD,HAMPSHIRE,MA,Non-Major,42.394226,-72.592828,4952,4952,SEWERAGE SYSTEMS,10802010602,Russellville Brook-Connecticut River,10276,0,0,0,25.67835781,44.143825,0.13425,,,https://echo.epa.gov/detailed-facility-report?fid=MA0101290&sys=ICP
2016,ICIS,CT0000434,1.10036E+11,AHLSTROM NONWOVENS,WINDSOR LOCKS,HARTFORD,CT,Major,41.925376,-72.625924,2621,2621,PAPER MILLS,10802050105,Freshwater Brook-Connecticut River,10129.83025,0,0,0,0.55,0.92,0.41530646,,,https://echo.epa.gov/detailed-facility-report?fid=CT0000434&sys=ICP
2016,ICIS,CT0020630,1.10007E+11,MYSTIC MARINELIFE AQUARIUM,MYSTIC,NEW LONDON,CT,Non-Major,41.37171,-71.951156,8412,8412,MUSEUMS AND ART GALLERIES,11000030303,Stony Brook-Frontal Fishers Island Sound,9390.43174,0,0,0,7.668309524,25.33333333,0.006949406,,,https://echo.epa.gov/detailed-facility-report?fid=CT0020630&sys=ICP
2016,ICIS,NH0100153,1.10001E+11,LITTLETON WASTEWATER TREATMENT PLANT,LITTLETON,GRAFTON,NH,Major,44.30882,-71.79048,4952,4952,SEWERAGE SYSTEMS,10801030403,Baker Brook-Ammonoosuc River,9379.971754,0,0,0,1.455555556,5.666666667,0.627833333,,,https://echo.epa.gov/detailed-facility-report?fid=NH0100153&sys=ICP
2016,ICIS,NHG580501,1.10028E+11,BETHLEHEM VILLAGE WASTEWATER TREATMENT PLANT,BETHLEHEM,GRAFTON,NH,Non-Major,44.28789,-71.6821,,,,10801030403,Baker Brook-Ammonoosuc River,9267.8,0,0,0,16.55222846,30.83976475,0.186333333,,,https://echo.epa.gov/detailed-facility-report?fid=NHG580501&sys=ICP
2016,ICIS,CT0100579,1.1003E+11,TORRINGTON WATER POLLUTION CONTROL FACILITY,TORRINGTON,LITCHFIELD,CT,Major,41.780542,-73.116477,4952,4952,SEWERAGE SYSTEMS,11000051105,Northfield Brook-Naugatuck River,8964.280425,0,0,0,0.589166667,1.43,4.485,,,https://echo.epa.gov/detailed-facility-report?fid=CT0100579&sys=ICP
2016,ICIS,CT0100404,1.10002E+11,NORTH HAVEN WATER POLLUTION CONTROL FACILITY,NORTH HAVEN,NEW HAVEN,CT,Major,41.364329,-72.871671,4952,4952,SEWERAGE SYSTEMS,11000040104,Muddy River,8839.110746,0,0,0,1.066666667,1.3,2.77,,,https://echo.epa.gov/detailed-facility-report?fid=CT0100404&sys=ICP
2016,ICIS,VT0100757,1.10011E+11,WOODSTOCK WASTE TREATMENT PLANT,WOODSTOCK,WINDSOR,VT,Non-Major,43.6298,-72.50753,,,,10801060205,Beaver Brook-Ottauquechee River,8668.035141,0,0,0,15.20833333,19,0.1925,,,https://echo.epa.gov/detailed-facility-report?fid=VT0100757&sys=ICP
2016,ICIS,NH0000621,1.1001E+11,BERLIN STATE FISH HATCHERY,BERLIN,COOS,NH,Non-Major,44.505428,-71.334325,921,921,FISH HATCHERIES AND PRESERVES,10801010701,Headwaters Upper Ammonoosuc River,8547.78,0,0,0,0.786334936,2.900629556,1.563541667,,,https://echo.epa.gov/detailed-facility-report?fid=NH0000621&sys=ICP
2016,ICIS,MA0101796,1.10007E+11,LEICESTER WATER SUPPLY WWTF,LEICESTER,WORCESTER,MA,Non-Major,42.240643,-71.917223,4952,4952,SEWERAGE SYSTEMS,11000010201,Upper French River,8102.918,0,0,0,7.792860281,18.55939309,0.166333333,,,https://echo.epa.gov/detailed-facility-report?fid=MA0101796&sys=ICP
2016,ICIS,NY0021750,1.10008E+11,NATIONAL GRID - PORT JEFFERSON POWER STATION,PORT JEFFERSON,SUFFOLK,NY,Major,40.94969,-73.078431,4952,4952,SEWERAGE SYSTEMS,20302010304,Mt Sinai Harbor-Port Jefferson Harbor,8061,0,0,0,3.92960305,4.305993644,0.673333333,,,https://echo.epa.gov/detailed-facility-report?fid=NY0021750&sys=ICP
2016,ICIS,NHG580315,1.10028E+11,COLEBROOK WASTEWATER TREATMENT PLANT,COLEBROOK,COOS,NH,Non-Major,44.901096,-71.498637,,,,10801010305,Willard Stream-Connecticut River,7765.7,0,0,0,12.94059976,18.10747107,0.16875,,,https://echo.epa.gov/detailed-facility-report?fid=NHG580315&sys=ICP
2016,ICIS,CT0100145,1.10001E+11,DANBURY WATER POLLUTION CONTROL FACILITY,DANBURY,FAIRFIELD,CT,Major,41.402711,-73.418112,4952,4952,SEWERAGE SYSTEMS,11000050802,Limekiln Brook-Still River,7489.983624,0,0,0,0.299583333,1.16,8.008333333,,,https://echo.epa.gov/detailed-facility-report?fid=CT0100145&sys=ICP
2016,ICIS,VT0000108,1.10009E+11,PUTNEY PAPER COMPANY MILL & LAGOONS,PUTNEY,WINDHAM,VT,Non-Major,42.974631,-72.517117,,,,10801070504,Sacketts Brook,7248.936565,0,0,0,15.45,25,0.154455833,,,https://echo.epa.gov/detailed-facility-report?fid=VT0000108&sys=ICP
2016,ICIS,NHG580978,1.10046E+11,WOODSVILLE WASTEWATER TREATMENT FACILITY,WOODSVILLE,GRAFTON,NH,Non-Major,44.14762,-72.038489,4941,4941,WATER SUPPLY,10801030703,Clark Brook-Connecticut River,7065.24,0,0,0,11.53913708,24.3705156,0.197416667,,,https://echo.epa.gov/detailed-facility-report?fid=NHG580978&sys=ICP
2016,ICIS,NHG580421,1.1001E+11,LISBON WASTEWATER TREATMENT FACILITY,LISBON,GRAFTON,NH,Non-Major,44.20149,-71.928419,,,,10801030503,Pearl Lake Brook-Ammonoosuc River,6934.2,0,0,0,20.5475721,25.67549005,0.111833333,,,https://echo.epa.gov/detailed-facility-report?fid=NHG580421&sys=ICP
2016,ICIS,MA0110035,1.10008E+11,MCLAUGHLIN STATE FISH HATCHERY/SUNDERLAND,SUNDERLAND,FRANKLIN,MA,Non-Major,42.437028,-72.552917,921,921,FISH HATCHERIES AND PRESERVES,10802010602,Russellville Brook-Connecticut River,6756.729014,0,0,0,4.041717742,4.674193548,1.635,,,https://echo.epa.gov/detailed-facility-report?fid=MA0110035&sys=ICP
2016,ICIS,MA0100340,1.10024E+11,TEMPLETON WASTEWATER TREATMENT FACILITY,TEMPLETON (BALDWINVILLE),WORCESTER,MA,Major,42.601436,-72.073756,4952,4952,SEWERAGE SYSTEMS,10802020201,Otter River,6734.554609,0,0,0,4.288376971,10.90150538,0.242666667,,,https://echo.epa.gov/detailed-facility-report?fid=MA0100340&sys=ICP
2016,ICIS,CT0100455,1.10056E+11,PLAINVILLE WPCF,PLAINVILLE,HARTFORD,CT,Major,41.68032,-72.86501,4952,4952,SEWERAGE SYSTEMS,10802070404,Pequabuck River,6708.684863,529.064043,0,529.064043,1.3525,3.43,1.696666667,,,https://echo.epa.gov/detailed-facility-report?fid=CT0100455&sys=ICP
2016,ICIS,MA0100421,1.10002E+11,STURBRIDGE WATER POLLUTION CONTROL FACILITY,STURBRIDGE,WORCESTER,MA,Major,42.104697,-72.088066,4952,4952,SEWERAGE SYSTEMS,11000010103,McKinstry Brook-Quinebaug River,6575.600993,0,0,0,3.908333333,5.21,0.553333333,,,https://echo.epa.gov/detailed-facility-report?fid=MA0100421&sys=ICP
2016,ICIS,MAG580004,1.10007E+11,SOUTH DEERFIELD WASTEWATER TREATMENT PLANT,DEERFIELD,FRANKLIN,MA,Non-Major,42.46829,-72.58914,,,,10802010602,Russellville Brook-Connecticut River,6466.5,0,0,0,5.986923857,12.9962357,0.3605,,,https://echo.epa.gov/detailed-facility-report?fid=MAG580004&sys=ICP
2016,ICIS,CT0100439,1.1001E+11,PLAINFIELD VILLAGE SEWAGE TREATMENT PLANT,PLAINFIELD,WINDHAM,CT,Non-Major,41.669458,-71.928107,4952,4952,SEWERAGE SYSTEMS,11000010702,Mill Brook,6439.207714,870.087719,0,870.087719,7.3775,22.7,0.341666667,,,https://echo.epa.gov/detailed-facility-report?fid=CT0100439&sys=ICP
2016,ICIS,CT0101087,1.10056E+11,STAMFORD WATER POLLUTION CONTROL FACILITY,STAMFORD,FAIRFIELD,CT,Major,41.046247,-73.52996,4952,4952,SEWERAGE SYSTEMS,11000060404,Fivemile River,6408.796354,0,0,0,0.125833333,0.28,14.925,,,https://echo.epa.gov/detailed-facility-report?fid=CT0101087&sys=ICP
2016,ICIS,MAG580002,1.1001E+11,SHELBURNE WASTEWATER TREATMENT FACILITY,SHELBURNE,FRANKLIN,MA,Non-Major,42.595262,-72.731942,,,,10802030502,Bear River-Deerfield River,6033.748,0,0,0,14.38103728,31.62520701,0.13945,,,https://echo.epa.gov/detailed-facility-report?fid=MAG580002&sys=ICP
2016,ICIS,NH0101052,1.1001E+11,TROY WASTEWATER TREATMENT FACILITY,TROY,CHESHIRE,NH,Non-Major,42.835252,-72.178076,4952,4952,SEWERAGE SYSTEMS,10802010303,South Branch Ashuelot River,5857.95,0,0,0,11.43970185,23.01785161,0.0635,,,https://echo.epa.gov/detailed-facility-report?fid=NH0101052&sys=ICP
2016,ICIS,MA0101087,1.1001E+11,STOCKBRIDGE WASTEWATER TREATMENT PLANT,STOCKBRIDGE,BERKSHIRE,MA,Non-Major,42.293751,-73.325903,4952,4952,SEWERAGE SYSTEMS,11000050107,Konkapot Brook-Housatonic River,5849.4,0,0,0,13.3129094,18.40076787,0.148166667,,,https://echo.epa.gov/detailed-facility-report?fid=MA0101087&sys=ICP
2016,ICIS,VT0100595,1.10011E+11,LYNDON WWTP,LYNDON,CALEDONIA,VT,Non-Major,44.525,-72.0167,,,,10801020302,South Wheelock Branch-Passumpsic River,5772.105493,0,0,0,14.15666667,19.17,0.14875,,,https://echo.epa.gov/detailed-facility-report?fid=VT0100595&sys=ICP
2016,ICIS,VT0100625,1.10011E+11,CANAAN MTP,CANAAN,ESSEX,VT,Non-Major,44.98831,-71.53981,,,,10801010304,Leach Creek,5696.56035,0,0,0,21.58333333,32,0.086725,,,https://echo.epa.gov/detailed-facility-report?fid=VT0100625&sys=ICP
2016,ICIS,NH0100510,1.1001E+11,WHITEFIELD WASTEWATER TREATMENT FACILITY,WHITEFIELD,COOS,NH,Non-Major,44.376294,-71.622598,4952,4952,SEWERAGE SYSTEMS,10801030101,Bog Brook,5588.70763,0,0,0,27.4,38,0.0665,,,https://echo.epa.gov/detailed-facility-report?fid=NH0100510&sys=ICP
2016,ICIS,MA0100153,1.10001E+11,LEE WASTEWATER TREATMENT FACILITY,LEE,BERKSHIRE,MA,Major,42.286286,-73.241279,4952,4952,SEWERAGE SYSTEMS,11000050105,Goose Pond Brook-Housatonic River,5246.875985,0,0,0,3.093333333,8.3,0.564666667,,,https://echo.epa.gov/detailed-facility-report?fid=MA0100153&sys=ICP
2016,ICIS,CT0100315,1.10001E+11,MERIDEN WATER POLLUTION CONTROL FACILITY,MERIDEN,NEW HAVEN,CT,Major,41.513431,-72.827878,4952,4952,SEWERAGE SYSTEMS,11000040105,Outlet Quinnipiac River,5076.53407,0,0,0,0.1075,0.68,8.191666667,,,https://echo.epa.gov/detailed-facility-report?fid=CT0100315&sys=ICP
2016,ICIS,MA0101061,1.10007E+11,NORTH BROOKFIELD WASTE WATER TREATMENT PLANT,NORTH BROOKFIELD,WORCESTER,MA,Major,42.248876,-72.074475,4952,4952,SEWERAGE SYSTEMS,10802040303,Upper Quaboag River,4951.6575,0,0,0,3.994337583,9.882174144,0.304916667,,,https://echo.epa.gov/detailed-facility-report?fid=MA0101061&sys=ICP
2016,ICIS,MAG580005,1.1001E+11,SUNDERLAND WASTEWATER TREATMENT FACILITY,SUNDERLAND,FRANKLIN,MA,Non-Major,42.452405,-72.584683,,,,10802010602,Russellville Brook-Connecticut River,4913.09,0,0,0,8.980497191,16.73759609,0.180166667,,,https://echo.epa.gov/detailed-facility-report?fid=MAG580005&sys=ICP
2016,ICIS,MAG580001,1.10002E+11,OLD DEERFIELD WASTEWATER TREATMENT PLANT,DEERFIELD,FRANKLIN,MA,Non-Major,42.551231,-72.61107,,,,10802030502,Bear River-Deerfield River,4864.11,0,0,0,21.49220035,32.5222874,0.074666667,,,https://echo.epa.gov/detailed-facility-report?fid=MAG580001&sys=ICP
2016,ICIS,VT0100579,1.10011E+11,ST JOHNSBURY,ST JOHNSBURY,CALEDONIA,VT,Major,44.410639,-72.016572,,,,10801020403,Water Andric-Passumpsic River,4853.352,0,0,0,2.255678895,3.578328086,0.734083333,,,https://echo.epa.gov/detailed-facility-report?fid=VT0100579&sys=ICP
2016,ICIS,MA0100102,1.1001E+11,HARDWICK WATER POLLUTION CONTROL FACILITY,GILBERTVILLE,WORCESTER,MA,Non-Major,42.300309,-72.214159,4952,4952,SEWERAGE SYSTEMS,10802040207,Danforth Brook-Ware River,4630.746924,0,0,0,19.29357542,61.99177914,0.083358333,,,https://echo.epa.gov/detailed-facility-report?fid=MA0100102&sys=ICP
2016,ICIS,VT0100978,1.10011E+11,HARTFORD - QUECHEE,HARTFORD,WINDSOR,VT,Non-Major,43.64441,-72.41415,,,,10801060207,Ottauquechee River,4536.410842,0,0,0,7.533333333,14.4,0.200333333,,,https://echo.epa.gov/detailed-facility-report?fid=VT0100978&sys=ICP
2016,ICIS,CT0100641,1.10001E+11,NAUGATUCK WATER POLLUTION CONTROL FACILITY,NAUGATUCK,NEW HAVEN,CT,Major,41.472975,-73.053986,4952,4952,SEWERAGE SYSTEMS,11000051205,Long Meadow Pond Brook-Naugatuck River,4518.099882,0,0,0,0.335,0.98,4.116666667,,,https://echo.epa.gov/detailed-facility-report?fid=CT0100641&sys=ICP
2016,ICIS,CT0101222,1.10007E+11,WINSTED WPCF,WINSTED,LITCHFIELD,CT,Major,41.941792,-73.053825,4952,4952,SEWERAGE SYSTEMS,10802070103,Still River,4493.592074,0,0,0,1.0575,3.6,1.166666667,,,https://echo.epa.gov/detailed-facility-report?fid=CT0101222&sys=ICP
2016,ICIS,MA0005011,1.10002E+11,PAPERLOGIC TURNERS FALLS MILL,MONTAGUE (TURNERS FALLS),FRANKLIN,MA,Major,42.609152,-72.560239,2621,2621,PAPER MILLS,10802010503,Dry Brook-Connecticut River,4391.663292,0,0,0,1.8125,2.8,0.455708333,,,https://echo.epa.gov/detailed-facility-report?fid=MA0005011&sys=ICP
2016,ICIS,MA0110051,1.1001E+11,MCLAUGHLIN STATE TROUT HATCHERY BITZER TROUT HATCHERY,MONTAGUE,FRANKLIN,MA,Non-Major,42.559611,-72.549889,921,921,FISH HATCHERIES AND PRESERVES,10802010602,Russellville Brook-Connecticut River,4275,0,0,0,0.980409582,1.022658585,1.43,,,https://echo.epa.gov/detailed-facility-report?fid=MA0110051&sys=ICP
2016,ICIS,NH0100765,1.10007E+11,CHARLESTOWN WASTEWATER TREATMENT PLANT,CHARLESTOWN,SULLIVAN,NH,Major,43.225795,-72.432518,4952,4952,SEWERAGE SYSTEMS,10801060703,Jabes Hackett Brook-Connecticut River,4203.4,0,0,0,5.462867092,12.02906817,0.226166667,,,https://echo.epa.gov/detailed-facility-report?fid=NH0100765&sys=ICP
2016,ICIS,NH0100382,1.10002E+11,HINSDALE WASTEWATER TREATMENT PLANT,HINSDALE,CHESHIRE,NH,Major,42.780338,-72.49205,4952,4952,SEWERAGE SYSTEMS,10802010403,Ashuelot River,4192.014545,0,0,0,11.89896671,25.99520401,0.151825,,,https://echo.epa.gov/detailed-facility-report?fid=NH0100382&sys=ICP
2016,ICIS,CT0003824,1.10011E+11,ELECTRIC BOAT CORP,GROTON,NEW LONDON,CT,Major,41.350752,-72.082098,3731,3731,SHIP BUILDING AND REPAIRING,11000030203,Thames River-Frontal New London Harbor,4167.932328,0,0,0,5.835,7.22,1.074207804,,,https://echo.epa.gov/detailed-facility-report?fid=CT0003824&sys=ICP
2016,ICIS,MA0102431,1.1001E+11,HARDWICK WWTP,HARDWICK (WHEELWRIGHT),WORCESTER,MA,Non-Major,42.350037,-72.139237,4952,4952,SEWERAGE SYSTEMS,10802040205,Winimusset Brook-Ware River,4105.195841,0,0,0,95.42735893,294.6331503,0.0151985,,,https://echo.epa.gov/detailed-facility-report?fid=MA0102431&sys=ICP
2016,ICIS,CT0101001,1.10056E+11,WILLIMANTIC WPCF,WILLIMANTIC,WINDHAM,CT,Major,41.71599,-72.19466,4952,4952,SEWERAGE SYSTEMS,11000020206,Sawmill Brook-Natchaug River,4042.530715,0,0,0,0.720833333,3.9,1.555833333,,,https://echo.epa.gov/detailed-facility-report?fid=CT0101001&sys=ICP
2016,ICIS,CT0100935,1.10001E+11,MONTVILLE WATER POLLUTION CONTROL FACILITY,MONTVILLE (UNCASVILLE),NEW LONDON,CT,Major,41.43932,-72.10547,4952,4952,SEWERAGE SYSTEMS,11000030202,Stony Brook,3962.628081,0,0,0,0.956666667,2.2,1.3945,,,https://echo.epa.gov/detailed-facility-report?fid=CT0100935&sys=ICP
2016,ICIS,MA0102148,1.10002E+11,BELCHERTOWN WATER RECLAMATION FACILITY,BELCHERTOWN,HAMPSHIRE,MA,Major,42.281579,-72.42563,4952,4952,SEWERAGE SYSTEMS,10802010701,Batchelor Brook,3933.94,0,0,0,4.724109079,15.16170605,0.297416667,,,https://echo.epa.gov/detailed-facility-report?fid=MA0102148&sys=ICP
2016,ICIS,VT0100277,1.1001E+11,PUTNEY,PUTNEY,WINDHAM,VT,Non-Major,42.97082,-72.52021,,,,10801070504,Sacketts Brook,3911.242304,0,0,0,24.96666667,35.5,0.050066667,,,https://echo.epa.gov/detailed-facility-report?fid=VT0100277&sys=ICP
2016,ICIS,CT0030309,1.10013E+11,MILFORD POWER STATION,MILFORD,NEW HAVEN,CT,Major,41.223948,-73.099068,,,,11000051302,Housatonic River-Frontal Long Island Sound,3711.78,0,0,0,0.81372979,1.938247778,0.7185,,,https://echo.epa.gov/detailed-facility-report?fid=CT0030309&sys=ICP
2016,ICIS,VT0100706,1.10011E+11,WILMINGTON WWTP,WILMINGTON,WINDHAM,VT,Non-Major,42.86939,-72.88061,,,,10802030103,North Branch Deerfield River,3658.056,0,0,0,8.062163033,22.88492974,0.0659,,,https://echo.epa.gov/detailed-facility-report?fid=VT0100706&sys=ICP
2016,ICIS,CT0003921,1.10007E+11,US NAVAL SUBMARINE BASE,GROTON,NEW LONDON,CT,Major,41.400139,-72.087081,9711,9711,NATIONAL SECURITY,11000030203,Thames River-Frontal New London Harbor,3589.49577,0,0,0,0.205177083,0.39,0.375593872,,,https://echo.epa.gov/detailed-facility-report?fid=CT0003921&sys=ICP
2016,ICIS,NHG580226,1.10028E+11,GROVETON WASTEWATER TREATMENT PLANT,NORTHUMBERLAND,COOS,NH,Non-Major,44.59855,-71.51745,,,,10801010707,Upper Ammonoosuc River,3559.942,0,0,0,10.08536225,19.9854882,0.10225,,,https://echo.epa.gov/detailed-facility-report?fid=NHG580226&sys=ICP
2016,ICIS,VT0100862,1.10011E+11,CAVENDISH WASTEWATER TREATMENT FACILITY,CAVENDISH,WINDSOR,VT,Non-Major,43.3866,-72.6015,,,,10801060503,Twentymile Stream-Black River,3298.324613,0,0,0,20.43454545,28.8,0.05025,,,https://echo.epa.gov/detailed-facility-report?fid=VT0100862&sys=ICP
2016,ICIS,CT0101133,1.10011E+11,HERITAGE VILLAGE COMPANY,SOUTHBURY,NEW HAVEN,CT,Non-Major,41.48477,-73.22364,6514,6514,OPER OF DWELL OTHER THAN APART,11000050903,Pomperaug River,3202.68,0,0,0,2.859961773,4.11477901,0.378916667,,,https://echo.epa.gov/detailed-facility-report?fid=CT0101133&sys=ICP
2016,ICIS,NY0109584,1.1002E+11,NORTH CASTLE (T) SD#2,ARMONK,WESTCHESTER,NY,Non-Major,41.120361,-73.710806,4952,4952,SEWERAGE SYSTEMS,11000060403,Byram River,3018.7,0,0,0,0,0,0.357109589,,,https://echo.epa.gov/detailed-facility-report?fid=NY0109584&sys=ICP
2016,ICIS,CT0101681,1.10007E+11,LEDYARD WATER POLLUTION CONTROL FACILITY,LEDYARD,NEW LONDON,CT,Non-Major,41.43364,-71.96512,4952,4952,SEWERAGE SYSTEMS,11000030301,Mystic River-Frontal Fishers Island Sound,2972.862718,299.343292,0,299.343292,7.475,18.9,0.132,,,https://echo.epa.gov/detailed-facility-report?fid=CT0101681&sys=ICP
2016,ICIS,CT0030562,1.10002E+11,UNIVERSITY OF CONNECTICUT,GROTON,NEW LONDON,CT,Non-Major,41.315821,-72.062687,,,,11000030303,Stony Brook-Frontal Fishers Island Sound,2950.691769,0,0,0,5.5,11,0.0864,,,https://echo.epa.gov/detailed-facility-report?fid=CT0030562&sys=ICP
2016,ICIS,NH0101150,1.1001E+11,WEST SWANZY WWTP,SWANZEY,CHESHIRE,NH,Non-Major,42.8682,-72.32657,4952,4952,SEWERAGE SYSTEMS,10802010401,Wheelock Brook-Ashuelot River,2854.330847,0,0,0,15.026,29.5,0.071216667,,,https://echo.epa.gov/detailed-facility-report?fid=NH0101150&sys=ICP
2016,ICIS,VT0101141,1.1004E+11,SHERBURNE WPCF,KILLINGTON,RUTLAND,VT,Non-Major,43.648364,-72.786313,,,,10801060201,Headwaters Ottauquechee River,2825.597895,0,0,0,13,19.1,0.072625833,,,https://echo.epa.gov/detailed-facility-report?fid=VT0101141&sys=ICP
2016,ICIS,VT0100803,1.1004E+11,BRADFORD WPCP,BRADFORD,ORANGE,VT,Non-Major,43.99919,-72.12074,,,,10801040104,Waits River,2816.647379,0,0,0,11.58222222,18.8,0.086612917,,,https://echo.epa.gov/detailed-facility-report?fid=VT0100803&sys=ICP
2016,ICIS,VT0100633,1.1004E+11,DANVILLE WATER POLLUTION CONTROL FACILITY,DANVILLE,CALEDONIA,VT,Non-Major,44.411176,-72.147228,,,,10801020402,Joes Brook,2761.208091,0,0,0,14.19,22.5,0.032475,,,https://echo.epa.gov/detailed-facility-report?fid=VT0100633&sys=ICP
2016,ICIS,CT0003981,1.1E+11,SPECIALTY MINERALS DOLOMITE PLANT,CANAAN,LITCHFIELD COUNTY,CT,Non-Major,42.026463,-73.31996,1422,1422,CRUSHED AND BROKEN LIMESTONE,11000050303,Blackberry River,2745.575506,0,0,0,2.6675,3.52,0.1676,,,https://echo.epa.gov/detailed-facility-report?fid=CT0003981&sys=ICP
2016,ICIS,CT0100536,1.10009E+11,SOUTHINGTON WPCF,SOUTHINGTON (PLANTSVILLE),HARTFORD,CT,Major,41.566931,-72.883694,4952,4952,SEWERAGE SYSTEMS,11000040103,Headwaters Quinnipiac River,2659.539644,0,0,0,0.212857143,0.32,4.514166667,,,https://echo.epa.gov/detailed-facility-report?fid=CT0100536&sys=ICP
2016,ICIS,MA0102776,1.1001E+11,ERVING WASTEWATER TREATMENT PLANT #3,ERVING,FRANKLIN,MA,Non-Major,42.598361,-72.43875,4952,4952,SEWERAGE SYSTEMS,10802020207,Lyons Brook-Millers River,2511,0,0,0,1170.357026,1256.637806,0.003908333,,,https://echo.epa.gov/detailed-facility-report?fid=MA0102776&sys=ICP
2016,ICIS,MA0100200,1.1001E+11,NORTHFIELD WWTF,NORTHFIELD,FRANKLIN,MA,Non-Major,42.701976,-72.458138,4952,4952,SEWERAGE SYSTEMS,10802010501,Pauchaug Brook-Connecticut River,2385.8,0,0,0,42.96114986,65.7305931,0.05925,,,https://echo.epa.gov/detailed-facility-report?fid=MA0100200&sys=ICP
2016,ICIS,CT0100463,1.10006E+11,PLYMOUTH WPCF,PEQUABUCK,LITCHFIELD,CT,Major,41.668987,-72.991771,4952,4952,SEWERAGE SYSTEMS,10802070404,Pequabuck River,2284.976891,0,0,0,1.355,4.4,0.598166667,,,https://echo.epa.gov/detailed-facility-report?fid=CT0100463&sys=ICP
2016,ICIS,NH0000744,1.10011E+11,NH DES,WHITEFIELD,COOS,NH,Non-Major,44.323049,-71.560259,921,921,FISH HATCHERIES AND PRESERVES,10801030102,Johns River,2281,0,0,0,2.839785898,4.740293892,0.771,,,https://echo.epa.gov/detailed-facility-report?fid=NH0000744&sys=ICP
2016,ICIS,MA0001716,1.10008E+11,MEADWESTVACO CUSTOM PAPERS LAUREL MILL,LEE,BERKSHIRE,MA,Major,42.278795,-73.264413,2621,2621,PAPER MILLS,11000050107,Konkapot Brook-Housatonic River,2076.717,0,0,0,3.291180471,8.756000453,0.36693,,,https://echo.epa.gov/detailed-facility-report?fid=MA0001716&sys=ICP
2016,ICIS,CT0101320,1.1004E+11,UNIVERSITY OF CT WATER POLLUTION CONTROL FACILITY,STORRS,TOLLAND,CT,Major,41.811635,-72.263126,8221,8221,"COLLEGES, UNIV & PROF SCHOOLS",11000020108,Nelson Brook-Willimantic River,2076.635838,0,0,0,0.69625,2.018,0.852833333,,,https://echo.epa.gov/detailed-facility-report?fid=CT0101320&sys=ICP
2016,ICIS,CT0100501,1.10002E+11,SEYMOUR WPCF,SEYMOUR,NEW HAVEN,CT,Major,41.366379,-73.087313,4952,4952,SEWERAGE SYSTEMS,11000051207,Bladens River-Naugatuck River,2069.975013,0,0,0,1.256,5.32,0.851666667,,,https://echo.epa.gov/detailed-facility-report?fid=CT0100501&sys=ICP
2016,ICIS,VT0101061,1.10011E+11,LUNENBURG FIRE DISTRICT #2,GILMAN,ESSEX,VT,Non-Major,44.41235,-71.71851,,,,10801030201,Miles Stream-Connecticut River,2048.211428,0,0,0,6.14375,16.2,0.05625,,,https://echo.epa.gov/detailed-facility-report?fid=VT0101061&sys=ICP
2016,ICIS,MA0101265,1.1001E+11,HUNTINGTON WASTEWATER TREATMENT PLAN,HUNTINGTON,HAMPSHIRE,MA,Non-Major,42.232485,-72.87644,4952,4952,SEWERAGE SYSTEMS,10802060202,Lower West Branch Westfield River,2034,0,0,0,13.66787243,19.96982559,0.088458333,,,https://echo.epa.gov/detailed-facility-report?fid=MA0101265&sys=ICP
2016,ICIS,CT0030449,1.10001E+11,HIGHWAY SAFETY CORP / CT GALVANIZING,GLASTONBURY,HARTFORD,CT,Non-Major,41.71099,-72.58229,3479,3479,METAL COATING & ALLIED SERVIC,10802050505,Goff Brook-Connecticut River,1914.310583,0,0,0,1.78375,4.565,0.030732,,,https://echo.epa.gov/detailed-facility-report?fid=CT0030449&sys=ICP
2016,ICIS,NY0024881,1.10009E+11,NORTHPORT (V) STP,NORTHPORT,SUFFOLK,NY,Non-Major,40.889667,-73.355417,4952,4952,SEWERAGE SYSTEMS,20302010204,Northport Bay,1880.833902,0,0,0,1.025833333,1.346666667,0.2,,,https://echo.epa.gov/detailed-facility-report?fid=NY0024881&sys=ICP
2016,ICIS,CT0100781,1.10056E+11,THOMASTON WPCF,THOMASTON,LITCHFIELD,CT,Major,41.645097,-73.079553,4952,4952,SEWERAGE SYSTEMS,11000051104,Branch Brook,1879.52683,0,0,0,0.71675,2.38,0.809583333,,,https://echo.epa.gov/detailed-facility-report?fid=CT0100781&sys=ICP
2016,ICIS,CT0000957,1.1E+11,PFIZER GROTON CAMPUS,GROTON,NEW LONDON,CT,Non-Major,41.3309,-72.0771,2834,2834,PHARMACEUTICAL PREPARATIONS,11000030203,Thames River-Frontal New London Harbor,1814.666667,0,0,0,0.458340369,1.079328486,1.392207333,,,https://echo.epa.gov/detailed-facility-report?fid=CT0000957&sys=ICP
2016,ICIS,CT0100609,1.10056E+11,VERNON WPCF,VERNON,TOLLAND,CT,Major,41.86545,-72.48457,4952,4952,SEWERAGE SYSTEMS,10802050401,Upper Hockanum River,1799.292963,0,0,0,0.206666667,0.34,2.839166667,,,https://echo.epa.gov/detailed-facility-report?fid=CT0100609&sys=ICP
2016,ICIS,CT0002127,1.10044E+11,CELLU TISSUE,EAST HARTFORD,HARTFORD,CT,Major,41.776151,-72.606406,2679,2679,CONV PAPER & PAPERBRD PRODUCTS,10802050402,Lower Hockanum River,1777.55934,0,0,0,0.553888889,0.833333333,0.352083333,,,https://echo.epa.gov/detailed-facility-report?fid=CT0002127&sys=ICP
2016,ICIS,VT0100943,1.10011E+11,CHELSEA WASTEWATER TREATMENT FACILITY,CHELSEA,ORANGE,VT,Non-Major,43.980226,-72.447867,,,,10801050401,Headwaters First Branch White River,1759.654827,0,0,0,28.7,34.5,0.02037875,,,https://echo.epa.gov/detailed-facility-report?fid=VT0100943&sys=ICP
2016,ICIS,MAG580003,1.1001E+11,CHARLEMONT WASTEWATER TREATMENT FACILITY,CHARLEMONT,FRANKLIN,MA,Non-Major,42.62751,-72.87252,,,,10802030205,Mill Brook-Deerfield River,1755.73,0,0,0,36.83788145,49.04325742,0.015631333,,,https://echo.epa.gov/detailed-facility-report?fid=MAG580003&sys=ICP
2016,ICIS,VT0100854,1.10011E+11,ROYALTON WWTF,SOUTH ROYALTON,WINDSOR,VT,Non-Major,43.80187,-72.50589,,,,10801050501,Broad Brook-White River,1725.257097,0,0,0,23.525,38.6,0.023416667,,,https://echo.epa.gov/detailed-facility-report?fid=VT0100854&sys=ICP
2016,ICIS,CT0101231,1.10001E+11,TOWN OF NORFOLK WPCF,NORFOLK,LITCHFIELD,CT,Non-Major,41.99983,-73.21633,4952,4952,SEWERAGE SYSTEMS,11000050303,Blackberry River,1717.361017,0,0,0,2.406666667,12,0.244166667,,,https://echo.epa.gov/detailed-facility-report?fid=CT0101231&sys=ICP
2016,ICIS,CT0003883,1.1E+11,NRG MIDDLETOWN POWER STATION,MIDDLETOWN,MIDDLESEX,CT,Major,41.554782,-72.58358,4911,4911,ELECTRICAL SERVICES,10802050702,Mill Creek-Connecticut River,1676.448964,0,0,0,0.275454545,1.553333333,17.494246,,,https://echo.epa.gov/detailed-facility-report?fid=CT0003883&sys=ICP
2016,ICIS,NY0005941,1.10001E+11,NATIONAL GRID - NORTHPORT POWER STATION,NORTHPORT,SUFFOLK,NY,Major,40.923488,-73.342561,4911,4911,ELECTRICAL SERVICES,20302010301,Crab Meadow-Fresh Pond,1659.988214,0,0,0,1.280496732,5.7,10.01366017,,Y,https://echo.epa.gov/detailed-facility-report?fid=NY0005941&sys=ICP
2016,ICIS,VT0100081,1.10011E+11,CHESTER MTP,CHESTER,WINDSOR,VT,Non-Major,43.2683,-72.58938,,,,10801060601,Headwaters Williams River,1626.984498,0,0,0,5.360833333,8.23,0.103083333,,,https://echo.epa.gov/detailed-facility-report?fid=VT0100081&sys=ICP
2016,ICIS,CT0001341,1.10001E+11,PHARMACIA & UPJOHN (FORMER),NORTH HAVEN,NEW HAVEN,CT,Non-Major,41.375384,-72.878626,2869,2869,INDUST. ORGANIC CHEMICALS NEC,11000040105,Outlet Quinnipiac River,1564.5,0,0,0,4.983610458,8.034015043,0.10263,,,https://echo.epa.gov/detailed-facility-report?fid=CT0001341&sys=ICP
2016,ICIS,NHG580536,1.10024E+11,STRATFORD VILLAGE SYSTEM,NORTH STRATFORD,COOS,NH,Non-Major,44.74926,-71.629411,4952,4952,SEWERAGE SYSTEMS,10801010603,Dennis Pond Brook-Connecticut River,1437.4,0,0,0,27.52807011,42.97907343,0.01779475,,,https://echo.epa.gov/detailed-facility-report?fid=NHG580536&sys=ICP
2016,ICIS,NHG580404,1.10028E+11,WINCHESTER WASTEWATER TREATMENT PLANT,WINCHESTER,CHESHIRE,NH,Non-Major,42.770205,-72.389345,,,,10802010403,Ashuelot River,1418.8,0,0,0,3.745718113,13.38608941,0.113983333,,,https://echo.epa.gov/detailed-facility-report?fid=NHG580404&sys=ICP
2016,ICIS,MA0101516,1.10001E+11,ERVING WASTEWATER TREATMENT PLANT #1,ERVING,FRANKLIN,MA,Major,42.588774,-72.49445,4952,4952,SEWERAGE SYSTEMS,10802020207,Lyons Brook-Millers River,1345.9,0,0,0,4.466681685,13.65378773,0.104583333,,,https://echo.epa.gov/detailed-facility-report?fid=MA0101516&sys=ICP
2016,ICIS,NHG581206,1.1001E+11,NORTHUMBERLAND VILLAGE WATER POLLUTION CONTROL FACILITY,GROVETON,COOS,NH,Non-Major,44.597268,-71.521189,4941,4941,WATER SUPPLY,10801010707,Upper Ammonoosuc River,1262.974,0,0,0,10.29748305,14.59394854,0.040333333,,,https://echo.epa.gov/detailed-facility-report?fid=NHG581206&sys=ICP
2016,ICIS,VT0101044,1.10011E+11,WHITINGHAM (JACKSONVILLE),JACKSONVILLE,WINDHAM COUNTY,VT,Non-Major,42.7853,-72.81453,,,,10802030301,East Branch North River,1230.110059,0,0,0,20.475,27.02,0.019608333,,,https://echo.epa.gov/detailed-facility-report?fid=VT0101044&sys=ICP
2016,ICIS,CT0100081,1.10001E+11,"CHESIRE,WATER POLLUTION CONTROL FACILITY",CHESHIRE,NEW HAVEN,CT,Major,41.53378,-72.86655,4952,4952,SEWERAGE SYSTEMS,11000040103,Headwaters Quinnipiac River,1193.443072,0,0,0,0.195833333,0.53,2.0625,,,https://echo.epa.gov/detailed-facility-report?fid=CT0100081&sys=ICP
2016,ICIS,CT0100803,1.10007E+11,LITCHFIELD WPCF,BANTAM,LITCHFIELD,CT,Non-Major,41.714659,-73.244315,4952,4952,SEWERAGE SYSTEMS,11000050702,Bantam River,1187.701109,0,0,0,1.28,3.6,0.352166667,,,https://echo.epa.gov/detailed-facility-report?fid=CT0100803&sys=ICP
2016,ICIS,CT0100374,1.10002E+11,BRISTOL WATER RECLAMATION FACILITY,BRISTOL,HARTFORD,CT,Major,41.66049,-72.9197,4952,4952,SEWERAGE SYSTEMS,10802070404,Pequabuck River,1093.3988,0,0,0,0.075833333,0.19,4.730833333,,,https://echo.epa.gov/detailed-facility-report?fid=CT0100374&sys=ICP
2016,ICIS,CT0100498,1.10007E+11,TOWN OF SALISBURY WPCF,SALISBURY,LITCHFIELD,CT,Non-Major,42.014536,-73.431065,4952,4952,SEWERAGE SYSTEMS,11000050305,Salmon Creek,1068.961931,0,0,0,1.448181818,5,0.251666667,,,https://echo.epa.gov/detailed-facility-report?fid=CT0100498&sys=ICP
2016,ICIS,VT0100731,1.1004E+11,READSBORO WPC,READSBORO,BENNINGTON,VT,Non-Major,42.76199,-72.93818,,,,10802030105,Sherman Dam-Deerfield River,1031.731568,0,0,0,13.9471325,21.1,0.024675,,,https://echo.epa.gov/detailed-facility-report?fid=VT0100731&sys=ICP
2016,ICIS,VT0100048,1.10011E+11,BETHEL,BETHEL,WINDSOR ,VT,Non-Major,43.824634,-72.616361,,,,10801050501,Broad Brook-White River,886.851344,0,0,0,4.148333333,9,0.068875,,,https://echo.epa.gov/detailed-facility-report?fid=VT0100048&sys=ICP
2016,ICIS,NHG581214,1.10024E+11,STRATFORD-MILL HOUSE,NORTH STRATFORD,COOS,NH,Non-Major,44.869834,-71.526999,4952,4952,SEWERAGE SYSTEMS,10801010404,Clough Brook-Connecticut River,791.75,0,0,0,39.39664879,60.53665838,0.009514833,,,https://echo.epa.gov/detailed-facility-report?fid=NHG581214&sys=ICP
2016,ICIS,CT0100293,1.10014E+11,HOCKANUM RIVER WATER POLLUTION CONTROL FACILITY,MANCHESTER,HARTFORD,CT,Major,41.777345,-72.561071,4952,4952,SEWERAGE SYSTEMS,10802050402,Lower Hockanum River,726.2248368,0,0,0,0.05,0.1,4.750833333,,,https://echo.epa.gov/detailed-facility-report?fid=CT0100293&sys=ICP
2016,ICIS,NY0066028,1.10009E+11,SCSD#22 /HAUPPAUGE CTY CTR STP,HAUPPAUGE,SUFFOLK,NY,Non-Major,40.826333,-73.227917,4952,4952,SEWERAGE SYSTEMS,20302010302,Nissequogue River,695.2714702,0,0,0,2.241666667,3.5,0.101,,,https://echo.epa.gov/detailed-facility-report?fid=NY0066028&sys=ICP
2016,ICIS,VT0100951,1.10014E+11,RYEGATE FIRE DEPARTMENT .#2,RYEGATE,CALEDONIA,VT,Non-Major,44.20007,-72.06483,,,,10801030206,Manchester Brook-Connecticut River,689.4317048,0,0,0,24.17971036,32.83396618,0.003760547,,Y,https://echo.epa.gov/detailed-facility-report?fid=VT0100951&sys=ICP
2016,ICIS,CT0101770,1.1001E+11,REDDING WASTEWATER TREATMENT FACILITY,REDDING,FAIRFIELD,CT,Non-Major,41.258249,-73.429303,4952,4952,SEWERAGE SYSTEMS,11000060202,Norwalk River-Frontal Norwalk Harbor,681.1,0,0,0,3.954452644,10.93682132,0.057883333,,,https://echo.epa.gov/detailed-facility-report?fid=CT0101770&sys=ICP
2016,ICIS,CT0003778,1.1E+11,PSEG POWER CONNECTICUT LLC,BRIDGEPORT,FAIRFIELD,CT,Major,41.17067,-73.18408,4911,4911,ELECTRICAL SERVICES,11000060303,Rooster River-Frontal Long Island Sound,551.8005126,0,0,0,0.488055556,1.23,21.82569321,,,https://echo.epa.gov/detailed-facility-report?fid=CT0003778&sys=ICP
2016,ICIS,VT0101109,1.10011E+11,WHITINGHAM,WHITINGHAM /T/,WINDHAM,VT,Non-Major,42.790116,-72.889556,,,,10802030105,Sherman Dam-Deerfield River,545.4726553,0,0,0,23.40166667,37.79,0.007247917,,,https://echo.epa.gov/detailed-facility-report?fid=VT0101109&sys=ICP
2016,ICIS,CT0090182,1.10003E+11,NATIONAL MARINE FISHERIES,MILFORD,NEW HAVEN,CT,Non-Major,41.21171,-73.05407,8731,8731,COMMERCIAL PHYSICAL RESEARCH,11000040303,Milford Harbor-Frontal Long Island Sound,538.5323447,0,0,0,0.1525,0.31,0.34384925,,,https://echo.epa.gov/detailed-facility-report?fid=CT0090182&sys=ICP
2016,ICIS,MA0103110,1.1001E+11,WEST STOCKBRIDGE WASTEWATER TREAMENT FACILITY,WEST STOCKBRIDGE,BERKSHIRE,MA,Non-Major,42.33241,-73.36937,4952,4952,SEWERAGE SYSTEMS,11000050201,Williams River,527.5782735,0,0,0,6.286675739,13.34333333,0.012916667,,,https://echo.epa.gov/detailed-facility-report?fid=MA0103110&sys=ICP
2016,ICIS,CT0101788,1.10002E+11,NEWTOWN /WPCF,NEWTOWN,FAIRFIELD,CT,Non-Major,41.41472,-73.28424,4952,4952,SEWERAGE SYSTEMS,11000051001,Pootatuck River,520.9380331,0,0,0,0.651818182,0.84,0.39225,,,https://echo.epa.gov/detailed-facility-report?fid=CT0101788&sys=ICP
2016,ICIS,CT0003263,1.10017E+11,DOMINION MILLSTONE NUCLEAR POWER STATION,WATERFORD,NEW LONDON,CT,Major,41.307765,-72.165617,4911,4911,ELECTRICAL SERVICES,11000030305,Fenger Brook-Frontal Lond Island Sound,517.3349261,0,0,0,0.217323764,0.705,265.0616081,,,https://echo.epa.gov/detailed-facility-report?fid=CT0003263&sys=ICP
2016,ICIS,NH0101168,1.10011E+11,MERIDEN VILLAGE WATER DISTRICT,MERIDEN,SULLIVAN,NH,Non-Major,43.54017,-72.26377,4952,4952,SEWERAGE SYSTEMS,10801060301,Bloods Brook,516.8,0,0,0,7.844246799,17.42821143,0.0255,,,https://echo.epa.gov/detailed-facility-report?fid=NH0101168&sys=ICP
2016,ICIS,VT0000019,1.1E+11,WEIDMANN ELECTRICAL TECHNOLOGY,SAINT JOHNSBURY,CALEDONIA,VT,Non-Major,44.48239,-72.01343,,,,10801020302,South Wheelock Branch-Passumpsic River,513.3852214,0,0,0,0.968333333,1.9,0.176083333,,,https://echo.epa.gov/detailed-facility-report?fid=VT0000019&sys=ICP
2016,ICIS,CT0100331,1.1001E+11,NEW HARTFORD WPCF,NEW HARTFORD,LITCHFIELD,CT,Non-Major,41.868318,-72.95786,4952,4952,SEWERAGE SYSTEMS,10802070204,Lower West Branch Farmington River,473.01,0,0,0,3.466939781,6.260540324,0.074833333,,,https://echo.epa.gov/detailed-facility-report?fid=CT0100331&sys=ICP
2016,ICIS,NHG580391,1.10004E+11,CHESHIRE COUNTY MAPLEWOOD NURSING HOME,WESTMORELAND,CHESHIRE,NH,Non-Major,42.97351,-72.46554,4952,4952,SEWERAGE SYSTEMS,10801070503,Partridge Brook,458.4,0,0,0,10.27600226,11.98189536,0.014666667,,,https://echo.epa.gov/detailed-facility-report?fid=NHG580391&sys=ICP
2016,ICIS,CT0101214,1.10002E+11,STAFFORD / WPCF,STAFFORD SPRINGS,TOLLAND,CT,Major,41.94688,-72.30454,4952,4952,SEWERAGE SYSTEMS,11000020108,Nelson Brook-Willimantic River,447.9378129,0,0,0,0.212,0.51,0.771666667,,,https://echo.epa.gov/detailed-facility-report?fid=CT0101214&sys=ICP
2016,ICIS,MA0100188,1.1001E+11,MONROE WASTEWATER TREATMENT FACILITY,MONROE,FRANKLIN,MA,Non-Major,42.721141,-72.941875,4952,4952,SEWERAGE SYSTEMS,10802030201,Pelham Brook-Deerfield River,438.8429062,0,0,0,4.903333333,5.19,0.010095,,,https://echo.epa.gov/detailed-facility-report?fid=MA0100188&sys=ICP
2016,ICIS,VT0100846,1.10011E+11,BRIDGEWATER WWTF,BRIDGEWATER,WINDSOR,VT,Non-Major,43.587651,-72.624059,,,,10801060205,Beaver Brook-Ottauquechee River,379.4646056,0,0,0,16.55957696,25.42104826,0.008016667,,,https://echo.epa.gov/detailed-facility-report?fid=VT0100846&sys=ICP
2016,ICIS,NY0005932,1.10008E+11,NATIONAL GRID - PORT JEFFERSON POWER STATION,PORT JEFFERSON,SUFFOLK,NY,Non-Major,40.94969,-73.078431,4911,4911,ELECTRICAL SERVICES,20302010304,Mt Sinai Harbor-Port Jefferson Harbor,346.3419331,0,0,0,0.656666667,3.1,12.34687214,,,https://echo.epa.gov/detailed-facility-report?fid=NY0005932&sys=ICP
2016,ICIS,CT0101273,1.1004E+11,NEW CANAAN WASTEWATER TREATMENT PLANT,NEW CANAAN,FAIRFIELD,CT,Major,41.14066,-73.48368,4952,4952,SEWERAGE SYSTEMS,11000060404,Fivemile River,273.1162227,0,0,0,0.123333333,0.16,0.822833333,,,https://echo.epa.gov/detailed-facility-report?fid=CT0101273&sys=ICP
2016,ICIS,CT0101761,1.10009E+11,EAST HADDAM WATER POLLUTION CONTROL FACILITY,EAST HADDAM,MIDDLESEX,CT,Non-Major,41.4504,-72.45851,4952,4952,SEWERAGE SYSTEMS,10802050901,Deep River-Connecticut River,264.6,0,0,0,6.943551554,11.98189536,0.013083333,,,https://echo.epa.gov/detailed-facility-report?fid=CT0101761&sys=ICP
2016,ICIS,VT0100749,1.10011E+11,S. WOODSTOCK WASTEWATER TREATMENT FACILITY,WOODSTOCK,WINDSOR,VT,Non-Major,43.6667,-72.5,,,,10801060206,Gulf Stream,239.0740292,0,0,0,25.76666667,37.7,0.006333333,,,https://echo.epa.gov/detailed-facility-report?fid=VT0100749&sys=ICP
2016,ICIS,NY0088510,1.10019E+11,SEAWANHAKA-CORINTHIAN YACHT CLUB PROPERT,CENTRE ISLAND,NASSAU,NY,Non-Major,40.902056,-73.511194,8999,8999,"SERVICES, NEC",20302010201,Mill Neck Creek-Oyster Bay Harbor,229.216744,0,0,0,30.91351123,42.74471685,0.00295,,,https://echo.epa.gov/detailed-facility-report?fid=NY0088510&sys=ICP
2016,ICIS,CTMIU0161,1.10009E+11,BEACON HEIGHTS LANDFILL,BEACON FALLS,NEW HAVEN,CT,Non-Major,41.43195,-73.035281,,,,11000051207,Bladens River-Naugatuck River,207.9255456,0,0,0,2.276,3.23,0.0299752,,,https://echo.epa.gov/detailed-facility-report?fid=CTMIU0161&sys=ICP
2016,ICIS,CT0001180,1.1E+11,SUMMIT CORP OF AMERICA,THOMASTON,LITCHFIELD,CT,Major,41.623153,-73.064553,3471,3471,PLATING AND POLISHING,11000051105,Northfield Brook-Naugatuck River,180.0410477,0,0,0,13.35963708,18.1085527,0.13581375,,,https://echo.epa.gov/detailed-facility-report?fid=CT0001180&sys=ICP
2016,ICIS,CT0003131,1.10065E+11,TRINSEO LLC,LEDYARD,NEW LONDON,CT,Major,41.44167,-72.07892,2819,2819,INDUSTRIAL INORGANIC CHEMICALS,11000030203,Thames River-Frontal New London Harbor,173.1616859,0,0,0,13,13,0.003117646,,,https://echo.epa.gov/detailed-facility-report?fid=CT0003131&sys=ICP
2016,ICIS,NHG581249,1.10028E+11,LANCASTER GRANGE WASTEWATER TREATMENT PLANT,LANCASTER,COOS,NH,Non-Major,44.481841,-71.528227,4952,4952,SEWERAGE SYSTEMS,10801010805,Otter Brook,162.472,0,0,0,17.93741458,32.69345733,0.003291667,,,https://echo.epa.gov/detailed-facility-report?fid=NHG581249&sys=ICP
2016,ICIS,NH0100544,1.10002E+11,SUNAPEE WASTEWATER TREATMENT FACILITY,SUNAPEE,SULLIVAN,NH,Major,43.379784,-72.113507,4952,4952,SEWERAGE SYSTEMS,10801060405,Long Pond Brook-Sugar River,150.1068192,0,0,0,0.062,0.21,0.3359,,,https://echo.epa.gov/detailed-facility-report?fid=NH0100544&sys=ICP
2016,ICIS,CT0029530,1.10009E+11,TA OPERATING LLC,WILLINGTON,TOLLAND,CT,Non-Major,41.91852,-72.26036,4215,4215,"COURIER SERVICES, EXCEPT AIR",11000020104,Roaring Brook,144.0304617,0,0,0,4.01375,6.3,0.00612,,,https://echo.epa.gov/detailed-facility-report?fid=CT0029530&sys=ICP
2016,ICIS,CT0026808,1.1E+11,"SEIDEL, INC.",WATERBURY,NEW HAVEN,CT,Major,41.60094,-73.05825,3471,3471,PLATING AND POLISHING,11000051105,Northfield Brook-Naugatuck River,134.8401609,0,0,0,124.5675689,272.5330452,0.022577333,,,https://echo.epa.gov/detailed-facility-report?fid=CT0026808&sys=ICP
2016,ICIS,CT0030341,1.1003E+11,ROCKVILLE WATER TREATMENT PLANT,VERNON,TOLLAND,CT,Non-Major,41.86911,-72.43475,,,,10802050401,Upper Hockanum River,134.276974,0,0,0,0.087083333,0.133333333,0.092227958,,,https://echo.epa.gov/detailed-facility-report?fid=CT0030341&sys=ICP
2016,ICIS,MA0100170,1.1001E+11,OXFORD ROCHDALE WASTEWATER TREATMENT PLANT,NORTH OXFORD,WORCESTER COUNTY,MA,Non-Major,42.183647,-71.894113,4952,4952,SEWERAGE SYSTEMS,11000010201,Upper French River,85.40098907,0,0,0,0.13,0.23,0.21675,,,https://echo.epa.gov/detailed-facility-report?fid=MA0100170&sys=ICP
2016,ICIS,CT0030473,1.10041E+11,PLAINFIELD RENEWABLE ENRGY LLC,PLAINFIELD,WINDHAM,CT,Non-Major,41.66084,-71.92495,4911,4911,ELECTRICAL SERVICES,11000010702,Mill Brook,84.42407743,0,0,0,0.246333333,0.4,0.113097667,,,https://echo.epa.gov/detailed-facility-report?fid=CT0030473&sys=ICP
2016,ICIS,CT0030155,1.10002E+11,TILCON CONNECTICUT AGGREGATE & ASPHALT,NEWINGTON,HARTFORD,CT,Non-Major,41.71873,-72.7152,1429,1429,"CRUSHED AND BROKEN STONE, NEC",10802050303,Piper Brook-Park River,78.82469125,0,0,0,1.629583333,3.49,0.0093135,,,https://echo.epa.gov/detailed-facility-report?fid=CT0030155&sys=ICP
2016,ICIS,CT0021873,1.10034E+11,GBC METALS LLC SOMERS THIN STRIP,WATERBURY,NEW HAVEN,CT,Major,41.534338,-73.032406,3351,3351,ROLL/DRAW/EXTRUDING OF COPPER,11000051205,Long Meadow Pond Brook-Naugatuck River,75.93340894,0,0,0,0.1975,0.61,0.079783083,,,https://echo.epa.gov/detailed-facility-report?fid=CT0021873&sys=ICP
2016,ICIS,VT0100765,1.10011E+11,WOODSTOCK - TAFTSVILLE,TAFTSVILLE,WINDSOR,VT,Non-Major,43.630932,-72.467758,,,,10801060207,Ottauquechee River,74.07926489,0,0,0,17.01666667,23.1,0.001583333,,,https://echo.epa.gov/detailed-facility-report?fid=VT0100765&sys=ICP
2016,ICIS,CT0101818,1.10011E+11,"CONVENT OF THE SACRED HEART SCHOOL GREENWICH, INC.",GREENWICH,FAIRFIELD,CT,Non-Major,41.06406,-73.69544,4952,4952,SEWERAGE SYSTEMS,11000060405,Blind Brook-Horseneck Brook,66.33677397,0,0,0,3.515,5.9,0.005815417,,,https://echo.epa.gov/detailed-facility-report?fid=CT0101818&sys=ICP
2016,ICIS,NY0274526,1.10063E+11,PEACH LAKE SEWER DISTRICT WWTP,"SOUTHEAST, TOWN OF",PUTNAM,NY,Non-Major,41.21159,-73.51961,4952,4952,SEWERAGE SYSTEMS,11000060401,Rippowam River,64.36671924,0,0,0,0.401470588,0.494117647,0.0525,,,https://echo.epa.gov/detailed-facility-report?fid=NY0274526&sys=ICP
2016,ICIS,MA0040482,1.10065E+11,WEST PARISH WATER TREATMENT PLANT,WESTFIELD,HAMPDEN,MA,Non-Major,42.1156,-72.83238,,,,10802060303,Little River,47.42183571,0,0,0,0.161305503,0.161305503,1.060358333,,,https://echo.epa.gov/detailed-facility-report?fid=MA0040482&sys=ICP
2016,ICIS,MA0000272,1.10056E+11,PAN AM RAILWAYS YARD,DEERFIELD,FRANKLIN,MA,Non-Major,42.57221,-72.56679,4011,4011,"RAILROADS, LINE HAUL OPERATING",10802010602,Russellville Brook-Connecticut River,45.95387432,0,0,0,4.10755914,5.549677419,0.050025746,,,https://echo.epa.gov/detailed-facility-report?fid=MA0000272&sys=ICP
2016,ICIS,NY0030767,1.1002E+11,OAKRIDGE STP,SOUTH SALEM,WESTCHESTER,NY,Non-Major,41.213403,-73.518449,4952,4952,SEWERAGE SYSTEMS,11000060401,Rippowam River,36.68524975,0,0,0,0.240196079,0.411764706,0.05,,,https://echo.epa.gov/detailed-facility-report?fid=NY0030767&sys=ICP
2016,ICIS,CT0000841,1.10001E+11,"KING INDUSTRIES, INC.",NORWALK,FAIRFIELD COUNTY,CT,Non-Major,41.108491,-73.41271,2869,2869,INDUST. ORGANIC CHEMICALS NEC,11000060202,Norwalk River-Frontal Norwalk Harbor,30.70377341,0,0,0,0.855,0.855,0.018733958,,,https://echo.epa.gov/detailed-facility-report?fid=CT0000841&sys=ICP
2016,ICIS,MA0001350,1.1E+11,LS STARRETT PRECISION TOOLS,ATHOL,WORCESTER,MA,Major,42.595325,-72.226707,3545,3545,MACHINE TOOL ACCESSORIES,10802020204,Beaver Brook-Millers River,23.72197807,0,0,0,0.823529412,0.823529412,0.008957067,,,https://echo.epa.gov/detailed-facility-report?fid=MA0001350&sys=ICP
2016,ICIS,CT0101052,1.1001E+11,SHARON WATER POLLUTION CONTROL FACILITY,SHARON,LITCHFIELD,CT,Non-Major,41.88358,-73.48861,4952,4952,SEWERAGE SYSTEMS,11000050502,Mudge Pond Brook,21.90204406,0,0,0,0.234,0.33,0.033916667,,,https://echo.epa.gov/detailed-facility-report?fid=CT0101052&sys=ICP
2016,ICIS,CT0026972,1.10001E+11,STERLING ENERGY WASTE TIRE INCINERATION FAC,STERLING,WINDHAM,CT,Non-Major,41.7122,-71.8212,4931,4931,ELEC & OTHER SERVICES COMBINED,11000010503,Lower Moosup River,20.99073833,0,0,0,0.153888889,0.285,0.10459275,,,https://echo.epa.gov/detailed-facility-report?fid=CT0026972&sys=ICP
2016,ICIS,CT0001376,1.10065E+11,"UNITED TECHNOLOGIES CORPORATION, PRATT AND WHITNEY DIVISION",EAST HARTFORD,HARTFORD COUNTY,CT,Major,41.740541,-72.640907,3724,3724,AIRCRAFT ENGINES & ENGINE PART,10802050505,Goff Brook-Connecticut River,19.30022721,0,0,0,1.84,22.52,0.051387354,,,https://echo.epa.gov/detailed-facility-report?fid=CT0001376&sys=ICP
2016,ICIS,CT0002968,1.1E+11,ANSONIA COPPER & BRASS,ANSONIA,NEW HAVEN,CT,Major,41.35053,-73.08159,3351,3351,ROLL/DRAW/EXTRUDING OF COPPER,11000051207,Bladens River-Naugatuck River,14.40036312,0,0,0,0.195,0.195,0.0059465,,,https://echo.epa.gov/detailed-facility-report?fid=CT0002968&sys=ICP
2016,ICIS,CT0021504,1.1E+11,ROGERS CORPORATION,WOODSTOCK,WINDHAM,CT,Non-Major,41.98372,-71.97631,1752,1752,FLOOR LAY & OTHER FLOOR WORK,11000010401,Little River,9.3140523,0,0,0,0.2,0.2,0.015,,,https://echo.epa.gov/detailed-facility-report?fid=CT0021504&sys=ICP
2016,ICIS,NY0005894,1.10007E+11,GLENWOOD ENERGY CENTER - OLD TURB,GLENWOOD LANDING,NASSAU,NY,Non-Major,40.82517,-73.64703,4911,4911,ELECTRICAL SERVICES,20302010103,Glen Cove Creek-Hempstead Harbor,5.767117634,0,0,0,2.41,7.8,0.000505069,,,https://echo.epa.gov/detailed-facility-report?fid=NY0005894&sys=ICP
2016,ICIS,NY0105741,1.10008E+11,FOX LANE CAMPUS,BEDFORD,WESTCHESTER,NY,Non-Major,41.18632,-73.63554,8999,8999,"SERVICES, NEC",11000060402,Mianus River,3.144876112,0,0,0,0.125588235,0.28,0.00795,,,https://echo.epa.gov/detailed-facility-report?fid=NY0105741&sys=ICP
2016,ICIS,CT0003115,1.1E+11,NRG MONTVILLE POWER STATION,MONTVILLE (UNCASVILLE),NEW LONDON,CT,Major,41.427387,-72.102263,4911,4911,ELECTRICAL SERVICES,11000030203,Thames River-Frontal New London Harbor,2.937898096,0,0,0,0.167866667,0.276666667,11.69314306,,,https://echo.epa.gov/detailed-facility-report?fid=CT0003115&sys=ICP
2016,ICIS,NY0260312,1.1001E+11,"MOUNT VERNON DPW, CITY YARD",MOUNT VERNON,WESTCHESTER,NY,Non-Major,40.895833,-73.822222,7538,7538,GENERAL AUTO REPAIR SHOPS,20301020201,Hutchinson River-Eastchester Bay,0.464164021,0.20253148,0,0.20253148,4.065222222,13.4,0.000257273,,,https://echo.epa.gov/detailed-facility-report?fid=NY0260312&sys=ICP
2016,ICIS,MA0027871,1.10007E+11,"MAPLES, THE",WORTHINGTON,HAMPSHIRE,MA,Non-Major,42.41346,-72.93702,6513,6513,OPERATORS OF APART BUILDINGS,10802060105,Little River-Westfield River,0.165583152,0,0,0,0.133333333,0.4,0.000383333,,,https://echo.epa.gov/detailed-facility-report?fid=MA0027871&sys=ICP
2016,ICIS,CT0020800,1.1001E+11,"HIGH TOWERS TRADING, LLC",GREENWICH,FAIRFIELD,CT,Non-Major,41.07411,-73.70177,,,,11000060405,Blind Brook-Horseneck Brook,0.114549541,0,0,0,0.108333333,0.48,0.000500003,,Y,https://echo.epa.gov/detailed-facility-report?fid=CT0020800&sys=ICP
2016,ICIS,MA0100161,1.10009E+11,ROYALSTON WASTEWATER TREATMENT PLANT,ROYALSTON,WORCESTER,MA,Non-Major,42.62896,-72.15324,4952,4952,SEWERAGE SYSTEMS,10802020204,Beaver Brook-Millers River,0.00017928,0,0,0,6.7806819,7.04344086,1.47133E-08,,,https://echo.epa.gov/detailed-facility-report?fid=MA0100161&sys=ICP
2016,ICIS,CT0020826,1.10001E+11,AUTOSWAGE PRODUCTS,SHELTON,FAIRFIELD,CT,Major,41.26943,-73.09172,3559,3559,"SPECIAL INDUSTRY MACHINERY,NEC",11000051302,Housatonic River-Frontal Long Island Sound,0,0,0,0,0,0,0,,,https://echo.epa.gov/detailed-facility-report?fid=CT0020826&sys=ICP
2016,ICIS,NY0022128,1.10065E+11,GREAT NECK (V) WPCP,GREAT NECK,NASSAU,NY,Major,40.797539,-73.713261,4952,4952,SEWERAGE SYSTEMS,20302010102,Mitchells Creek-Manhassett Bay,0,0,0,0,0,0,,,,https://echo.epa.gov/detailed-facility-report?fid=NY0022128&sys=ICP
2016,ICIS,MAR053312,1.10065E+11,SAFETY-KLEEN WEST BROOKFIELD,WEST BROOKFIELD,WORCESTER,MA,Non-Major,42.21899,-72.12313,,,,10802040303,Upper Quaboag River,0,0,0,0,0.469411765,0.782352941,,,,https://echo.epa.gov/detailed-facility-report?fid=MAR053312&sys=ICP
2016,ICIS,NY0098868,1.10033E+11,TACONIC DDSO,WASSAIC,DUTCHESS,NY,Non-Major,41.775056,-73.566972,8999,8999,"SERVICES, NEC",11000050506,Tenmile River,0,0,0,0,0,0,1E-04,,,https://echo.epa.gov/detailed-facility-report?fid=NY0098868&sys=ICP
2016,ICIS,MAR053821,1.10067E+11,"J. DONOVAN & SON, INC.",STOCKBRIDGE,BERKSHIRE,MA,Non-Major,42.27401,-73.34064,1442,1442,CONSTRUCTION SAND AND GRAVEL,11000050107,Konkapot Brook-Housatonic River,0,0,0,0,0,0,,,,https://echo.epa.gov/detailed-facility-report?fid=MAR053821&sys=ICP
2016,ICIS,MAR053490,1.1E+11,RODNEY HUNT COMPANY,ORANGE,FRANKLIN COUNTY,MA,Non-Major,42.5892,-72.3043,3441,3441,FABRICATED STRUCTURAL METAL,10802020205,Mill Brook-Millers River,0,0,0,0,0.351055556,0.64,,,,https://echo.epa.gov/detailed-facility-report?fid=MAR053490&sys=ICP
2016,ICIS,CT0101346,1.10009E+11,"LYNWOOD PLACE, LLC",SANDY HOOK,FAIRFIELD,CT,Non-Major,41.4322,-73.27559,4952,4952,SEWERAGE SYSTEMS,11000051001,Pootatuck River,0,0,0,0,0,0,0,,,https://echo.epa.gov/detailed-facility-report?fid=CT0101346&sys=ICP
2016,ICIS,NHR053169,1.10067E+11,"PIKE INDUSTRIES, INC. - TWIN MOUNTAIN",TWIN MOUNTAIN,COOS,NH,Non-Major,44.2987,-71.543611,1429,1429,"CRUSHED AND BROKEN STONE, NEC",10801030102,Johns River,0,0,0,0,0,0,,,,https://echo.epa.gov/detailed-facility-report?fid=NHR053169&sys=ICP
2016,ICIS,NYR00F018,1.10044E+11,MAGELLAN AEROSPACE NY CORONA,CORONA,QUEENS,NY,Non-Major,40.742,-73.865,3471,3471,PLATING AND POLISHING,20301020104,Flushing Creek-Flushing Bay,0,0,0,0,0,0,,,,https://echo.epa.gov/detailed-facility-report?fid=NYR00F018&sys=ICP
2016,ICIS,CT0003701,1.10041E+11,ALLEGHENY LUDLUM STEEL STRIP PLANT,WALLINGFORD,NEW HAVEN,CT,Major,41.45405,-72.8345,3316,3316,COLD ROLLED STEEL SHEET/STRIP,11000040105,Outlet Quinnipiac River,0,0,0,0,0,0,0,,,https://echo.epa.gov/detailed-facility-report?fid=CT0003701&sys=ICP
2016,ICIS,CT0028631,1.10002E+11,UNIVERSITY OF CONNECTICUT,GROTON,NEW LONDON,CT,Non-Major,41.315821,-72.062687,8221,8221,"COLLEGES, UNIV & PROF SCHOOLS",11000030303,Stony Brook-Frontal Fishers Island Sound,0,0,0,0,0,0,0.16244475,,,https://echo.epa.gov/detailed-facility-report?fid=CT0028631&sys=ICP
2016,ICIS,CT0030635,1.10044E+11,"TILCON CONNECTICUT, INC",GRISWOLD,NEW LONDON,CT,Non-Major,41.536192,-71.895535,,,,11000010602,Lower Pachaug River,0,0,0,0,0,0,,,,https://echo.epa.gov/detailed-facility-report?fid=CT0030635&sys=ICP
2016,ICIS,MAR053421,1.10065E+11,GOYA QUARRY PROPERTY,WEBSTER,WORCESTER,MA,Non-Major,42.07656,-71.85909,1442,1442,CONSTRUCTION SAND AND GRAVEL,11000010203,Middle French River,0,0,0,0,0,0,,,,https://echo.epa.gov/detailed-facility-report?fid=MAR053421&sys=ICP
2016,ICIS,MAR053769,1.10024E+11,LANE CONSTRUCTION PLANT & QUARRY,NORTHFIELD,FRANKLIN,MA,Non-Major,42.69299,-72.48533,1442,1442,CONSTRUCTION SAND AND GRAVEL,10802010501,Pauchaug Brook-Connecticut River,0,0,0,0,0,0,,,,https://echo.epa.gov/detailed-facility-report?fid=MAR053769&sys=ICP
2016,ICIS,MAR053752,1.1E+11,SMITH & WESSON,SPRINGFIELD,HAMPDEN,MA,Non-Major,42.13722,-72.54706,3471,3471,PLATING AND POLISHING,10802040402,Outlet Chicopee River,0,0,0,0,0.765125,2.51,,,,https://echo.epa.gov/detailed-facility-report?fid=MAR053752&sys=ICP
2016,ICIS,NHR053148,1.10065E+11,"PIKE INDUSTRIES, INC. - COLUMBIA",COLUMBIA,COOS,NH,Non-Major,44.8248,-71.5501,1442,1442,CONSTRUCTION SAND AND GRAVEL,10801010404,Clough Brook-Connecticut River,0,0,0,0,0.2,0.2,,,,https://echo.epa.gov/detailed-facility-report?fid=NHR053148&sys=ICP
2016,ICIS,NYR00F825,1.10069E+11,SCHLAGE LOCK COMPANY LLC,BRONX,BRONX,NY,Non-Major,40.80977,-73.90933,3442,3442,"METAL DOORS, SASH, AND TRIM",20301020105,Westchester Creek-East River,0,0,0,0,0,0,,,,https://echo.epa.gov/detailed-facility-report?fid=NYR00F825&sys=ICP
2016,ICIS,NHR053153,1.1E+11,STURM RUGER FIREARMS MANUFACTURING FACILITY,NEWPORT,SULLIVAN,NH,Non-Major,43.379828,-72.152415,3484,3484,SMALL ARMS,10801060405,Long Pond Brook-Sugar River,0,0,0,0,0,0,,,,https://echo.epa.gov/detailed-facility-report?fid=NHR053153&sys=ICP
2016,ICIS,MAR053558,1.10002E+11,REED NATIONAL CORP,WESTFIELD,HAMPDEN,MA,Non-Major,42.13609,-72.73927,3444,3444,SHEET METAL WORK,10802060305,Powerdmill Brook-Westfield River,0,0,0,0,0,0,,,,https://echo.epa.gov/detailed-facility-report?fid=MAR053558&sys=ICP
2016,ICIS,CT0030431,1.10014E+11,HYPONEX CORPORATION,LEBANON,NEW LONDON,CT,Non-Major,41.640707,-72.17095,711,711,SOIL PREPARATION SERVICES,11000030102,Susquetonscut Brook,0,0,0,0,0.56125,1.43,,,,https://echo.epa.gov/detailed-facility-report?fid=CT0030431&sys=ICP
2016,ICIS,MAR053881,1.10008E+11,DONOVAN BROTHERS,HUNTINGTON,HAMPSHIRE,MA,Non-Major,42.2545,-72.86675,1442,1442,CONSTRUCTION SAND AND GRAVEL,10802060105,Little River-Westfield River,0,0,0,0,0,0,,,,https://echo.epa.gov/detailed-facility-report?fid=MAR053881&sys=ICP
2016,ICIS,MAR053431,1.10002E+11,SUDDEKOR LLC,AGAWAM,HAMPDEN,MA,Non-Major,42.05604,-72.65584,2754,2754,"COMMERCIAL PRINTING, GRAVURE",10802050102,Pecousic Brook-Connecticut River,0,0,0,0,0,0,,,,https://echo.epa.gov/detailed-facility-report?fid=MAR053431&sys=ICP
2016,ICIS,MAR053340,1.1002E+11,SHIELD PACKAGING,DUDLEY,WORCESTER,MA,Non-Major,42.05404,-71.881367,2842,2842,"SPECIALTY CLEANING, POLISHING",11000010203,Middle French River,0,0,0,0,0.535,1.1,0,,,https://echo.epa.gov/detailed-facility-report?fid=MAR053340&sys=ICP
2016,ICIS,MAR05J00X,1.10071E+11,YANKEE HILL MACHINE,EASTHAMPTON,HAMPSHIRE,MA,Non-Major,42.254,-72.6935,3484,3484,SMALL ARMS,10802010609,Lower Manhan River,0,0,0,0,0,0,,,,https://echo.epa.gov/detailed-facility-report?fid=MAR05J00X&sys=ICP
2016,ICIS,NY0020079,1.10002E+11,GREENPORT POWER PLANT,GREENPORT,SUFFOLK,NY,Major,41.108361,-72.38575,4952,4952,SEWERAGE SYSTEMS,20302010402,Goldsmith Inlet-Mattituck Creek,0,0,0,0,0,0,0.1355,,,https://echo.epa.gov/detailed-facility-report?fid=NY0020079&sys=ICP
2016,ICIS,NYR00F824,1.10069E+11,SCHLAGE LOCK COMPANY LLC,BRONX,BRONX,NY,Non-Major,40.808508,-73.90982,2822,2822,SYN RUBBER (VULCAN ELASTOMERS),20301020105,Westchester Creek-East River,0,0,0,0,0,0,,,,https://echo.epa.gov/detailed-facility-report?fid=NYR00F824&sys=ICP
2016,ICIS,MAR053406,1.10024E+11,SOUTHBRIDGE RECYCLING & DISPOSAL PARK,SOUTHBRIDGE,WORCESTER,MA,Non-Major,42.10516,-72.03195,,,,11000010103,McKinstry Brook-Quinebaug River,0,0,0,0,0,0,,,,https://echo.epa.gov/detailed-facility-report?fid=MAR053406&sys=ICP
2016,ICIS,MAR053646,1.10067E+11,"GRANBY QUARRY, SAND AND GRAVEL PROCESSING FACILITY",CHICOPEE,HAMPSHIRE,MA,Non-Major,42.163622,-72.619374,1442,1442,CONSTRUCTION SAND AND GRAVEL,10802040402,Outlet Chicopee River,0,0,0,0,0.3625,0.425,,,,https://echo.epa.gov/detailed-facility-report?fid=MAR053646&sys=ICP
2016,ICIS,MA0040312,1.10001E+11,PITTSFIELD SAND & GRAVEL,PITTSFIELD,BERKSHIRE ,MA,Non-Major,42.45462,-73.21171,1442,1442,CONSTRUCTION SAND AND GRAVEL,11000050103,East Branch Housatonic River,0,0,0,0,0,0,0,,,https://echo.epa.gov/detailed-facility-report?fid=MA0040312&sys=ICP
2016,ICIS,MAR053637,1.1E+11,VALLEY PLATING INCORPORATED,SPRINGFIELD,HAMPDEN,MA,Non-Major,42.12173,-72.57086,3471,3471,PLATING AND POLISHING,10802010702,Stony Brook-Connecticut River,0,0,0,0,0.149666667,0.18,,,,https://echo.epa.gov/detailed-facility-report?fid=MAR053637&sys=ICP
2016,ICIS,MAR05J00A,1.1007E+11,NORTHEAST PAVING LENOXDALE PLANT,LEE,,MA,Non-Major,42.33256,-73.24387,2951,2951,PAVING MIXTURES AND BLOCKS,11000050104,Sackett Brook-Housatonic River,0,0,0,0,0,0,,,,https://echo.epa.gov/detailed-facility-report?fid=MAR05J00A&sys=ICP
2016,ICIS,MAR053979,1.10056E+11,MEEHAN CONSTRUCTION CO INC,WESTHAMPTON,PIONEER VALLEY,MA,Non-Major,42.3149,-72.768524,1442,1442,CONSTRUCTION SAND AND GRAVEL,10802010607,North Branch Manhan River,0,0,0,0,0,0,,,,https://echo.epa.gov/detailed-facility-report?fid=MAR053979&sys=ICP
2016,ICIS,NYR00E884,1.10042E+11,DOVER MINE,DOVER PLAINS,DUTCHESS,NY,Non-Major,41.691,-73.582,1442,1442,CONSTRUCTION SAND AND GRAVEL,11000050505,Swamp River,0,0,0,0,0,0,,,,https://echo.epa.gov/detailed-facility-report?fid=NYR00E884&sys=ICP
2016,ICIS,MAR054027,1.1007E+11,"R.J. MCDONALD, INC.",HARDWICK,ESSEX,MA,Non-Major,42.35796,-72.14252,1442,1442,CONSTRUCTION SAND AND GRAVEL,10802040205,Winimusset Brook-Ware River,0,0,0,0,0,0,,,,https://echo.epa.gov/detailed-facility-report?fid=MAR054027&sys=ICP
2016,ICIS,CT0026212,1.10011E+11,IBM CORPORATION,SOUTHBURY,NEW HAVEN,CT,Non-Major,41.469707,-73.213669,7371,7371,CUSTOM COMPUTER PROG SERVICES,11000050903,Pomperaug River,0,0,0,0,0,0,0,,,https://echo.epa.gov/detailed-facility-report?fid=CT0026212&sys=ICP
2016,ICIS,NYR00F751,1.10008E+11,RIDGECREST FARMS MINE,HUNTINGTON,SUFFOLK,NY,Non-Major,40.87999,-73.425248,1442,1442,CONSTRUCTION SAND AND GRAVEL,20302010203,Huntington Harbor-Lloyd Harbor,0,0,0,0,0,0,,,,https://echo.epa.gov/detailed-facility-report?fid=NYR00F751&sys=ICP
2016,ICIS,CT0030601,1.10002E+11,"SUZIO ASPHALT CO INC, L",MERIDEN,NEW HAVEN,CT,Non-Major,41.55612,-72.75622,2951,2951,PAVING MIXTURES AND BLOCKS,11000040103,Headwaters Quinnipiac River,0,0,0,0,3.875,6.2,,,,https://echo.epa.gov/detailed-facility-report?fid=CT0030601&sys=ICP
2016,ICIS,MAR05J009,1.1007E+11,NORTHEAST PAVING NORTHFIELD PLANT,NORTHFIELD,,MA,Non-Major,42.69299,-72.48533,,,,10802010501,Pauchaug Brook-Connecticut River,0,0,0,0,0,0,,,,https://echo.epa.gov/detailed-facility-report?fid=MAR05J009&sys=ICP
2016,ICIS,CT0100854,1.10001E+11,RIDGEFIELD WATER POLLUTION CONTROL FACILITY,RIDGEFIELD,FAIRFIELD,CT,Major,41.290159,-73.490438,4952,4952,SEWERAGE SYSTEMS,11000060202,Norwalk River-Frontal Norwalk Harbor,0,0,0,0,0,0,0.704333333,,,https://echo.epa.gov/detailed-facility-report?fid=CT0100854&sys=ICP
2016,ICIS,MAR053642,1.1E+11,LS STARRETT PRECISION TOOLS,ATHOL,WORCESTER,MA,Non-Major,42.595325,-72.226707,3423,3423,"HAND AND EDGE TOOLS, NEC",10802020204,Beaver Brook-Millers River,0,0,0,0,0.450714286,0.68,,,,https://echo.epa.gov/detailed-facility-report?fid=MAR053642&sys=ICP
2016,ICIS,MAR053644,1.10023E+11,FARMLAND FOODS CARANDO DIVISION,SPRINGFIELD,HAMPDEN,MA,Non-Major,42.145264,-72.536834,2013,2013,SAUSAGES & PREPARED MEAT PROD,10802040402,Outlet Chicopee River,0,0,0,0,0,0,,,,https://echo.epa.gov/detailed-facility-report?fid=MAR053644&sys=ICP
2016,ICIS,VT0100013,1.10011E+11,BELLOWS FALLS WASTE WATER TREATMENT FACILITY,BELLOWS FALLS,WINDHAM,VT,Major,43.129514,-72.443236,,,,10801070501,Great Brook-Connecticut River,0,0,0,0,0,0,0.389958333,,,https://echo.epa.gov/detailed-facility-report?fid=VT0100013&sys=ICP
2016,ICIS,CT0027201,1.10009E+11,DEPT. OF TRANSPORTATION,GREENWICH,FAIRFIELD,CT,Non-Major,41.014357,-73.638416,4212,4212,LOCAL TRUCKING WITHOUT STORAGE,11000060405,Blind Brook-Horseneck Brook,0,0,0,0,3.09,3.09,,,,https://echo.epa.gov/detailed-facility-report?fid=CT0027201&sys=ICP
2016,ICIS,MAR05J027,1.10071E+11,SLUDGE ONLY LANDFILL,GARDNER,,MA,Non-Major,42.585,-72.0283,,,,10802020201,Otter River,0,0,0,0,0,0,,,,https://echo.epa.gov/detailed-facility-report?fid=MAR05J027&sys=ICP
2016,ICIS,MAR053587,1.1E+11,WESTFIELD ELECTROPLATING,WESTFIELD,HAMPDEN,MA,Non-Major,42.13126,-72.74491,3471,3471,PLATING AND POLISHING,10802060301,Moose Meadow Brook-Westfield River,0,0,0,0,94.25444444,764,,,,https://echo.epa.gov/detailed-facility-report?fid=MAR053587&sys=ICP
2016,ICIS,NYR00D814,1.10018E+11,H.O. PENN MACHINERY CO,BRONX,BRONX,NY,Non-Major,40.819,-73.837,5082,5082,CONST & MINING MACHINE & EQUIP,20301020105,Westchester Creek-East River,0,0,0,0,0.625,1,,,,https://echo.epa.gov/detailed-facility-report?fid=NYR00D814&sys=ICP
2016,ICIS,MAR053188,1.1E+11,HYDE TOOLS,SOUTHBRIDGE,WORCESTER,MA,Non-Major,42.06861,-72.03782,3423,3423,"HAND AND EDGE TOOLS, NEC",11000010104,Cady Brook-Quinebaug River,0,0,0,0,0.164666667,0.24,,,,https://echo.epa.gov/detailed-facility-report?fid=MAR053188&sys=ICP
2016,ICIS,CT0030465,1.10031E+11,HAYNES MATERIALS COMPANY,DEEP RIVER,MIDDLESEX,CT,Non-Major,41.364706,-72.465156,1411,1411,DIMENSION STONE,10802050901,Deep River-Connecticut River,0,0,0,0,0,0,,,,https://echo.epa.gov/detailed-facility-report?fid=CT0030465&sys=ICP
2016,ICIS,MAR053544,1.10018E+11,OCTOBER CO CHEMETAL DIVISION,EASTHAMPTON,HAMPSHIRE,MA,Non-Major,42.286131,-72.656148,3446,3446,ARCHITECTURAL METAL WORK,10802010609,Lower Manhan River,0,0,0,0,0,0,,,,https://echo.epa.gov/detailed-facility-report?fid=MAR053544&sys=ICP
2016,ICIS,MAR053502,1.10007E+11,LANE CONSTRUCTION,LEE,BERKSHIRE,MA,Non-Major,42.334931,-73.242121,2951,2951,PAVING MIXTURES AND BLOCKS,11000050104,Sackett Brook-Housatonic River,0,0,0,0,0,0,,,,https://echo.epa.gov/detailed-facility-report?fid=MAR053502&sys=ICP
2016,ICIS,MAR053413,1.1E+11,POLY METAL FINISHING INC,SPRINGFIELD,HAMPDEN,MA,Non-Major,42.097207,-72.561166,3471,3471,PLATING AND POLISHING,10802050101,Mill River,0,0,0,0,0.56375,1.4,,,,https://echo.epa.gov/detailed-facility-report?fid=MAR053413&sys=ICP
2016,ICIS,MAR053641,1.10067E+11,BONDI ISLAND SANITARY LANDFILL,AGAWAM,HAMPDEN,MA,Non-Major,42.092143,-72.59052,,,,10802010702,Stony Brook-Connecticut River,0,0,0,0,0,0,,,,https://echo.epa.gov/detailed-facility-report?fid=MAR053641&sys=ICP
2016,ICIS,MAR053716,1.10003E+11,HAYDEN CORP,WEST SPRINGFIELD,HAMPDEN,MA,Non-Major,42.0992,-72.6254,3411,3411,METAL CANS,10802060305,Powerdmill Brook-Westfield River,0,0,0,0,0.485,1.2,,,,https://echo.epa.gov/detailed-facility-report?fid=MAR053716&sys=ICP
2016,ICIS,NHR053350,1.10001E+11,CANAM STEEL CORP,CLAREMONT,SULLIVAN,NH,Non-Major,43.343422,-72.3877,3441,3441,FABRICATED STRUCTURAL METAL,10801060702,Spencer Brook-Connecticut River,0,0,0,0,0,0,,,,https://echo.epa.gov/detailed-facility-report?fid=NHR053350&sys=ICP
2016,ICIS,NY0026999,1.10001E+11,VILLAGE OF GREAT NECK STP,GREAT NECK,NASSAU,NY,Major,40.797722,-73.712139,4952,4952,SEWERAGE SYSTEMS,20302010102,Mitchells Creek-Manhassett Bay,0,0,0,0,6.875833333,10.755,,,,https://echo.epa.gov/detailed-facility-report?fid=NY0026999&sys=ICP
2016,ICIS,MA0005339,1.10001E+11,HOLYOKE WATER POWER MOUNT TOM STATION,HOLYOKE,HAMPDEN,MA,Non-Major,42.2806,-72.6054,4911,4911,ELECTRICAL SERVICES,10802010610,Dry Brook-Connecticut River,0,0,0,0,0,0,0.006125,,,https://echo.epa.gov/detailed-facility-report?fid=MA0005339&sys=ICP
2016,ICIS,MAR054041,1.1007E+11,"BILL WILLARD, INCORPORATED",FLORENCE,HAMPSHIRE,MA,Non-Major,42.30859,-72.71306,1442,1442,CONSTRUCTION SAND AND GRAVEL,10802010609,Lower Manhan River,0,0,0,0,0,0,,,,https://echo.epa.gov/detailed-facility-report?fid=MAR054041&sys=ICP
2016,ICIS,NY0023311,1.10002E+11,SCSD#6 - KINGS PARK STP,KINGS PARK,SUFFOLK,NY,Major,40.895719,-73.231024,4952,4952,SEWERAGE SYSTEMS,20302010302,Nissequogue River,0,0,0,0,1.758333333,5.4,,,,https://echo.epa.gov/detailed-facility-report?fid=NY0023311&sys=ICP
2016,ICIS,MA0032573,1.10009E+11,NORTHFIELD MOUNT HERMON SCHOOL WASTEWATER TREATMENT PLANT,GILL,FRANKLIN,MA,Non-Major,42.63016,-72.51697,4952,4952,SEWERAGE SYSTEMS,10802010503,Dry Brook-Connecticut River,0,0,0,0,17.725,19.3,0.050416667,,,https://echo.epa.gov/detailed-facility-report?fid=MA0032573&sys=ICP
2016,ICIS,MAR053636,1.1E+11,STORMS FORGE INCORPORATED,SPRINGFIELD,HAMPDEN,MA,Non-Major,42.13927,-72.53861,3462,3462,IRON AND STEEL FORGINGS,10802040402,Outlet Chicopee River,0,0,0,0,1.076625,3.8,,,,https://echo.epa.gov/detailed-facility-report?fid=MAR053636&sys=ICP
2016,ICIS,MAR053229,1.10065E+11,"BARKER STEEL LLC, A HARRIS REBAR COMPANY",SOUTH DEERFIELD,FRANKLIN,MA,Non-Major,42.47106,-72.61255,3441,3441,FABRICATED STRUCTURAL METAL,10802010604,West Brook-Mill River,0,0,0,0,0,0,,,,https://echo.epa.gov/detailed-facility-report?fid=MAR053229&sys=ICP
2016,ICIS,MAR05J00W,1.1E+11,SMITH & WESSON,SPRINGFIELD,HAMPDEN,MA,Non-Major,42.13722,-72.54706,3471,3471,PLATING AND POLISHING,10802040402,Outlet Chicopee River,0,0,0,0,0,0,,,,https://echo.epa.gov/detailed-facility-report?fid=MAR05J00W&sys=ICP
2016,ICIS,MA0001147,1.1E+11,SOLUTIA CHEMICAL MANUFACTURING PLANT,SPRINGFIELD,HAMPDEN,MA,Non-Major,42.154981,-72.526419,2821,2821,PLSTC MAT./SYN RESINS/NV ELAST,10802040402,Outlet Chicopee River,0,0,0,0,0.062954248,0.312941177,0.154030882,,,https://echo.epa.gov/detailed-facility-report?fid=MA0001147&sys=ICP
2016,ICIS,NHR053111,1.10065E+11,LEBANON REGIONAL SOLID WASTE FACILITY,LEBANON,GRAFTON,NH,Non-Major,43.637946,-72.231288,,,,10801060106,Mascoma River,0,0,0,0,0,0,,,,https://echo.epa.gov/detailed-facility-report?fid=NHR053111&sys=ICP
2016,ICIS,CT0030678,1.10063E+11,HAYNES MATERIALS COMPANY,NAUGATUCK,NEW HAVEN,CT,Non-Major,41.46777,-73.02014,,,,11000051207,Bladens River-Naugatuck River,0,0,0,0,0,0,,,,https://echo.epa.gov/detailed-facility-report?fid=CT0030678&sys=ICP
2016,ICIS,VT0101214,1.10011E+11,COLD BROOK FIRE DISTRICT NO. 1,WILMINGTON,WINDHAM,VT,Non-Major,42.89781,-72.85709,,,,10802030103,North Branch Deerfield River,0,0,0,0,0,0,0,,,https://echo.epa.gov/detailed-facility-report?fid=VT0101214&sys=ICP
2016,ICIS,NHR053034,1.10001E+11,CANAM STEEL CORP,CLAREMONT,SULLIVAN,NH,Non-Major,43.343422,-72.3877,3441,3441,FABRICATED STRUCTURAL METAL,10801060702,Spencer Brook-Connecticut River,0,0,0,0,0,0,,,,https://echo.epa.gov/detailed-facility-report?fid=NHR053034&sys=ICP
2016,ICIS,MAR053158,1.1E+11,JAMES AUSTIN (ELITE CHEMICAL),LUDLOW,HAMPDEN,MA,Non-Major,42.165068,-72.491318,2842,2842,"SPECIALTY CLEANING, POLISHING",10802040402,Outlet Chicopee River,0,0,0,0,0.135,0.17,,,,https://echo.epa.gov/detailed-facility-report?fid=MAR053158&sys=ICP
2016,ICIS,NH0021423,1.1001E+11,PINETREE POWER,BETHLEHEM,GRAFTON,NH,Non-Major,44.328297,-71.690298,4911,4911,ELECTRICAL SERVICES,10801030403,Baker Brook-Ammonoosuc River,0,0,0,0,0,0,0.002539375,,,https://echo.epa.gov/detailed-facility-report?fid=NH0021423&sys=ICP
2016,ICIS,MAR053525,1.1E+11,TURF CARE SUPPLY CORP,HATFIELD,HAMPSHIRE,MA,Non-Major,42.368349,-72.632292,2875,2875,"FERTILIZERS, MIXING ONLY",10802010604,West Brook-Mill River,0,0,0,0,1.25,3.1,,,,https://echo.epa.gov/detailed-facility-report?fid=MAR053525&sys=ICP
2016,ICIS,NYR00C613,1.10033E+11,J & J LOG AND LUMBER CORP,DOVER PLAINS,DUTCHESS,NY,Non-Major,41.686,-73.565,2411,2411,LOGGING CAMPS/LOGGING CONTRACT,11000050506,Tenmile River,0,0,0,0,1.165,1.59,,,,https://echo.epa.gov/detailed-facility-report?fid=NYR00C613&sys=ICP
2016,ICIS,MA0102156,1.10009E+11,TEMPLETON DEVELOPMENT CENTER,TEMPLETON (BALDWINVILLE),WORCESTER,MA,Non-Major,42.591474,-72.116216,8211,8211,ELEMENTARY & SECONDARY SCHOOLS,10802020204,Beaver Brook-Millers River,0,0,0,0,0,0,,,,https://echo.epa.gov/detailed-facility-report?fid=MA0102156&sys=ICP
2016,ICIS,NYR00F586,1.10019E+11,HARLEM VALLEY SAND & GRAVEL MINE,WASSAIC,DUTCHESS,NY,Non-Major,41.78882,-73.53242,1442,1442,CONSTRUCTION SAND AND GRAVEL,11000050503,Outlet Webatuck Creek,0,0,0,0,0,0,,,,https://echo.epa.gov/detailed-facility-report?fid=NYR00F586&sys=ICP
2016,ICIS,MAR053851,1.10068E+11,CONTECH ENGINEERED SOLUTIONS,PALMER,HAMPDEN,MA,Non-Major,42.14949,-72.31393,3444,3444,SHEET METAL WORK,10802040307,Lower Quaboag River,0,0,0,0,0.0785,0.1,,,,https://echo.epa.gov/detailed-facility-report?fid=MAR053851&sys=ICP
2016,ICIS,NYR00F294,1.10055E+11,WASSAIC PIT,AMENIA,DUTCHESS,NY,Non-Major,41.882,-73.561,1442,1442,CONSTRUCTION SAND AND GRAVEL,11000050504,Wassaic Creek,0,0,0,0,0,0,,,,https://echo.epa.gov/detailed-facility-report?fid=NYR00F294&sys=ICP
2016,ICIS,NYR00E083,1.10007E+11,AMENIA SAND & GRAVEL,AMENIA,DUTCHESS,NY,Non-Major,41.84088,-73.50957,2951,2951,PAVING MIXTURES AND BLOCKS,11000050503,Outlet Webatuck Creek,0,0,0,0,0.05,0.05,,,,https://echo.epa.gov/detailed-facility-report?fid=NYR00E083&sys=ICP
2016,ICIS,MAR053201,1.10008E+11,EASTERN ETCHING & MANUFACTURING,CHICOPEE,HAMPDEN,MA,Non-Major,42.14963,-72.60421,3479,3479,METAL COATING & ALLIED SERVIC,10802040402,Outlet Chicopee River,0,0,0,0,0.216666667,0.22,,,,https://echo.epa.gov/detailed-facility-report?fid=MAR053201&sys=ICP
2016,ICIS,MAR05J00C,1.10071E+11,"GEORGE D. JUDD & SONS, LLC",GOSHEN,,MA,Non-Major,42.43678,-72.84583,1442,1442,CONSTRUCTION SAND AND GRAVEL,10802060105,Little River-Westfield River,0,0,0,0,0,0,,,,https://echo.epa.gov/detailed-facility-report?fid=MAR05J00C&sys=ICP
2016,ICIS,CT0003107,1.10031E+11,NRG DEVON STATION POWER PLANT,MILFORD,NEW HAVEN,CT,Major,41.209171,-73.108209,4911,4911,ELECTRICAL SERVICES,11000051302,Housatonic River-Frontal Long Island Sound,0,0,0,0,0,0,0,,,https://echo.epa.gov/detailed-facility-report?fid=CT0003107&sys=ICP
2016,ICIS,NHR053131,1.10004E+11,NCES LANDFILL,BETHLEHEM,GRAFTON,NH,Non-Major,44.261426,-71.62739,,,,10801030403,Baker Brook-Ammonoosuc River,0,0,0,0,0,0,,,,https://echo.epa.gov/detailed-facility-report?fid=NHR053131&sys=ICP
