Year,Data Source,NPDES Permit Number,FRS ID,Facility Name,City,County,State,Major/Non-Major Status,Facility Latitude,Facility Longitude,SIC Code,4-Digit SIC Code,SIC Description,HUC 12 Code,Watershed Name,Total Pounds (lb/yr),Load Over Limit,Total TWPE (lb-eq/yr),TWPE Over Limit,Avg Concentration (mg/L),Max Concentration (mg/L),Average Flow (MGD),Links to TRI ID,Contains Potential Outliers?,Link to DFR
2018,ICIS,NY0026158,1.10001E+11,NYCDEP - BOWERY BAY WPCP,ASTORIA,QUEENS,NY,Major,40.778405,-73.89459,4952,4952,SEWERAGE SYSTEMS,20301020105,Westchester Creek-East River,3842300,0,0,0,12.17577315,15.55342186,103.75,,,https://echo.epa.gov/detailed-facility-report?fid=NY0026158&sys=ICP
2018,ICIS,NY0026191,1.10013E+11,HUNTS POINT WATER POLLUTION CONTROL PLANT,BRONX,BRONX,NY,Major,40.803694,-73.885083,4952,4952,SEWERAGE SYSTEMS,20301020105,Westchester Creek-East River,3181500,0,0,0,7.547409838,13.97887792,139.3333333,,,https://echo.epa.gov/detailed-facility-report?fid=NY0026191&sys=ICP
2018,ICIS,NY0026239,1.10002E+11,TALLMAN ISLAND WASTEWATER TREATMENT PLANT,COLLEGE POINT,QUEENS,NY,Major,40.795556,-73.839333,4952,4952,SEWERAGE SYSTEMS,20301020105,Westchester Creek-East River,1464500,0,0,0,8.212059919,10.74238894,58.75,,,https://echo.epa.gov/detailed-facility-report?fid=NY0026239&sys=ICP
2018,ICIS,MA0101508,1.10001E+11,CHICOPEE WATER POLLUTION CONTROL,CHICOPEE,HAMPDEN,MA,Major,42.15376,-72.62166,4952,4952,SEWERAGE SYSTEMS,10802040402,Outlet Chicopee River,691518.25,0,0,0,386.3872393,1420.450191,4.207592678,,,https://echo.epa.gov/detailed-facility-report?fid=MA0101508&sys=ICP
2018,ICIS,MA0101613,1.10008E+11,SPRINGFIELD REGIONAL WASTEWATER TREATMENT PLANT,AGAWAM,HAMPDEN,MA,Major,42.087793,-72.588998,4952,4952,SEWERAGE SYSTEMS,10802010702,Stony Brook-Connecticut River,670410.3581,0,0,0,2.667583333,4.475,37.85833333,,,https://echo.epa.gov/detailed-facility-report?fid=MA0101613&sys=ICP
2018,ICIS,CT0100366,1.10002E+11,GREATER NEW HAVEN WPCA,NEW HAVEN,NEW HAVEN,CT,Major,41.282563,-72.902505,4952,4952,SEWERAGE SYSTEMS,11000040208,Indian River-Frontal Long Island Sound,599256.1099,0,0,0,6.579166667,15.7,30.18333333,,,https://echo.epa.gov/detailed-facility-report?fid=CT0100366&sys=ICP
2018,ICIS,MA0101681,1.10007E+11,PITTSFIELD WASTEWATER TREATMENT FACILITY,PITTSFIELD,BERKSHIRE,MA,Major,42.407678,-73.24276,4952,4952,SEWERAGE SYSTEMS,11000050104,Sackett Brook-Housatonic River,481584,0,0,0,12.61896898,16.44411845,12.825,,,https://echo.epa.gov/detailed-facility-report?fid=MA0101681&sys=ICP
2018,ICIS,NY0026786,1.10001E+11,PORT CHESTER  WASTEWATER TREATMENT PLANT,PORT CHESTER,WESTCHESTER,NY,Major,40.992028,-73.658556,4952,4952,SEWERAGE SYSTEMS,11000060403,Byram River,271063,0,0,0,0,0,4.844109589,,,https://echo.epa.gov/detailed-facility-report?fid=NY0026786&sys=ICP
2018,ICIS,CT0101249,1.10007E+11,NORWALK WASTEWATER TREATMENT PLANT,NORWALK,FAIRFIELD,CT,Major,41.102216,-73.412604,4952,4952,SEWERAGE SYSTEMS,11000060202,Norwalk River-Frontal Norwalk Harbor,246600,0,0,0,6.10213122,7.529906715,13.55,,,https://echo.epa.gov/detailed-facility-report?fid=CT0101249&sys=ICP
2018,ICIS,MA0101478,1.10001E+11,EASTHAMPTON WASTEWATER TREATMENT PLANT,EASTHAMPTON,HAMPSHIRE,MA,Major,42.277698,-72.648897,4952,4952,SEWERAGE SYSTEMS,10802010609,Lower Manhan River,233393.8873,0,0,0,18.86153656,266.9018726,1.474722222,,,https://echo.epa.gov/detailed-facility-report?fid=MA0101478&sys=ICP
2018,ICIS,CT0100617,1.10001E+11,WALLINGFORD WATER POLLUTION CONTROL FACILITY,WALLINGFORD,NEW HAVEN,CT,Major,41.446099,-72.837583,4952,4952,SEWERAGE SYSTEMS,11000040105,Outlet Quinnipiac River,230542.1011,0,0,0,11.90416667,15.25,6.173333333,,,https://echo.epa.gov/detailed-facility-report?fid=CT0100617&sys=ICP
2018,ICIS,MA0101630,1.10001E+11,HOLYOKE WATER POLLUTION CONTROL FACILITY,HOLYOKE,HAMPDEN,MA,Major,42.191041,-72.612574,4952,4952,SEWERAGE SYSTEMS,10802010702,Stony Brook-Connecticut River,216515.26,0,0,0,14.06036682,18.26266312,3.895375384,,,https://echo.epa.gov/detailed-facility-report?fid=MA0101630&sys=ICP
2018,ICIS,CT0003760,1.10001E+11,PSEG FOSSIL LLC/ POWER CT LLC,NEW HAVEN,NEW HAVEN,CT,Major,41.283986,-72.904546,4911,4911,ELECTRICAL SERVICES,11000040208,Indian River-Frontal Long Island Sound,183313.2333,0,0,0,0.275,1.375,24.719543,,,https://echo.epa.gov/detailed-facility-report?fid=CT0003760&sys=ICP
2018,ICIS,MA0101214,1.10024E+11,GREENFIELD WATER POLLUTION CONTROL FACILITY,GREENFIELD,FRANKLIN,MA,Major,42.571367,-72.598121,4952,4952,SEWERAGE SYSTEMS,10802030402,Lower Green River,175958.5897,0,0,0,16.35833333,23.3,3.612133333,,,https://echo.epa.gov/detailed-facility-report?fid=MA0101214&sys=ICP
2018,ICIS,CT0100382,1.10002E+11,PIACENTI WASTEWATER TREATMENT PLANT,NEW LONDON,NEW LONDON,CT,Major,41.34193,-72.096447,4952,4952,SEWERAGE SYSTEMS,11000030203,Thames River-Frontal New London Harbor,165569.9321,0,0,0,7.541666667,11,7.3175,,,https://echo.epa.gov/detailed-facility-report?fid=CT0100382&sys=ICP
2018,ICIS,MA0101818,1.10002E+11,NORTHAMPTON WASTEWATER TREATMENT PLANT,NORTHAMPTON,HAMPSHIRE,MA,Major,42.313056,-72.623333,4952,4952,SEWERAGE SYSTEMS,10802010610,Dry Brook-Connecticut River,165396.7,0,0,0,14.04572583,30.44670092,4.085,,,https://echo.epa.gov/detailed-facility-report?fid=MA0101818&sys=ICP
2018,ICIS,VT0100064,1.10005E+11,BRATTLEBORO WASTEWATER TREATMENT FACILITY,BRATTLEBORO,WINDHAM,VT,Major,42.841045,-72.549205,,,,10801070507,Vernon Dam-Connecticut River,153681.9881,0,0,0,36.95833333,52.2,1.3825,,,https://echo.epa.gov/detailed-facility-report?fid=VT0100064&sys=ICP
2018,ICIS,MA0100994,1.10044E+11,GARDNER WWTF,EAST TEMPLETON,WORCESTER,MA,Major,42.5698,-72.0201,4952,4952,SEWERAGE SYSTEMS,10802020201,Otter River,147622.1,0,0,0,14.39594148,17.96933956,3.36,,,https://echo.epa.gov/detailed-facility-report?fid=MA0100994&sys=ICP
2018,ICIS,MA0100218,1.1001E+11,AMHERST WASTEWATER TREATMENT PLANT,HADLEY,HAMPSHIRE,MA,Major,42.387696,-72.537382,4952,4952,SEWERAGE SYSTEMS,10802010603,Doolittle Brook-Mill River,137466.1,0,0,0,9.591238529,14.82214867,4.553666667,,,https://echo.epa.gov/detailed-facility-report?fid=MA0100218&sys=ICP
2018,ICIS,CT0100625,1.10002E+11,WATERBURY WATER POLLUTION CONTROL FACILITY,WATERBURY,NEW HAVEN,CT,Major,41.52161,-73.04427,4952,4952,SEWERAGE SYSTEMS,11000051205,Long Meadow Pond Brook-Naugatuck River,132541.6558,3042.590418,0,3042.590418,1.67,5.14,25.51416667,,,https://echo.epa.gov/detailed-facility-report?fid=CT0100625&sys=ICP
2018,ICIS,NH0100099,1.10002E+11,HANOVER WASTEWATER TREATMENT FACILITY,HANOVER,GRAFTON,NH,Non-Major,43.69523,-72.297549,,,,10801040401,Mink Brook,131651,0,0,0,31.80752416,40.627235,1.349916667,,,https://echo.epa.gov/detailed-facility-report?fid=NH0100099&sys=ICP
2018,ICIS,CT0101681,1.10007E+11,LEDYARD WATER POLLUTION CONTROL FACILITY,LEDYARD,NEW LONDON,CT,Non-Major,41.43364,-71.96512,4952,4952,SEWERAGE SYSTEMS,11000030301,Mystic River-Frontal Fishers Island Sound,127287.6974,0,0,0,5.908333333,8.1,13.97758333,,Y,https://echo.epa.gov/detailed-facility-report?fid=CT0101681&sys=ICP
2018,ICIS,MA0100439,1.10024E+11,WEBSTER WASTWATER TREATMENT FACILITY,WEBSTER,WORCESTER,MA,Major,42.038576,-71.888022,4952,4952,SEWERAGE SYSTEMS,11000010203,Middle French River,125489.674,0,0,0,4.489444444,7.466666667,3.081333333,,,https://echo.epa.gov/detailed-facility-report?fid=MA0100439&sys=ICP
2018,ICIS,CT0101010,1.10001E+11,EASTSIDE WATER POLLUTION CONTROL FACILITY,BRIDGEPORT,FAIRFIELD,CT,Major,41.172214,-73.174261,4952,4952,SEWERAGE SYSTEMS,11000060303,Rooster River-Frontal Long Island Sound,123068.6503,0,0,0,6.3975,11,6.218333333,,,https://echo.epa.gov/detailed-facility-report?fid=CT0101010&sys=ICP
2018,ICIS,MA0100455,1.10001E+11,SOUTH HADLEY WASTEWATER TREATMENT FACILITY,CHICOPEE,HAMPDEN,MA,Major,42.205371,-72.58814,4952,4952,SEWERAGE SYSTEMS,10802010702,Stony Brook-Connecticut River,114990.3216,0,0,0,12.575,21,2.983333333,,,https://echo.epa.gov/detailed-facility-report?fid=MA0100455&sys=ICP
2018,ICIS,NY0026701,1.10019E+11,MAMARONECK (V) SANITARY SD,MAMARONECK,WESTCHESTER,NY,Major,40.946833,-73.733694,4952,4952,SEWERAGE SYSTEMS,20301020202,Sheldrake River-Mamaroneck River,103291,0,0,0,0,0,16.08767123,,,https://echo.epa.gov/detailed-facility-report?fid=NY0026701&sys=ICP
2018,ICIS,NY0026719,1.10001E+11,BLIND BROOK SD WWTP,RYE,WESTCHESTER,NY,Major,40.96475,-73.690778,4952,4952,SEWERAGE SYSTEMS,11000060405,Blind Brook-Horseneck Brook,95625,0,0,0,8.663909273,18.01278269,3.675,,,https://echo.epa.gov/detailed-facility-report?fid=NY0026719&sys=ICP
2018,ICIS,CT0000086,1.10051E+11,ALLNEX USA RESINS AND ADDITIVES MANUFACTURING FACILITY,WALLINGFORD,NEW HAVEN,CT,Major,41.435,-72.836389,2821,2821,PLSTC MAT./SYN RESINS/NV ELAST,11000040105,Outlet Quinnipiac River,82786.85138,0,0,0,0.54125,2.58,0.131577083,,,https://echo.epa.gov/detailed-facility-report?fid=CT0000086&sys=ICP
2018,ICIS,MA0101800,1.10024E+11,WESTFIELD WASTEWATER TREATMENT PLANT,WESTFIELD,HAMPDEN,MA,Non-Major,42.125314,-72.730211,4952,4952,SEWERAGE SYSTEMS,10802060301,Moose Meadow Brook-Westfield River,76935.8,0,0,0,7.817115465,12.06177466,3.183333333,,,https://echo.epa.gov/detailed-facility-report?fid=MA0101800&sys=ICP
2018,ICIS,NY0026778,1.10002E+11,WATER POLL CONTR DIST,PORT WASHINGTON,NASSAU,NY,Major,40.83944,-73.69721,4952,4952,SEWERAGE SYSTEMS,20302010102,Mitchells Creek-Manhassett Bay,73498,0,0,0,8.843838222,27.04484952,2.666666667,,,https://echo.epa.gov/detailed-facility-report?fid=NY0026778&sys=ICP
2018,ICIS,NY0026697,1.10019E+11,NEW ROCHELLE STP,NEW ROCHELLE,WESTCHESTER,NY,Major,40.913,-73.769361,4952,4952,SEWERAGE SYSTEMS,20301020203,East Creek-Mamaroneck Harbor,72664,0,0,0,0,0,0.000598958,,,https://echo.epa.gov/detailed-facility-report?fid=NY0026697&sys=ICP
2018,ICIS,CT0003875,1.10002E+11,CRRA MID-CONN FACILITY,HARTFORD,HARTFORD,CT,Major,41.748663,-72.650764,4911,4911,ELECTRICAL SERVICES,10802050505,Goff Brook-Connecticut River,72160.73937,0,0,0,0.207277778,0.256666667,9.393311833,,,https://echo.epa.gov/detailed-facility-report?fid=CT0003875&sys=ICP
2018,ICIS,VT0100013,1.10011E+11,BELLOWS FALLS WASTE WATER TREATMENT FACILITY,BELLOWS FALLS,WINDHAM,VT,Major,43.129514,-72.443236,,,,10801070501,Great Brook-Connecticut River,65449.81371,0,0,0,45.81666667,123,0.452375,,,https://echo.epa.gov/detailed-facility-report?fid=VT0100013&sys=ICP
2018,ICIS,NH0100366,1.10002E+11,LEBANON WASTEWATER TREATMENT FACILITY,LEBANON,GRAFTON,NH,Major,43.636805,-72.320541,4952,4952,SEWERAGE SYSTEMS,10801060106,Mascoma River,55540,0,0,0,11.33136054,16.04389111,1.555916667,,,https://echo.epa.gov/detailed-facility-report?fid=NH0100366&sys=ICP
2018,ICIS,NY0026620,1.10001E+11,GLEN COVE WASTEWATER TREATMENT FACILITY,GLEN COVE,NASSAU,NY,Major,40.858722,-73.641667,4952,4952,SEWERAGE SYSTEMS,20302010103,Glen Cove Creek-Hempstead Harbor,55329.47671,0,0,0,2.233333333,3.7,2.725,,,https://echo.epa.gov/detailed-facility-report?fid=NY0026620&sys=ICP
2018,ICIS,NH0101257,1.10007E+11,CLAREMONT WASTEWATER TREATMENT FACILITY,CLAREMONT,SULLIVAN,NH,Major,43.38962,-72.379045,4952,4952,SEWERAGE SYSTEMS,10801060407,Sugar River,53156.8,0,0,0,12.02732114,18.46485323,1.528416667,,,https://echo.epa.gov/detailed-facility-report?fid=NH0101257&sys=ICP
2018,ICIS,CT0100641,1.10001E+11,NAUGATUCK WATER POLLUTION CONTROL FACILITY,NAUGATUCK,NEW HAVEN,CT,Major,41.472975,-73.053986,4952,4952,SEWERAGE SYSTEMS,11000051205,Long Meadow Pond Brook-Naugatuck River,52357.9268,0,0,0,2.81,7.51,5.441666667,,,https://echo.epa.gov/detailed-facility-report?fid=CT0100641&sys=ICP
2018,ICIS,VT0100374,1.10002E+11,SPRINGFIELD WASTEWATER TREATMENT FACILITY,SPRINGFIELD,WINDSOR,VT,Major,43.27919,-72.46746,,,,10801060505,Black River,47525.70583,0,0,0,15.26666667,18.47,1.0525,,,https://echo.epa.gov/detailed-facility-report?fid=VT0100374&sys=ICP
2018,ICIS,MA0100901,1.10024E+11,SOUTHBRIDGE WASTEWTER TREATMENT FACILITY,SOUTHBRIDGE,WORCESTER,MA,Major,42.06969,-72.0063,4952,4952,SEWERAGE SYSTEMS,11000010104,Cady Brook-Quinebaug River,47327.54954,0,0,0,8.710833333,11.75,1.79875,,,https://echo.epa.gov/detailed-facility-report?fid=MA0100901&sys=ICP
2018,ICIS,CT0020630,1.10007E+11,MYSTIC MARINELIFE AQUARIUM,MYSTIC,NEW LONDON,CT,Non-Major,41.37171,-71.951156,8412,8412,MUSEUMS AND ART GALLERIES,11000030303,Stony Brook-Frontal Fishers Island Sound,47099.71112,0,0,0,22.37973452,183.397,0.014201561,,,https://echo.epa.gov/detailed-facility-report?fid=CT0020630&sys=ICP
2018,ICIS,NY0026841,1.10007E+11,BELGRAVE WPCP,GREAT NECK,NASSAU,NY,Major,40.778861,-73.7425,4952,4952,SEWERAGE SYSTEMS,20302010101,Alley Creek-Little Neck Bay,46207.60252,0,0,0,3.725222222,6.963333333,1.37,,,https://echo.epa.gov/detailed-facility-report?fid=NY0026841&sys=ICP
2018,ICIS,MA0101168,1.1001E+11,PALMER WATER POLLUTION CONTROL FACILITY,PALMER (THREE RIVERS),HAMPDEN,MA,Major,42.185311,-72.362228,4952,4952,SEWERAGE SYSTEMS,10802040207,Danforth Brook-Ware River,45788.99946,0,0,0,8.1375,11.75,1.883333333,,,https://echo.epa.gov/detailed-facility-report?fid=MA0101168&sys=ICP
2018,ICIS,MA0101524,1.10001E+11,GREAT BARRINGTON WASTEWATER TREATMENT FACILITY,GREAT BARRINGTON,BERKSHIRE,MA,Major,42.18994,-73.35709,4952,4952,SEWERAGE SYSTEMS,11000050204,Ironwork Brook-Housatonic River,45270.36437,0,0,0,4.039011111,6.69,1.315333333,,,https://echo.epa.gov/detailed-facility-report?fid=MA0101524&sys=ICP
2018,ICIS,VT0100579,1.10011E+11,ST JOHNSBURY,ST JOHNSBURY,CALEDONIA,VT,Major,44.410639,-72.016572,,,,10801020403,Water Andric-Passumpsic River,41980.13795,0,0,0,8.808333333,17.6,0.796666667,,,https://echo.epa.gov/detailed-facility-report?fid=VT0100579&sys=ICP
2018,ICIS,MA0000671,1.10002E+11,CRANE WASTEWATER TREATEMENT PLANT,DALTON,BERKSHIRE,MA,Major,42.46776,-73.18482,2621,2621,PAPER MILLS,11000050103,East Branch Housatonic River,39005,0,0,0,4.053250538,6.14072137,3.158333333,,,https://echo.epa.gov/detailed-facility-report?fid=MA0000671&sys=ICP
2018,ICIS,MA0003697,1.10001E+11,BARNHARDT MANUFACTURING,COLRAIN,FRANKLIN,MA,Major,42.655709,-72.714796,2269,2269,"FINISHERS OF TEXTILES, NEC",10802030302,Taylor Brook-North River,35127.66425,0,0,0,14.33124844,31.7649528,0.333666667,,,https://echo.epa.gov/detailed-facility-report?fid=MA0003697&sys=ICP
2018,ICIS,VT0000248,1.10001E+11,FIBERMARK,BRATTLEBORO,WINDHAM,VT,Major,42.888826,-72.546158,,,,10801070505,Catsbane Brook-Connecticut River,33411.79238,0,0,0,10.65,17.1,1.051666667,,,https://echo.epa.gov/detailed-facility-report?fid=VT0000248&sys=ICP
2018,ICIS,MA0101257,1.10007E+11,ORANGE WASTEWATER TREATMENT PLANT,ORANGE,FRANKLIN,MA,Major,42.59606,-72.33146,4952,4952,SEWERAGE SYSTEMS,10802020205,Mill Brook-Millers River,33242.19718,0,0,0,10.79608041,14.36785714,1.379083333,,,https://echo.epa.gov/detailed-facility-report?fid=MA0101257&sys=ICP
2018,ICIS,NH0100200,1.10007E+11,NEWPORT WASTEWATER TREATMENT FACILITY,NEWPORT,SULLIVAN,NH,Major,43.376645,-72.181957,4952,4952,SEWERAGE SYSTEMS,10801060405,Long Pond Brook-Sugar River,28994.09398,0,0,0,17.3,33,0.57,,,https://echo.epa.gov/detailed-facility-report?fid=NH0100200&sys=ICP
2018,ICIS,MA0100935,1.10009E+11,LENOX CENTER WASTEWATER TREATMENT FACILITY,LENOX,BERKSHIRE,MA,Major,42.34831,-73.24545,4952,4952,SEWERAGE SYSTEMS,11000050104,Sackett Brook-Housatonic River,28521.91943,0,0,0,4.603139394,9.703333333,0.742166667,,,https://echo.epa.gov/detailed-facility-report?fid=MA0100935&sys=ICP
2018,ICIS,MA0100137,1.10001E+11,MONTAGUE WASTEWATER TREATMENT FACILITY,MONTAGUE,FRANKLIN,MA,Major,42.5808,-72.57232,4952,4952,SEWERAGE SYSTEMS,10802010602,Russellville Brook-Connecticut River,28386.7,0,0,0,9.485983332,22.54711366,0.92275,,,https://echo.epa.gov/detailed-facility-report?fid=MA0100137&sys=ICP
2018,ICIS,MA0100889,1.10007E+11,WARE WASTEWATER TREATMENT PLANT,WARE,HAMPSHIRE,MA,Major,42.25194,-72.25514,4952,4952,SEWERAGE SYSTEMS,10802040207,Danforth Brook-Ware River,28330.63254,0,0,0,5.115416667,7.458333333,0.612416667,,,https://echo.epa.gov/detailed-facility-report?fid=MA0100889&sys=ICP
2018,ICIS,MA0110264,1.10007E+11,"AUSTRALIS AQUACULTURE, LLC",MONTAGUE (TURNERS FALLS),FRANKLIN,MA,Non-Major,42.59159,-72.5291,921,921,FISH HATCHERIES AND PRESERVES,10802010503,Dry Brook-Connecticut River,27087.13,0,0,0,80.86679008,109.6670204,0.109166667,,,https://echo.epa.gov/detailed-facility-report?fid=MA0110264&sys=ICP
2018,ICIS,CT0100544,1.1001E+11,MYSTIC WPCF,MYSTIC,NEW LONDON,CT,Non-Major,41.34984,-71.9654,4952,4952,SEWERAGE SYSTEMS,11000030303,Stony Brook-Frontal Fishers Island Sound,26418.23348,0,0,0,13.3175,40,0.678583333,,,https://echo.epa.gov/detailed-facility-report?fid=CT0100544&sys=ICP
2018,ICIS,MA0100919,1.10001E+11,SPENCER WASTEWATER TREATMENT PLANT,SPENCER,WORCESTER,MA,Major,42.231774,-72.013348,4952,4952,SEWERAGE SYSTEMS,10802040301,Sevenmile River,26011.245,0,0,0,20.92378229,74.50493456,0.61,,,https://echo.epa.gov/detailed-facility-report?fid=MA0100919&sys=ICP
2018,ICIS,VT0100919,1.10002E+11,WINDSOR WASTEWATER TREATMENT FACILITY,WINDSOR,WINDSOR,VT,Major,43.47222,-72.38846,,,,10801060305,Hubbard Brook-Connecticut River,25852.19206,0,0,0,34.06666667,86.6,0.254416667,,,https://echo.epa.gov/detailed-facility-report?fid=VT0100919&sys=ICP
2018,ICIS,MA0101141,1.10002E+11,CHARLTON WASTEWATER TREATMENT FACILITY,CHARLTON,WORCESTER,MA,Major,42.141435,-71.995382,4952,4952,SEWERAGE SYSTEMS,11000010104,Cady Brook-Quinebaug River,25673.39285,12.67378787,0,12.67378787,18.13843244,47.50860215,0.235166667,,,https://echo.epa.gov/detailed-facility-report?fid=MA0101141&sys=ICP
2018,ICIS,CT0101001,1.10056E+11,WILLIMANTIC WPCF,WILLIMANTIC,WINDHAM,CT,Major,41.71599,-72.19466,4952,4952,SEWERAGE SYSTEMS,11000020206,Sawmill Brook-Natchaug River,25519.51481,0,0,0,3.43,13.5,2.2375,,,https://echo.epa.gov/detailed-facility-report?fid=CT0101001&sys=ICP
2018,ICIS,NH0100145,1.10007E+11,LANCASTER WASTEWATER TREATMENT FACILITY,LANCASTER,COOS,NH,Major,44.484948,-71.595363,4952,4952,SEWERAGE SYSTEMS,10801010903,Mink Brook-Connecticut River,21690.64,0,0,0,10.57783579,20.66477552,0.775833333,,,https://echo.epa.gov/detailed-facility-report?fid=NH0100145&sys=ICP
2018,ICIS,CT0100579,1.1003E+11,TORRINGTON WATER POLLUTION CONTROL FACILITY,TORRINGTON,LITCHFIELD,CT,Major,41.780542,-73.116477,4952,4952,SEWERAGE SYSTEMS,11000051105,Northfield Brook-Naugatuck River,21180.92559,0,0,0,0.933583333,6.88,6.711666667,,,https://echo.epa.gov/detailed-facility-report?fid=CT0100579&sys=ICP
2018,ICIS,MA0100099,1.1001E+11,HADLEY WASTEWATER TREATMENT PLANT,HADLEY,HAMPSHIRE,MA,Non-Major,42.32859,-72.586487,4952,4952,SEWERAGE SYSTEMS,10802010610,Dry Brook-Connecticut River,20989.81709,0,0,0,5.515090966,11.98994186,0.416666667,,,https://echo.epa.gov/detailed-facility-report?fid=MA0100099&sys=ICP
2018,ICIS,CT0101087,1.10056E+11,STAMFORD WATER POLLUTION CONTROL FACILITY,STAMFORD,FAIRFIELD,CT,Major,41.046247,-73.52996,4952,4952,SEWERAGE SYSTEMS,11000060404,Fivemile River,20093.98287,0,0,0,0.344166667,1.5,17.45833333,,,https://echo.epa.gov/detailed-facility-report?fid=CT0101087&sys=ICP
2018,ICIS,CT0100455,1.10056E+11,PLAINVILLE WPCF,PLAINVILLE,HARTFORD,CT,Major,41.68032,-72.86501,4952,4952,SEWERAGE SYSTEMS,10802070404,Pequabuck River,20011.44,4318.212475,0,4318.212475,3.0775,7.32,2.2895,,,https://echo.epa.gov/detailed-facility-report?fid=CT0100455&sys=ICP
2018,ICIS,MA0101567,1.10001E+11,WARREN WASTEWATER TREATMENT PLANT,WARREN,WORCESTER,MA,Major,42.210084,-72.24737,4952,4952,SEWERAGE SYSTEMS,10802040305,Middle Quaboag River,19899.21,0,0,0,31.67660577,130.2473823,0.227166667,,,https://echo.epa.gov/detailed-facility-report?fid=MA0101567&sys=ICP
2018,ICIS,CT0100935,1.10001E+11,MONTVILLE WATER POLLUTION CONTROL FACILITY,MONTVILLE (UNCASVILLE),NEW LONDON,CT,Major,41.43932,-72.10547,4952,4952,SEWERAGE SYSTEMS,11000030202,Stony Brook,18625.46487,0,0,0,3.396666667,9.02,1.84075,,,https://echo.epa.gov/detailed-facility-report?fid=CT0100935&sys=ICP
2018,ICIS,NY0165891,1.1001E+11,PAWLING JOINT SEWER COMM WWTP,PAWLING,DUTCHESS,NY,Non-Major,41.573667,-73.594194,4952,4952,SEWERAGE SYSTEMS,11000050505,Swamp River,18289.23434,0,0,0,11.71833333,17.18,0.265416667,,,https://echo.epa.gov/detailed-facility-report?fid=NY0165891&sys=ICP
2018,ICIS,MA0103152,1.10007E+11,BARRE WASTEWATER TREATMENT FACILITY,BARRE,WORCESTER,MA,Non-Major,42.37624,-72.12048,4952,4952,SEWERAGE SYSTEMS,10802040205,Winimusset Brook-Ware River,18058.9,0,0,0,14.40675904,27.49618911,0.204583333,,,https://echo.epa.gov/detailed-facility-report?fid=MA0103152&sys=ICP
2018,ICIS,MA0000469,1.10064E+11,SEAMAN PAPER OF MASSACHUSETTS,TEMPLETON,WORCESTER,MA,Major,42.59574,-72.05228,2621,2621,PAPER MILLS,10802020201,Otter River,16753.4,0,0,0,7.238917146,18.4039392,0.777575,,,https://echo.epa.gov/detailed-facility-report?fid=MA0000469&sys=ICP
2018,ICIS,NY0021342,1.10007E+11,HUNTINGTON SEWER DISTRICT STP,HUNTINGTON,SUFFOLK,NY,Major,40.88122,-73.42209,4952,4952,SEWERAGE SYSTEMS,20302010203,Huntington Harbor-Lloyd Harbor,16740.4,0,0,0,2.857347144,5.169972152,1.914758333,,,https://echo.epa.gov/detailed-facility-report?fid=NY0021342&sys=ICP
2018,ICIS,NH0100153,1.10001E+11,LITTLETON WASTEWATER TREATMENT PLANT,LITTLETON,GRAFTON,NH,Major,44.30882,-71.79048,4952,4952,SEWERAGE SYSTEMS,10801030403,Baker Brook-Ammonoosuc River,16580.59047,0,0,0,3.213888889,8.333333333,0.635916667,,,https://echo.epa.gov/detailed-facility-report?fid=NH0100153&sys=ICP
2018,ICIS,VT0101010,1.10002E+11,HARTFORD WASTE WATER TREATMENT FACILITY,HARTFORD,WINDSOR,VT,Major,43.646444,-72.314662,,,,10801060302,Lulls Brook-Connecticut River,16362.1244,0,0,0,7.217875114,13.15727894,0.752,,,https://echo.epa.gov/detailed-facility-report?fid=VT0101010&sys=ICP
2018,ICIS,MA0100005,1.10007E+11,ATHOL WASTEWATER TREATMENT FACILITY,ATHOL,WORCESTER,MA,Major,42.586234,-72.242982,4952,4952,SEWERAGE SYSTEMS,10802020204,Beaver Brook-Millers River,16054.205,0,0,0,4.960637114,14.22760389,1.096416667,,,https://echo.epa.gov/detailed-facility-report?fid=MA0100005&sys=ICP
2018,ICIS,VT0100145,1.10009E+11,LUDLOW WASTEWATER TREATMENT FACILITY,LUDLOW,WINDSOR,VT,Major,43.392349,-72.679281,,,,10801060502,Branch Brook-Black River,15297.46593,0,0,0,11.96083333,17.53,0.416833333,,,https://echo.epa.gov/detailed-facility-report?fid=VT0100145&sys=ICP
2018,ICIS,NY0021822,1.10002E+11,OYSTER BAY WPCP,OYSTER BAY,NASSAU,NY,Major,40.878222,-73.526778,4952,4952,SEWERAGE SYSTEMS,20302010201,Mill Neck Creek-Oyster Bay Harbor,14965,0,0,0,0,0,,,,https://echo.epa.gov/detailed-facility-report?fid=NY0021822&sys=ICP
2018,ICIS,MA0100862,1.10001E+11,WINCHENDON WATER POLLUTION CONTROL FACILITY,WINCHENDON,WORCESTER,MA,Major,42.68367,-72.08202,4952,4952,SEWERAGE SYSTEMS,10802020103,Torbell Brook-Millers River,14766.73,0,0,0,8.218563594,13.93011439,0.583083333,,,https://echo.epa.gov/detailed-facility-report?fid=MA0100862&sys=ICP
2018,ICIS,NH0100790,1.10002E+11,KEENE WASTEWATER TREATMENT FACILITY,KEENE,CHESHIRE,NH,Major,42.89049,-72.27547,4952,4952,SEWERAGE SYSTEMS,10802010303,South Branch Ashuelot River,14555,0,0,0,1.414080875,7.007362079,3.384083333,,,https://echo.epa.gov/detailed-facility-report?fid=NH0100790&sys=ICP
2018,ICIS,CT0101222,1.10007E+11,WINSTED WPCF,WINSTED,LITCHFIELD,CT,Major,41.941792,-73.053825,4952,4952,SEWERAGE SYSTEMS,10802070103,Still River,14069.77152,0,0,0,2.488333333,7.8,1.759166667,,,https://echo.epa.gov/detailed-facility-report?fid=CT0101222&sys=ICP
2018,ICIS,MA0110043,1.10007E+11,MCLAUGHLIN STATE TROUT HATCHERY,BELCHERTOWN,HAMPSHIRE,MA,Non-Major,42.267471,-72.338576,921,921,FISH HATCHERIES AND PRESERVES,10802040106,Quabbin Reservoir-Swift River,13402.2,1576.2,0,1576.2,1.879309039,2.031371685,6.9475,,,https://echo.epa.gov/detailed-facility-report?fid=MA0110043&sys=ICP
2018,ICIS,CT0100145,1.10001E+11,DANBURY WATER POLLUTION CONTROL FACILITY,DANBURY,FAIRFIELD,CT,Major,41.402711,-73.418112,4952,4952,SEWERAGE SYSTEMS,11000050802,Limekiln Brook-Still River,12836.37483,0,0,0,0.443333333,1.61,10.04166667,,,https://echo.epa.gov/detailed-facility-report?fid=CT0100145&sys=ICP
2018,ICIS,MA0100153,1.10001E+11,LEE WASTEWATER TREATMENT FACILITY,LEE,BERKSHIRE,MA,Major,42.286286,-73.241279,4952,4952,SEWERAGE SYSTEMS,11000050105,Goose Pond Brook-Housatonic River,12829.58542,0,0,0,5.666666667,8.9,0.770833333,,,https://echo.epa.gov/detailed-facility-report?fid=MA0100153&sys=ICP
2018,ICIS,MA0100340,1.10024E+11,TEMPLETON WASTEWATER TREATMENT FACILITY,TEMPLETON (BALDWINVILLE),WORCESTER,MA,Major,42.601436,-72.073756,4952,4952,SEWERAGE SYSTEMS,10802020201,Otter River,12771.03552,0,0,0,6.306563889,21.61505376,0.339333333,,,https://echo.epa.gov/detailed-facility-report?fid=MA0100340&sys=ICP
2018,ICIS,CT0000434,1.10036E+11,AHLSTROM NONWOVENS,WINDSOR LOCKS,HARTFORD,CT,Major,41.925376,-72.625924,2621,2621,PAPER MILLS,10802050105,Freshwater Brook-Connecticut River,12094.89071,0,0,0,1.0475,1.95,0.397894159,,,https://echo.epa.gov/detailed-facility-report?fid=CT0000434&sys=ICP
2018,ICIS,NH0100544,1.10002E+11,SUNAPEE WASTEWATER TREATMENT FACILITY,SUNAPEE,SULLIVAN,NH,Major,43.379784,-72.113507,4952,4952,SEWERAGE SYSTEMS,10801060405,Long Pond Brook-Sugar River,11995.6,0,0,0,10.22019074,15.9655268,0.381866667,,,https://echo.epa.gov/detailed-facility-report?fid=NH0100544&sys=ICP
2018,ICIS,NHG580315,1.10028E+11,COLEBROOK WASTEWATER TREATMENT PLANT,COLEBROOK,COOS,NH,Non-Major,44.901096,-71.498637,,,,10801010305,Willard Stream-Connecticut River,11384.1,0,0,0,10.49629205,19.98189195,0.253083333,,,https://echo.epa.gov/detailed-facility-report?fid=NHG580315&sys=ICP
2018,ICIS,MAG580004,1.10007E+11,SOUTH DEERFIELD WASTEWATER TREATMENT PLANT,DEERFIELD,FRANKLIN,MA,Non-Major,42.46829,-72.58914,,,,10802010602,Russellville Brook-Connecticut River,10938.98182,0,0,0,9.331711252,23.07858472,0.370833333,,,https://echo.epa.gov/detailed-facility-report?fid=MAG580004&sys=ICP
2018,ICIS,CT0003212,1.10033E+11,KIMBERLY-CLARK TISSUE MILL,NEW MILFORD,LITCHFIELD,CT,Major,41.5567,-73.4102,2676,2676,SANITARY PAPER PRODUCTS,11000050604,Great Brook-Housatonic River,10741.8339,0,0,0,1.367539117,2.103522341,1.28625,,,https://echo.epa.gov/detailed-facility-report?fid=CT0003212&sys=ICP
2018,ICIS,VT0100285,1.10009E+11,RANDOLPH,RANDOLPH,ORANGE,VT,Non-Major,43.92686,-72.65733,,,,10801050201,Headwaters Third Branch White River,10353.92701,0,0,0,20.07583333,39.1,0.161416667,,,https://echo.epa.gov/detailed-facility-report?fid=VT0100285&sys=ICP
2018,ICIS,CT0025305,1.1E+11,"UNIMETAL SURFACE FINISHING, LLC",THOMASTON,LITCHFIELD,CT,Major,41.66935,-73.07774,3471,3471,PLATING AND POLISHING,11000051105,Northfield Brook-Naugatuck River,10353.33495,422.6985,0,422.6985,46.57278092,68.23172081,0.040662208,,,https://echo.epa.gov/detailed-facility-report?fid=CT0025305&sys=ICP
2018,ICIS,MA0101290,1.1001E+11,HATFIELD WASTEWATER TREATMENT FACILITY,HATFIELD,HAMPSHIRE,MA,Non-Major,42.394226,-72.592828,4952,4952,SEWERAGE SYSTEMS,10802010602,Russellville Brook-Connecticut River,9993.5,0,0,0,17.2587703,26.9992042,0.199083333,,,https://echo.epa.gov/detailed-facility-report?fid=MA0101290&sys=ICP
2018,ICIS,NH0101052,1.1001E+11,TROY WASTEWATER TREATMENT FACILITY,TROY,CHESHIRE,NH,Non-Major,42.835252,-72.178076,4952,4952,SEWERAGE SYSTEMS,10802010303,South Branch Ashuelot River,9927.02,0,0,0,17.49490958,37.17383034,0.091916667,,,https://echo.epa.gov/detailed-facility-report?fid=NH0101052&sys=ICP
2018,ICIS,MA0101052,1.10023E+11,ERVING WASTEWATER TREATMENT PLANT #2,ERVING,FRANKLIN,MA,Major,42.5975,-72.3879,4952,4952,SEWERAGE SYSTEMS,10802020207,Lyons Brook-Millers River,9826.036364,0,0,0,1.675134642,3.197668323,1.773333333,,,https://echo.epa.gov/detailed-facility-report?fid=MA0101052&sys=ICP
2018,ICIS,CT0100447,1.1003E+11,PLAINFIELD NORTH WATER POLLUTION CONTROL FACILITY,PLAINFIELD,WINDHAM,CT,Major,41.71937,-71.91721,4952,4952,SEWERAGE SYSTEMS,11000010503,Lower Moosup River,9354.5832,0,0,0,3.505,9.59,0.786916667,,,https://echo.epa.gov/detailed-facility-report?fid=CT0100447&sys=ICP
2018,ICIS,NHG580501,1.10028E+11,BETHLEHEM VILLAGE WASTEWATER TREATMENT PLANT,BETHLEHEM,GRAFTON,NH,Non-Major,44.28789,-71.6821,,,,10801030403,Baker Brook-Ammonoosuc River,9140.8,0,0,0,16.67960244,65.35579285,0.189,,,https://echo.epa.gov/detailed-facility-report?fid=NHG580501&sys=ICP
2018,ICIS,MA0110035,1.10008E+11,MCLAUGHLIN STATE FISH HATCHERY/SUNDERLAND,SUNDERLAND,FRANKLIN,MA,Non-Major,42.437028,-72.552917,921,921,FISH HATCHERIES AND PRESERVES,10802010602,Russellville Brook-Connecticut River,9117.245373,0,0,0,3.609139785,3.890322581,2.280833333,,,https://echo.epa.gov/detailed-facility-report?fid=MA0110035&sys=ICP
2018,ICIS,NY0206644,1.1001E+11,SUFFOLK CO SD#21 SUNY,STONY BROOK,SUFFOLK,NY,Major,40.924472,-73.121139,4952,4952,SEWERAGE SYSTEMS,20302010304,Mt Sinai Harbor-Port Jefferson Harbor,8784.308899,0,0,0,0.476388889,0.55,2.021166667,,,https://echo.epa.gov/detailed-facility-report?fid=NY0206644&sys=ICP
2018,ICIS,NH0100510,1.1001E+11,WHITEFIELD WASTEWATER TREATMENT FACILITY,WHITEFIELD,COOS,NH,Non-Major,44.376294,-71.622598,4952,4952,SEWERAGE SYSTEMS,10801030101,Bog Brook,8698.249893,0,0,0,26.05,38,0.119,,,https://echo.epa.gov/detailed-facility-report?fid=NH0100510&sys=ICP
2018,ICIS,NY0020079,1.10002E+11,GREENPORT POWER PLANT,GREENPORT,SUFFOLK,NY,Major,41.108361,-72.38575,4952,4952,SEWERAGE SYSTEMS,20302010402,Goldsmith Inlet-Mattituck Creek,8057.6,0,0,0,4.246424326,27.30856009,0.160291667,,,https://echo.epa.gov/detailed-facility-report?fid=NY0020079&sys=ICP
2018,ICIS,CT0100081,1.10001E+11,"CHESIRE,WATER POLLUTION CONTROL FACILITY",CHESHIRE,NEW HAVEN,CT,Major,41.53378,-72.86655,4952,4952,SEWERAGE SYSTEMS,11000040103,Headwaters Quinnipiac River,8011.128219,0,0,0,0.852272727,6.5,2.6975,,,https://echo.epa.gov/detailed-facility-report?fid=CT0100081&sys=ICP
2018,ICIS,VT0100757,1.10011E+11,WOODSTOCK WASTE TREATMENT PLANT,WOODSTOCK,WINDSOR,VT,Non-Major,43.6298,-72.50753,,,,10801060205,Beaver Brook-Ottauquechee River,7887.036833,0,0,0,11.65833333,18,0.23075,,,https://echo.epa.gov/detailed-facility-report?fid=VT0100757&sys=ICP
2018,ICIS,NH0100765,1.10007E+11,CHARLESTOWN WASTEWATER TREATMENT PLANT,CHARLESTOWN,SULLIVAN,NH,Major,43.225795,-72.432518,4952,4952,SEWERAGE SYSTEMS,10801060703,Jabes Hackett Brook-Connecticut River,7871.9,0,0,0,7.818754213,14.67403007,0.308,,,https://echo.epa.gov/detailed-facility-report?fid=NH0100765&sys=ICP
2018,ICIS,MA0001848,1.10011E+11,ONYX SPECIALTY PAPERS INC - WILLOW MILL,LEE,BERKSHIRE,MA,Major,42.274705,-73.286202,2621,2621,PAPER MILLS,11000050107,Konkapot Brook-Housatonic River,7865.87,0,0,0,3.178681854,4.840973925,0.822374,,,https://echo.epa.gov/detailed-facility-report?fid=MA0001848&sys=ICP
2018,ICIS,MAG580002,1.1001E+11,SHELBURNE WASTEWATER TREATMENT FACILITY,SHELBURNE,FRANKLIN,MA,Non-Major,42.595262,-72.731942,,,,10802030502,Bear River-Deerfield River,7766.6395,0,0,0,12.51939194,20.8679609,0.204083333,,,https://echo.epa.gov/detailed-facility-report?fid=MAG580002&sys=ICP
2018,ICIS,NY0021750,1.10008E+11,NATIONAL GRID - PORT JEFFERSON POWER STATION,PORT JEFFERSON,SUFFOLK,NY,Major,40.94969,-73.078431,4952,4952,SEWERAGE SYSTEMS,20302010304,Mt Sinai Harbor-Port Jefferson Harbor,7716,0,0,0,3.927737057,4.714188337,0.646666667,,,https://echo.epa.gov/detailed-facility-report?fid=NY0021750&sys=ICP
2018,ICIS,VT0100595,1.10011E+11,LYNDON WWTP,LYNDON,CALEDONIA,VT,Non-Major,44.525,-72.0167,,,,10801020302,South Wheelock Branch-Passumpsic River,7701.112992,0,0,0,15.38333333,34.5,0.163083333,,,https://echo.epa.gov/detailed-facility-report?fid=VT0100595&sys=ICP
2018,ICIS,MA0040207,1.10022E+11,CHANG FARMS INC,DEERFIELD,FRANKLIN,MA,Non-Major,42.522248,-72.571247,182,182,FOOD CROPS GROWN UNDER COVER,10802010602,Russellville Brook-Connecticut River,7397.954418,0,0,0,4.30166093,12.22,0.204666667,,,https://echo.epa.gov/detailed-facility-report?fid=MA0040207&sys=ICP
2018,ICIS,MA0100421,1.10002E+11,STURBRIDGE WATER POLLUTION CONTROL FACILITY,STURBRIDGE,WORCESTER,MA,Major,42.104697,-72.088066,4952,4952,SEWERAGE SYSTEMS,11000010103,McKinstry Brook-Quinebaug River,7290.427716,0,0,0,5.253333333,13.21,0.456333333,,,https://echo.epa.gov/detailed-facility-report?fid=MA0100421&sys=ICP
2018,ICIS,MA0101796,1.10007E+11,LEICESTER WATER SUPPLY WWTF,LEICESTER,WORCESTER,MA,Non-Major,42.240643,-71.917223,4952,4952,SEWERAGE SYSTEMS,11000010201,Upper French River,6987.892,0,0,0,5.877562165,17.89851366,0.196,,,https://echo.epa.gov/detailed-facility-report?fid=MA0101796&sys=ICP
2018,ICIS,NH0101392,1.10028E+11,BETHLEHEM VILLAGE WASTEWATER TREATMENT PLANT,BETHLEHEM,GRAFTON,NH,Non-Major,44.28789,-71.6821,4952,4952,SEWERAGE SYSTEMS,10801030403,Baker Brook-Ammonoosuc River,6749.2,0,0,0,11.39342492,20.29586356,0.195666667,,,https://echo.epa.gov/detailed-facility-report?fid=NH0101392&sys=ICP
2018,ICIS,CT0100404,1.10002E+11,NORTH HAVEN WATER POLLUTION CONTROL FACILITY,NORTH HAVEN,NEW HAVEN,CT,Major,41.364329,-72.871671,4952,4952,SEWERAGE SYSTEMS,11000040104,Muddy River,6347.676869,0,0,0,0.55,1.4,3.619166667,,,https://echo.epa.gov/detailed-facility-report?fid=CT0100404&sys=ICP
2018,ICIS,VT0000108,1.10009E+11,PUTNEY PAPER COMPANY MILL & LAGOONS,PUTNEY,WINDHAM,VT,Non-Major,42.974631,-72.517117,,,,10801070504,Sacketts Brook,6337.467786,0,0,0,17.07272727,24.6,0.121988333,,,https://echo.epa.gov/detailed-facility-report?fid=VT0000108&sys=ICP
2018,ICIS,MA0100102,1.1001E+11,HARDWICK WATER POLLUTION CONTROL FACILITY,GILBERTVILLE,WORCESTER,MA,Non-Major,42.300309,-72.214159,4952,4952,SEWERAGE SYSTEMS,10802040207,Danforth Brook-Ware River,6328.777999,0,0,0,23.0924637,105.8458738,0.131216667,,,https://echo.epa.gov/detailed-facility-report?fid=MA0100102&sys=ICP
2018,ICIS,VT0100706,1.10011E+11,WILMINGTON WWTP,WILMINGTON,WINDHAM,VT,Non-Major,42.86939,-72.88061,,,,10802030103,North Branch Deerfield River,6264.623847,0,0,0,7.181158581,16.5,0.0889,,,https://echo.epa.gov/detailed-facility-report?fid=VT0100706&sys=ICP
2018,ICIS,VT0100625,1.10011E+11,CANAAN MTP,CANAAN,ESSEX,VT,Non-Major,44.98831,-71.53981,,,,10801010304,Leach Creek,6222.824335,0,0,0,19.61666667,30.6,0.102666667,,,https://echo.epa.gov/detailed-facility-report?fid=VT0100625&sys=ICP
2018,ICIS,CT0100439,1.1001E+11,PLAINFIELD VILLAGE SEWAGE TREATMENT PLANT,PLAINFIELD,WINDHAM,CT,Non-Major,41.669458,-71.928107,4952,4952,SEWERAGE SYSTEMS,11000010702,Mill Brook,6219.342473,43.44053963,0,43.44053963,4.29525,9.5,0.457916667,,,https://echo.epa.gov/detailed-facility-report?fid=CT0100439&sys=ICP
2018,ICIS,NHG580421,1.1001E+11,LISBON WASTEWATER TREATMENT FACILITY,LISBON,GRAFTON,NH,Non-Major,44.20149,-71.928419,,,,10801030503,Pearl Lake Brook-Ammonoosuc River,6056.1,0,0,0,19.54795518,25.35973969,0.100916667,,,https://echo.epa.gov/detailed-facility-report?fid=NHG580421&sys=ICP
2018,ICIS,CT0100552,1.10001E+11,SUFFIELD WATER POLLUTION CONTROL FACILITY,SUFFIELD,HARTFORD,CT,Major,41.95944,-72.62599,4952,4952,SEWERAGE SYSTEMS,10802050104,Stony Brook,5809.600062,0,0,0,1.07,4.5,1.5575,,,https://echo.epa.gov/detailed-facility-report?fid=CT0100552&sys=ICP
2018,ICIS,NH0100382,1.10002E+11,HINSDALE WASTEWATER TREATMENT PLANT,HINSDALE,CHESHIRE,NH,Major,42.780338,-72.49205,4952,4952,SEWERAGE SYSTEMS,10802010403,Ashuelot River,5752.54,0,0,0,7.301189404,10.28893512,0.250325,,,https://echo.epa.gov/detailed-facility-report?fid=NH0100382&sys=ICP
2018,ICIS,VT0100862,1.10011E+11,CAVENDISH WASTEWATER TREATMENT FACILITY,CAVENDISH,WINDSOR,VT,Non-Major,43.3866,-72.6015,,,,10801060503,Twentymile Stream-Black River,5631.820175,0,0,0,25.225,33.3,0.072166667,,,https://echo.epa.gov/detailed-facility-report?fid=VT0100862&sys=ICP
2018,ICIS,NH0101150,1.1001E+11,WEST SWANZY WWTP,SWANZEY,CHESHIRE,NH,Non-Major,42.8682,-72.32657,4952,4952,SEWERAGE SYSTEMS,10802010401,Wheelock Brook-Ashuelot River,5608.317382,0,0,0,29.2,50,0.074516667,,,https://echo.epa.gov/detailed-facility-report?fid=NH0101150&sys=ICP
2018,ICIS,NH0000621,1.1001E+11,BERLIN STATE FISH HATCHERY,BERLIN,COOS,NH,Non-Major,44.505428,-71.334325,921,921,FISH HATCHERIES AND PRESERVES,10801010701,Headwaters Upper Ammonoosuc River,5293.413333,0,0,0,0.624243092,1.927815182,1.447916667,,,https://echo.epa.gov/detailed-facility-report?fid=NH0000621&sys=ICP
2018,ICIS,NHG580226,1.10028E+11,GROVETON WASTEWATER TREATMENT PLANT,NORTHUMBERLAND,COOS,NH,Non-Major,44.59855,-71.51745,,,,10801010707,Upper Ammonoosuc River,5242.922,0,0,0,14.03236617,22.98345382,0.114916667,,,https://echo.epa.gov/detailed-facility-report?fid=NHG580226&sys=ICP
2018,ICIS,CT0101133,1.10011E+11,HERITAGE VILLAGE COMPANY,SOUTHBURY,NEW HAVEN,CT,Non-Major,41.48477,-73.22364,6514,6514,OPER OF DWELL OTHER THAN APART,11000050903,Pomperaug River,5172.2,0,0,0,2.436586591,3.37733311,36.02258333,,,https://echo.epa.gov/detailed-facility-report?fid=CT0101133&sys=ICP
2018,ICIS,MA0100200,1.1001E+11,NORTHFIELD WWTF,NORTHFIELD,FRANKLIN,MA,Non-Major,42.701976,-72.458138,4952,4952,SEWERAGE SYSTEMS,10802010501,Pauchaug Brook-Connecticut River,5039.86,0,0,0,56.55156662,82.802075,0.116666667,,,https://echo.epa.gov/detailed-facility-report?fid=MA0100200&sys=ICP
2018,ICIS,CT0030309,1.10013E+11,MILFORD POWER STATION,MILFORD,NEW HAVEN,CT,Major,41.223948,-73.099068,,,,11000051302,Housatonic River-Frontal Long Island Sound,4769.28,0,0,0,0.959119107,1.446220015,0.56575,,,https://echo.epa.gov/detailed-facility-report?fid=CT0030309&sys=ICP
2018,ICIS,NHG580978,1.10046E+11,WOODSVILLE WASTEWATER TREATMENT FACILITY,WOODSVILLE,GRAFTON,NH,Non-Major,44.14762,-72.038489,4941,4941,WATER SUPPLY,10801030703,Clark Brook-Connecticut River,4709.64,0,0,0,6.638781566,11.30611646,0.234583333,,,https://echo.epa.gov/detailed-facility-report?fid=NHG580978&sys=ICP
2018,ICIS,CT0100218,1.10001E+11,FARMINGTON WPCF,FARMINGTON,HARTFORD,CT,Major,41.728989,-72.828711,4952,4952,SEWERAGE SYSTEMS,10802070405,Roaring Brook-Farmington River,4406.62837,0,0,0,0.41,0.72,4.133333333,,,https://echo.epa.gov/detailed-facility-report?fid=CT0100218&sys=ICP
2018,ICIS,MAG580001,1.10002E+11,OLD DEERFIELD WASTEWATER TREATMENT PLANT,DEERFIELD,FRANKLIN,MA,Non-Major,42.551231,-72.61107,,,,10802030502,Bear River-Deerfield River,4316.2,0,0,0,18.58338252,42.56725982,0.07675,,,https://echo.epa.gov/detailed-facility-report?fid=MAG580001&sys=ICP
2018,ICIS,CT0003824,1.10011E+11,ELECTRIC BOAT CORP,GROTON,NEW LONDON,CT,Major,41.350752,-72.082098,3731,3731,SHIP BUILDING AND REPAIRING,11000030203,Thames River-Frontal New London Harbor,4163.936215,0,0,0,4.625833333,8.45,3.807215947,,,https://echo.epa.gov/detailed-facility-report?fid=CT0003824&sys=ICP
2018,ICIS,CT0100374,1.10002E+11,BRISTOL WATER RECLAMATION FACILITY,BRISTOL,HARTFORD,CT,Major,41.66049,-72.9197,4952,4952,SEWERAGE SYSTEMS,10802070404,Pequabuck River,3992.92671,0,0,0,0.149166667,0.56,8.593333333,,,https://echo.epa.gov/detailed-facility-report?fid=CT0100374&sys=ICP
2018,ICIS,CT0003981,1.1E+11,SPECIALTY MINERALS DOLOMITE PLANT,CANAAN,LITCHFIELD COUNTY,CT,Non-Major,42.026463,-73.31996,1422,1422,CRUSHED AND BROKEN LIMESTONE,11000050303,Blackberry River,3983.742153,0,0,0,4.41,8.82,0.075165,,,https://echo.epa.gov/detailed-facility-report?fid=CT0003981&sys=ICP
2018,ICIS,NY0109584,1.1002E+11,NORTH CASTLE (T) SD#2,ARMONK,WESTCHESTER,NY,Non-Major,41.120361,-73.710806,4952,4952,SEWERAGE SYSTEMS,11000060403,Byram River,3980.5,0,0,0,0,0,0.393235616,,,https://echo.epa.gov/detailed-facility-report?fid=NY0109584&sys=ICP
2018,ICIS,VT0100978,1.10011E+11,HARTFORD - QUECHEE,HARTFORD,WINDSOR,VT,Non-Major,43.64441,-72.41415,,,,10801060207,Ottauquechee River,3785.714084,0,0,0,5.408333333,15.6,0.22275,,,https://echo.epa.gov/detailed-facility-report?fid=VT0100978&sys=ICP
2018,ICIS,MA0101087,1.1001E+11,STOCKBRIDGE WASTEWATER TREATMENT PLANT,STOCKBRIDGE,BERKSHIRE,MA,Non-Major,42.293751,-73.325903,4952,4952,SEWERAGE SYSTEMS,11000050107,Konkapot Brook-Housatonic River,3711.54,0,0,0,6.308128678,13.1935477,0.204416667,,,https://echo.epa.gov/detailed-facility-report?fid=MA0101087&sys=ICP
2018,ICIS,VT0100943,1.10011E+11,CHELSEA WASTEWATER TREATMENT FACILITY,CHELSEA,ORANGE,VT,Non-Major,43.980226,-72.447867,,,,10801050401,Headwaters First Branch White River,3618.859847,0,0,0,14.77045455,29,0.025833333,,,https://echo.epa.gov/detailed-facility-report?fid=VT0100943&sys=ICP
2018,ICIS,MAG580005,1.1001E+11,SUNDERLAND WASTEWATER TREATMENT FACILITY,SUNDERLAND,FRANKLIN,MA,Non-Major,42.452405,-72.584683,,,,10802010602,Russellville Brook-Connecticut River,3407.45,0,0,0,6.081885978,10.82001459,0.186916667,,,https://echo.epa.gov/detailed-facility-report?fid=MAG580005&sys=ICP
2018,ICIS,VT0101141,1.1004E+11,SHERBURNE WPCF,KILLINGTON,RUTLAND,VT,Non-Major,43.648364,-72.786313,,,,10801060201,Headwaters Ottauquechee River,3237.539634,0,0,0,11.975,23,0.086240833,,,https://echo.epa.gov/detailed-facility-report?fid=VT0101141&sys=ICP
2018,ICIS,VT0100803,1.1004E+11,BRADFORD WPCP,BRADFORD,ORANGE,VT,Non-Major,43.99919,-72.12074,,,,10801040104,Waits River,3097.751495,0,0,0,14.30833333,42.5,0.077148,,,https://echo.epa.gov/detailed-facility-report?fid=VT0100803&sys=ICP
2018,ICIS,NHG580404,1.10028E+11,WINCHESTER WASTEWATER TREATMENT PLANT,WINCHESTER,CHESHIRE,NH,Non-Major,42.770205,-72.389345,,,,10802010403,Ashuelot River,3023,0,0,0,6.719239222,13.49511848,0.144175,,,https://echo.epa.gov/detailed-facility-report?fid=NHG580404&sys=ICP
2018,ICIS,VT0100277,1.1001E+11,PUTNEY,PUTNEY,WINDHAM,VT,Non-Major,42.97082,-72.52021,,,,10801070504,Sacketts Brook,3008.333067,0,0,0,17.2725,30.6,0.0584,,,https://echo.epa.gov/detailed-facility-report?fid=VT0100277&sys=ICP
2018,ICIS,MA0110051,1.1001E+11,MCLAUGHLIN STATE TROUT HATCHERY BITZER TROUT HATCHERY,MONTAGUE,FRANKLIN,MA,Non-Major,42.559611,-72.549889,921,921,FISH HATCHERIES AND PRESERVES,10802010602,Russellville Brook-Connecticut River,2995.21,0,0,0,0.712550531,0.800353166,1.3925,,,https://echo.epa.gov/detailed-facility-report?fid=MA0110051&sys=ICP
2018,ICIS,VT0101061,1.10011E+11,LUNENBURG FIRE DISTRICT #2,GILMAN,ESSEX,VT,Non-Major,44.41235,-71.71851,,,,10801030201,Miles Stream-Connecticut River,2859.117776,0,0,0,10.74166667,19.2,0.094166667,,,https://echo.epa.gov/detailed-facility-report?fid=VT0101061&sys=ICP
2018,ICIS,CT0003921,1.10007E+11,US NAVAL SUBMARINE BASE,GROTON,NEW LONDON,CT,Major,41.400139,-72.087081,9711,9711,NATIONAL SECURITY,11000030203,Thames River-Frontal New London Harbor,2855.450636,0,0,0,0.609203125,1.86,0.410485285,,Y,https://echo.epa.gov/detailed-facility-report?fid=CT0003921&sys=ICP
2018,ICIS,MA0001716,1.10008E+11,MEADWESTVACO CUSTOM PAPERS LAUREL MILL,LEE,BERKSHIRE,MA,Major,42.278795,-73.264413,2621,2621,PAPER MILLS,11000050107,Konkapot Brook-Housatonic River,2848.53,0,0,0,2.684270676,5.686568885,0.3405,,,https://echo.epa.gov/detailed-facility-report?fid=MA0001716&sys=ICP
2018,ICIS,CT0003883,1.1E+11,NRG MIDDLETOWN POWER STATION,MIDDLETOWN,MIDDLESEX,CT,Major,41.554782,-72.58358,4911,4911,ELECTRICAL SERVICES,10802050702,Mill Creek-Connecticut River,2831.54813,0,0,0,0.496208333,1.196666667,18.81132037,,,https://echo.epa.gov/detailed-facility-report?fid=CT0003883&sys=ICP
2018,ICIS,VT0100081,1.10011E+11,CHESTER MTP,CHESTER,WINDSOR,VT,Non-Major,43.2683,-72.58938,,,,10801060601,Headwaters Williams River,2792.121505,0,0,0,4.1925,9.93,0.252833333,,,https://echo.epa.gov/detailed-facility-report?fid=VT0100081&sys=ICP
2018,ICIS,MA0102776,1.1001E+11,ERVING WASTEWATER TREATMENT PLANT #3,ERVING,FRANKLIN,MA,Non-Major,42.598361,-72.43875,4952,4952,SEWERAGE SYSTEMS,10802020207,Lyons Brook-Millers River,2728,0,0,0,1215.663133,1407.872704,0.00475,,,https://echo.epa.gov/detailed-facility-report?fid=MA0102776&sys=ICP
2018,ICIS,MA0101516,1.10001E+11,ERVING WASTEWATER TREATMENT PLANT #1,ERVING,FRANKLIN,MA,Major,42.588774,-72.49445,4952,4952,SEWERAGE SYSTEMS,10802020207,Lyons Brook-Millers River,2719.42,0,0,0,5.614003733,15.58620534,0.189833333,,,https://echo.epa.gov/detailed-facility-report?fid=MA0101516&sys=ICP
2018,ICIS,CT0100315,1.10001E+11,MERIDEN WATER POLLUTION CONTROL FACILITY,MERIDEN,NEW HAVEN,CT,Major,41.513431,-72.827878,4952,4952,SEWERAGE SYSTEMS,11000040105,Outlet Quinnipiac River,2699.117668,0,0,0,0.056666667,0.55,12.38333333,,,https://echo.epa.gov/detailed-facility-report?fid=CT0100315&sys=ICP
2018,ICIS,CT0100803,1.10007E+11,LITCHFIELD WPCF,BANTAM,LITCHFIELD,CT,Non-Major,41.714659,-73.244315,4952,4952,SEWERAGE SYSTEMS,11000050702,Bantam River,2685.171172,0,0,0,1.433636364,5.3,0.6305,,,https://echo.epa.gov/detailed-facility-report?fid=CT0100803&sys=ICP
2018,ICIS,CT0100536,1.10009E+11,SOUTHINGTON WPCF,SOUTHINGTON (PLANTSVILLE),HARTFORD,CT,Major,41.566931,-72.883694,4952,4952,SEWERAGE SYSTEMS,11000040103,Headwaters Quinnipiac River,2584.885584,0,0,0,0.174285714,0.25,5.033333333,,,https://echo.epa.gov/detailed-facility-report?fid=CT0100536&sys=ICP
2018,ICIS,NH0000744,1.10011E+11,NH DES,WHITEFIELD,COOS,NH,Non-Major,44.323049,-71.560259,921,921,FISH HATCHERIES AND PRESERVES,10801030102,Johns River,2475.821333,0,0,0,2.457948307,5.612253694,0.764,,,https://echo.epa.gov/detailed-facility-report?fid=NH0000744&sys=ICP
2018,ICIS,NY0024881,1.10009E+11,NORTHPORT (V) STP,NORTHPORT,SUFFOLK,NY,Non-Major,40.889667,-73.355417,4952,4952,SEWERAGE SYSTEMS,20302010204,Northport Bay,2284.486234,0,0,0,1.074861111,2.508333333,0.235833333,,,https://echo.epa.gov/detailed-facility-report?fid=NY0024881&sys=ICP
2018,ICIS,CT0100609,1.10056E+11,VERNON WPCF,VERNON,TOLLAND,CT,Major,41.86545,-72.48457,4952,4952,SEWERAGE SYSTEMS,10802050401,Upper Hockanum River,2237.983157,0,0,0,0.183333333,0.28,4.093333333,,,https://echo.epa.gov/detailed-facility-report?fid=CT0100609&sys=ICP
2018,ICIS,VT0100609,1.10011E+11,SAXTONS RIVER WASTEWATER TREATMENT FACILITY,SAXTONS RIVER,WINDHAM,VT,Non-Major,43.13783,-72.5065,,,,10801070102,Saxtons River,2118.10613,0,0,0,25.50909091,50.4,0.033744167,,,https://echo.epa.gov/detailed-facility-report?fid=VT0100609&sys=ICP
2018,ICIS,CT0100463,1.10006E+11,PLYMOUTH WPCF,PEQUABUCK,LITCHFIELD,CT,Major,41.668987,-72.991771,4952,4952,SEWERAGE SYSTEMS,10802070404,Pequabuck River,2094.03866,0,0,0,0.617416667,1.22,1.1305,,,https://echo.epa.gov/detailed-facility-report?fid=CT0100463&sys=ICP
2018,ICIS,CT0101320,1.1004E+11,UNIVERSITY OF CT WATER POLLUTION CONTROL FACILITY,STORRS,TOLLAND,CT,Major,41.811635,-72.263126,8221,8221,"COLLEGES, UNIV & PROF SCHOOLS",11000020108,Nelson Brook-Willimantic River,2083.257169,0,0,0,0.581458333,2.043,1.036666667,,,https://echo.epa.gov/detailed-facility-report?fid=CT0101320&sys=ICP
2018,ICIS,MA0102148,1.10002E+11,BELCHERTOWN WATER RECLAMATION FACILITY,BELCHERTOWN,HAMPSHIRE,MA,Major,42.281579,-72.42563,4952,4952,SEWERAGE SYSTEMS,10802010701,Batchelor Brook,2034.305,0,0,0,1.417944024,3.212537161,0.447,,,https://echo.epa.gov/detailed-facility-report?fid=MA0102148&sys=ICP
2018,ICIS,MA0101265,1.1001E+11,HUNTINGTON WASTEWATER TREATMENT PLAN,HUNTINGTON,HAMPSHIRE,MA,Non-Major,42.232485,-72.87644,4952,4952,SEWERAGE SYSTEMS,10802060202,Lower West Branch Westfield River,1911.152362,0,0,0,5.342547421,28.68904522,0.050183333,,,https://echo.epa.gov/detailed-facility-report?fid=MA0101265&sys=ICP
2018,ICIS,VT0100854,1.10011E+11,ROYALTON WWTF,SOUTH ROYALTON,WINDSOR,VT,Non-Major,43.80187,-72.50589,,,,10801050501,Broad Brook-White River,1820.579245,0,0,0,27.46666667,48.9,0.02125,,,https://echo.epa.gov/detailed-facility-report?fid=VT0100854&sys=ICP
2018,ICIS,CT0100498,1.10007E+11,TOWN OF SALISBURY WPCF,SALISBURY,LITCHFIELD,CT,Non-Major,42.014536,-73.431065,4952,4952,SEWERAGE SYSTEMS,11000050305,Salmon Creek,1802.961832,91.0707336,0,91.0707336,1.5675,4.1,0.424166667,,,https://echo.epa.gov/detailed-facility-report?fid=CT0100498&sys=ICP
2018,ICIS,CT0100960,1.10007E+11,PUTNAM W P C F,PUTNAM,WINDHAM,CT,Major,41.905931,-71.906184,4952,4952,SEWERAGE SYSTEMS,11000010403,Fall Brook-Quinebaug River,1786.850858,0,0,0,0.403636364,1.26,1.4975,,,https://echo.epa.gov/detailed-facility-report?fid=CT0100960&sys=ICP
2018,ICIS,CT0002127,1.10044E+11,CELLU TISSUE,EAST HARTFORD,HARTFORD,CT,Major,41.776151,-72.606406,2679,2679,CONV PAPER & PAPERBRD PRODUCTS,10802050402,Lower Hockanum River,1786.046662,0,0,0,0.676722222,1.065333333,0.289583333,,,https://echo.epa.gov/detailed-facility-report?fid=CT0002127&sys=ICP
2018,ICIS,CT0100293,1.10014E+11,HOCKANUM RIVER WATER POLLUTION CONTROL FACILITY,MANCHESTER,HARTFORD,CT,Major,41.777345,-72.561071,4952,4952,SEWERAGE SYSTEMS,10802050402,Lower Hockanum River,1755.565324,0,0,0,0.091666667,0.2,6.091666667,,,https://echo.epa.gov/detailed-facility-report?fid=CT0100293&sys=ICP
2018,ICIS,MAG580003,1.1001E+11,CHARLEMONT WASTEWATER TREATMENT FACILITY,CHARLEMONT,FRANKLIN,MA,Non-Major,42.62751,-72.87252,,,,10802030205,Mill Brook-Deerfield River,1735.19,0,0,0,29.91636147,46.96801973,0.019039167,,,https://echo.epa.gov/detailed-facility-report?fid=MAG580003&sys=ICP
2018,ICIS,VT0100633,1.1004E+11,DANVILLE WATER POLLUTION CONTROL FACILITY,DANVILLE,CALEDONIA,VT,Non-Major,44.411176,-72.147228,,,,10801020402,Joes Brook,1585.763223,0,0,0,14.875,22.5,0.035408333,,,https://echo.epa.gov/detailed-facility-report?fid=VT0100633&sys=ICP
2018,ICIS,CTMIU0195,1.10058E+11,QUANTUM BIOPOWER SOUTHINGTON LLC,SOUTHINGTON,HARTFORD,CT,Non-Major,41.638397,-72.905118,,,,11000040101,Eightmile River,1545.238597,1049.878423,0,1049.878423,37.135,220,0.015393433,,,https://echo.epa.gov/detailed-facility-report?fid=CTMIU0195&sys=ICP
2018,ICIS,CT0101231,1.10001E+11,TOWN OF NORFOLK WPCF,NORFOLK,LITCHFIELD,CT,Non-Major,41.99983,-73.21633,4952,4952,SEWERAGE SYSTEMS,11000050303,Blackberry River,1540.843035,0,0,0,0.7625,1.5,2.1125,,,https://echo.epa.gov/detailed-facility-report?fid=CT0101231&sys=ICP
2018,ICIS,VT0100731,1.1004E+11,READSBORO WPC,READSBORO,BENNINGTON,VT,Non-Major,42.76199,-72.93818,,,,10802030105,Sherman Dam-Deerfield River,1464.405378,0,0,0,13.6775,20.6,0.035575,,,https://echo.epa.gov/detailed-facility-report?fid=VT0100731&sys=ICP
2018,ICIS,VT0100749,1.10011E+11,S. WOODSTOCK WASTEWATER TREATMENT FACILITY,WOODSTOCK,WINDSOR,VT,Non-Major,43.6667,-72.5,,,,10801060206,Gulf Stream,1432.924063,0,0,0,8.754545455,23.5,0.019383333,,,https://echo.epa.gov/detailed-facility-report?fid=VT0100749&sys=ICP
2018,ICIS,MA0103110,1.1001E+11,WEST STOCKBRIDGE WASTEWATER TREAMENT FACILITY,WEST STOCKBRIDGE,BERKSHIRE,MA,Non-Major,42.33241,-73.36937,4952,4952,SEWERAGE SYSTEMS,11000050201,Williams River,1337.517754,0,0,0,4.205394251,15.37,0.01325,,Y,https://echo.epa.gov/detailed-facility-report?fid=MA0103110&sys=ICP
2018,ICIS,VT0100048,1.10011E+11,BETHEL,BETHEL,WINDSOR ,VT,Non-Major,43.824634,-72.616361,,,,10801050501,Broad Brook-White River,1292.694982,0,0,0,7.9975,19.11,0.054166667,,,https://echo.epa.gov/detailed-facility-report?fid=VT0100048&sys=ICP
2018,ICIS,CTMIU0196,1.10044E+11,SOUTHEASTERN CONN. REGIONAL RESOURCE RECOVERY,MONTVILLE,NEW LONDON,CT,Non-Major,41.48136,-72.084586,,,,11000030203,Thames River-Frontal New London Harbor,1250.91975,0,0,0,8.53375,12.69,0.007892917,,,https://echo.epa.gov/detailed-facility-report?fid=CTMIU0196&sys=ICP
2018,ICIS,CT0001341,1.10001E+11,PHARMACIA & UPJOHN (FORMER),NORTH HAVEN,NEW HAVEN,CT,Non-Major,41.375384,-72.878626,2869,2869,INDUST. ORGANIC CHEMICALS NEC,11000040105,Outlet Quinnipiac River,1171.99,0,0,0,3.857541089,4.473706489,0.09994375,,,https://echo.epa.gov/detailed-facility-report?fid=CT0001341&sys=ICP
2018,ICIS,VT0101044,1.10011E+11,WHITINGHAM (JACKSONVILLE),JACKSONVILLE,WINDHAM COUNTY,VT,Non-Major,42.7853,-72.81453,,,,10802030301,East Branch North River,1124.669278,0,0,0,20.2775,27.6,0.0182,,,https://echo.epa.gov/detailed-facility-report?fid=VT0101044&sys=ICP
2018,ICIS,NHG581206,1.1001E+11,NORTHUMBERLAND VILLAGE WATER POLLUTION CONTROL FACILITY,GROVETON,COOS,NH,Non-Major,44.597268,-71.521189,4941,4941,WATER SUPPLY,10801010707,Upper Ammonoosuc River,1120.175,0,0,0,9.27521121,13.38976806,0.040083333,,,https://echo.epa.gov/detailed-facility-report?fid=NHG581206&sys=ICP
2018,ICIS,NY0066028,1.10009E+11,SCSD#22 /HAUPPAUGE CTY CTR STP,HAUPPAUGE,SUFFOLK,NY,Non-Major,40.826333,-73.227917,4952,4952,SEWERAGE SYSTEMS,20302010302,Nissequogue River,1115.45541,139.4520608,0,139.4520608,3.466666667,15.5,0.107833333,,,https://echo.epa.gov/detailed-facility-report?fid=NY0066028&sys=ICP
2018,ICIS,VT0101109,1.10011E+11,WHITINGHAM,WHITINGHAM /T/,WINDHAM,VT,Non-Major,42.790116,-72.889556,,,,10802030105,Sherman Dam-Deerfield River,1100.61154,0,0,0,20.9575,26.5,0.0148,,,https://echo.epa.gov/detailed-facility-report?fid=VT0101109&sys=ICP
2018,ICIS,CT0030155,1.10002E+11,TILCON CONNECTICUT AGGREGATE & ASPHALT,NEWINGTON,HARTFORD,CT,Non-Major,41.71873,-72.7152,1429,1429,"CRUSHED AND BROKEN STONE, NEC",10802050303,Piper Brook-Park River,1048.748184,0,0,0,1.735909091,3.01,0.09308875,,,https://echo.epa.gov/detailed-facility-report?fid=CT0030155&sys=ICP
2018,ICIS,NHG580536,1.10024E+11,STRATFORD VILLAGE SYSTEM,NORTH STRATFORD,COOS,NH,Non-Major,44.74926,-71.629411,4952,4952,SEWERAGE SYSTEMS,10801010603,Dennis Pond Brook-Connecticut River,1022.62,0,0,0,22.05992379,36.95136453,0.016886167,,,https://echo.epa.gov/detailed-facility-report?fid=NHG580536&sys=ICP
2018,ICIS,MA0102431,1.1001E+11,HARDWICK WWTP,HARDWICK (WHEELWRIGHT),WORCESTER,MA,Non-Major,42.350037,-72.139237,4952,4952,SEWERAGE SYSTEMS,10802040205,Winimusset Brook-Ware River,855.7215229,0,0,0,28.73764938,80.87199996,0.0148705,,,https://echo.epa.gov/detailed-facility-report?fid=MA0102431&sys=ICP
2018,ICIS,CT0100501,1.10002E+11,SEYMOUR WPCF,SEYMOUR,NEW HAVEN,CT,Major,41.366379,-73.087313,4952,4952,SEWERAGE SYSTEMS,11000051207,Bladens River-Naugatuck River,839.5286139,0,0,0,0.272,0.45,1.510833333,,,https://echo.epa.gov/detailed-facility-report?fid=CT0100501&sys=ICP
2018,ICIS,NHG581214,1.10024E+11,STRATFORD-MILL HOUSE,NORTH STRATFORD,COOS,NH,Non-Major,44.869834,-71.526999,4952,4952,SEWERAGE SYSTEMS,10801010404,Clough Brook-Connecticut River,831.42,0,0,0,26.41740978,50.96269291,0.017742083,,,https://echo.epa.gov/detailed-facility-report?fid=NHG581214&sys=ICP
2018,ICIS,CT0101214,1.10002E+11,STAFFORD / WPCF,STAFFORD SPRINGS,TOLLAND,CT,Major,41.94688,-72.30454,4952,4952,SEWERAGE SYSTEMS,11000020108,Nelson Brook-Willimantic River,784.5035965,0,0,0,0.32,0.8,0.951666667,,,https://echo.epa.gov/detailed-facility-report?fid=CT0101214&sys=ICP
2018,ICIS,CT0101770,1.1001E+11,REDDING WASTEWATER TREATMENT FACILITY,REDDING,FAIRFIELD,CT,Non-Major,41.258249,-73.429303,4952,4952,SEWERAGE SYSTEMS,11000060202,Norwalk River-Frontal Norwalk Harbor,662.85,0,0,0,4.517871312,5.139366587,0.048316667,,,https://echo.epa.gov/detailed-facility-report?fid=CT0101770&sys=ICP
2018,ICIS,VT0000019,1.1E+11,WEIDMANN ELECTRICAL TECHNOLOGY,SAINT JOHNSBURY,CALEDONIA,VT,Non-Major,44.48239,-72.01343,,,,10801020302,South Wheelock Branch-Passumpsic River,637.8235473,0,0,0,1.35,4.84,0.162166667,,,https://echo.epa.gov/detailed-facility-report?fid=VT0000019&sys=ICP
2018,ICIS,MA0100188,1.1001E+11,MONROE WASTEWATER TREATMENT FACILITY,MONROE,FRANKLIN,MA,Non-Major,42.721141,-72.941875,4952,4952,SEWERAGE SYSTEMS,10802030201,Pelham Brook-Deerfield River,624.4991601,0,0,0,3.968,4.447666667,0.015941667,,,https://echo.epa.gov/detailed-facility-report?fid=MA0100188&sys=ICP
2018,ICIS,CT0003263,1.10017E+11,DOMINION MILLSTONE NUCLEAR POWER STATION,WATERFORD,NEW LONDON,CT,Major,41.307765,-72.165617,4911,4911,ELECTRICAL SERVICES,11000030305,Fenger Brook-Frontal Lond Island Sound,623.4427441,0,0,0,0.228902778,0.611666667,259.8583706,,,https://echo.epa.gov/detailed-facility-report?fid=CT0003263&sys=ICP
2018,ICIS,CT0100781,1.10056E+11,THOMASTON WPCF,THOMASTON,LITCHFIELD,CT,Major,41.645097,-73.079553,4952,4952,SEWERAGE SYSTEMS,11000051104,Branch Brook,520.7458849,0,0,0,0.16325,0.224,1.121416667,,,https://echo.epa.gov/detailed-facility-report?fid=CT0100781&sys=ICP
2018,ICIS,CT0003778,1.1E+11,PSEG POWER CONNECTICUT LLC,BRIDGEPORT,FAIRFIELD,CT,Major,41.17067,-73.18408,4911,4911,ELECTRICAL SERVICES,11000060303,Rooster River-Frontal Long Island Sound,513.7072072,0,0,0,0.503611111,1.1,24.00470935,,,https://echo.epa.gov/detailed-facility-report?fid=CT0003778&sys=ICP
2018,ICIS,CT0101788,1.10002E+11,NEWTOWN /WPCF,NEWTOWN,FAIRFIELD,CT,Non-Major,41.41472,-73.28424,4952,4952,SEWERAGE SYSTEMS,11000051001,Pootatuck River,509.3033964,0,0,0,1.008333333,1.41,0.562,,,https://echo.epa.gov/detailed-facility-report?fid=CT0101788&sys=ICP
2018,ICIS,NHG580391,1.10004E+11,CHESHIRE COUNTY MAPLEWOOD NURSING HOME,WESTMORELAND,CHESHIRE,NH,Non-Major,42.97351,-72.46554,4952,4952,SEWERAGE SYSTEMS,10801070503,Partridge Brook,480.3,0,0,0,11.33671638,18.8286927,0.014,,,https://echo.epa.gov/detailed-facility-report?fid=NHG580391&sys=ICP
2018,ICIS,NH0101168,1.10011E+11,MERIDEN VILLAGE WATER DISTRICT,MERIDEN,SULLIVAN,NH,Non-Major,43.54017,-72.26377,4952,4952,SEWERAGE SYSTEMS,10801060301,Bloods Brook,465.702615,0,0,0,15,15,0.021166667,,,https://echo.epa.gov/detailed-facility-report?fid=NH0101168&sys=ICP
2018,ICIS,CT0101052,1.1001E+11,SHARON WATER POLLUTION CONTROL FACILITY,SHARON,LITCHFIELD,CT,Non-Major,41.88358,-73.48861,4952,4952,SEWERAGE SYSTEMS,11000050502,Mudge Pond Brook,411.9395015,0,0,0,2.8,3.1,0.049666667,,,https://echo.epa.gov/detailed-facility-report?fid=CT0101052&sys=ICP
2018,ICIS,VT0100846,1.10011E+11,BRIDGEWATER WWTF,BRIDGEWATER,WINDSOR,VT,Non-Major,43.587651,-72.624059,,,,10801060205,Beaver Brook-Ottauquechee River,404.6061876,0,0,0,17.68583333,23,0.007475,,,https://echo.epa.gov/detailed-facility-report?fid=VT0100846&sys=ICP
2018,ICIS,CT0100331,1.1001E+11,NEW HARTFORD WPCF,NEW HARTFORD,LITCHFIELD,CT,Non-Major,41.868318,-72.95786,4952,4952,SEWERAGE SYSTEMS,10802070204,Lower West Branch Farmington River,375.28,0,0,0,2.539051187,5.15500149,0.049583333,,,https://echo.epa.gov/detailed-facility-report?fid=CT0100331&sys=ICP
2018,ICIS,CT0000957,1.1E+11,PFIZER GROTON CAMPUS,GROTON,NEW LONDON,CT,Non-Major,41.3309,-72.0771,2834,2834,PHARMACEUTICAL PREPARATIONS,11000030203,Thames River-Frontal New London Harbor,364,0,0,0,0.362085756,0.790425057,0.162366917,,,https://echo.epa.gov/detailed-facility-report?fid=CT0000957&sys=ICP
2018,ICIS,VT0100447,1.10011E+11,WINDSOR WESTON HEIGHTS,WINDSOR,WINDSOR,VT,Non-Major,43.4833,-72.3933,,,,10801060305,Hubbard Brook-Connecticut River,350.1249072,0,0,0,16.7,34.6,0.00675,,,https://echo.epa.gov/detailed-facility-report?fid=VT0100447&sys=ICP
2018,ICIS,CT0100854,1.10001E+11,RIDGEFIELD WATER POLLUTION CONTROL FACILITY,RIDGEFIELD,FAIRFIELD,CT,Major,41.290159,-73.490438,4952,4952,SEWERAGE SYSTEMS,11000060202,Norwalk River-Frontal Norwalk Harbor,322.6718215,0,0,0,0.112142857,0.6,0.99475,,,https://echo.epa.gov/detailed-facility-report?fid=CT0100854&sys=ICP
2018,ICIS,CT0101273,1.1004E+11,NEW CANAAN WASTEWATER TREATMENT PLANT,NEW CANAAN,FAIRFIELD,CT,Major,41.14066,-73.48368,4952,4952,SEWERAGE SYSTEMS,11000060404,Fivemile River,322.4791976,0,0,0,0.12,0.24,1.051,,,https://echo.epa.gov/detailed-facility-report?fid=CT0101273&sys=ICP
2018,ICIS,VT0100765,1.10011E+11,WOODSTOCK - TAFTSVILLE,TAFTSVILLE,WINDSOR,VT,Non-Major,43.630932,-72.467758,,,,10801060207,Ottauquechee River,319.0880813,0,0,0,29.13333333,151.3,0.004333333,,,https://echo.epa.gov/detailed-facility-report?fid=VT0100765&sys=ICP
2018,ICIS,CT0101761,1.10009E+11,EAST HADDAM WATER POLLUTION CONTROL FACILITY,EAST HADDAM,MIDDLESEX,CT,Non-Major,41.4504,-72.45851,4952,4952,SEWERAGE SYSTEMS,10802050901,Deep River-Connecticut River,292,0,0,0,6.812445747,10.65057365,0.014666667,,,https://echo.epa.gov/detailed-facility-report?fid=CT0101761&sys=ICP
2018,ICIS,VT0100951,1.10014E+11,RYEGATE FIRE DEPARTMENT .#2,RYEGATE,CALEDONIA,VT,Non-Major,44.20007,-72.06483,,,,10801030206,Manchester Brook-Connecticut River,276.4471605,0,0,0,7.544293944,18.44,0.003328264,,,https://echo.epa.gov/detailed-facility-report?fid=VT0100951&sys=ICP
2018,ICIS,MA0040482,1.10065E+11,WEST PARISH WATER TREATMENT PLANT,WESTFIELD,HAMPDEN,MA,Non-Major,42.1156,-72.83238,,,,10802060303,Little River,231.7719438,0,0,0,0.140860942,0.295482353,1.47925,,,https://echo.epa.gov/detailed-facility-report?fid=MA0040482&sys=ICP
2018,ICIS,CT0101818,1.10011E+11,"CONVENT OF THE SACRED HEART SCHOOL GREENWICH, INC.",GREENWICH,FAIRFIELD,CT,Non-Major,41.06406,-73.69544,4952,4952,SEWERAGE SYSTEMS,11000060405,Blind Brook-Horseneck Brook,228.8501219,0,0,0,10.2175,31.2,0.006653333,,,https://echo.epa.gov/detailed-facility-report?fid=CT0101818&sys=ICP
2018,ICIS,CTMIU0161,1.10009E+11,BEACON HEIGHTS LANDFILL,BEACON FALLS,NEW HAVEN,CT,Non-Major,41.43195,-73.035281,,,,11000051207,Bladens River-Naugatuck River,221.1957004,0,0,0,2.137416667,4.5,0.035271917,,,https://echo.epa.gov/detailed-facility-report?fid=CTMIU0161&sys=ICP
2018,ICIS,CT0001180,1.1E+11,SUMMIT CORP OF AMERICA,THOMASTON,LITCHFIELD,CT,Major,41.623153,-73.064553,3471,3471,PLATING AND POLISHING,11000051105,Northfield Brook-Naugatuck River,219.3611687,0,0,0,15.89761736,21.26439314,0.138556167,,,https://echo.epa.gov/detailed-facility-report?fid=CT0001180&sys=ICP
2018,ICIS,NY0005932,1.10008E+11,NATIONAL GRID - PORT JEFFERSON POWER STATION,PORT JEFFERSON,SUFFOLK,NY,Non-Major,40.94969,-73.078431,4911,4911,ELECTRICAL SERVICES,20302010304,Mt Sinai Harbor-Port Jefferson Harbor,199.7215138,0,0,0,0.435833333,0.89,6.648454476,,,https://echo.epa.gov/detailed-facility-report?fid=NY0005932&sys=ICP
2018,ICIS,NY0088510,1.10019E+11,SEAWANHAKA-CORINTHIAN YACHT CLUB PROPERT,CENTRE ISLAND,NASSAU,NY,Non-Major,40.902056,-73.511194,8999,8999,"SERVICES, NEC",20302010201,Mill Neck Creek-Oyster Bay Harbor,182.7048331,0,0,0,21.95180138,37.75958566,0.003094167,,,https://echo.epa.gov/detailed-facility-report?fid=NY0088510&sys=ICP
2018,ICIS,MA0100170,1.1001E+11,OXFORD ROCHDALE WASTEWATER TREATMENT PLANT,NORTH OXFORD,WORCESTER COUNTY,MA,Non-Major,42.183647,-71.894113,4952,4952,SEWERAGE SYSTEMS,11000010201,Upper French River,179.3558836,0,0,0,0.205714286,0.37,0.298916667,,,https://echo.epa.gov/detailed-facility-report?fid=MA0100170&sys=ICP
2018,ICIS,CT0090182,1.10003E+11,NATIONAL MARINE FISHERIES,MILFORD,NEW HAVEN,CT,Non-Major,41.21171,-73.05407,8731,8731,COMMERCIAL PHYSICAL RESEARCH,11000040303,Milford Harbor-Frontal Long Island Sound,177.5291118,0,0,0,0.095,0.27,0.222507425,,,https://echo.epa.gov/detailed-facility-report?fid=CT0090182&sys=ICP
2018,ICIS,NHG581249,1.10028E+11,LANCASTER GRANGE WASTEWATER TREATMENT PLANT,LANCASTER,COOS,NH,Non-Major,44.481841,-71.528227,4952,4952,SEWERAGE SYSTEMS,10801010805,Otter Brook,160.416,0,0,0,14.24845642,23.74593807,0.00415,,,https://echo.epa.gov/detailed-facility-report?fid=NHG581249&sys=ICP
2018,ICIS,CT0028631,1.10002E+11,UNIVERSITY OF CONNECTICUT,GROTON,NEW LONDON,CT,Non-Major,41.315821,-72.062687,8221,8221,"COLLEGES, UNIV & PROF SCHOOLS",11000030303,Stony Brook-Frontal Fishers Island Sound,98.3707173,0,0,0,0.027666667,0.033333333,0.165719,,,https://echo.epa.gov/detailed-facility-report?fid=CT0028631&sys=ICP
2018,ICIS,CT0030449,1.10001E+11,HIGHWAY SAFETY CORP / CT GALVANIZING,GLASTONBURY,HARTFORD,CT,Non-Major,41.71099,-72.58229,3479,3479,METAL COATING & ALLIED SERVIC,10802050505,Goff Brook-Connecticut River,82.78089322,0,0,0,0.26,1.15,0.012,,,https://echo.epa.gov/detailed-facility-report?fid=CT0030449&sys=ICP
2018,ICIS,NY0005941,1.10001E+11,NATIONAL GRID - NORTHPORT POWER STATION,NORTHPORT,SUFFOLK,NY,Major,40.923488,-73.342561,4911,4911,ELECTRICAL SERVICES,20302010301,Crab Meadow-Fresh Pond,80.13720119,0,0,0,0.310715602,1,10.09468938,,,https://echo.epa.gov/detailed-facility-report?fid=NY0005941&sys=ICP
2018,ICIS,NY0005894,1.10007E+11,GLENWOOD ENERGY CENTER - OLD TURB,GLENWOOD LANDING,NASSAU,NY,Non-Major,40.82517,-73.64703,4911,4911,ELECTRICAL SERVICES,20302010103,Glen Cove Creek-Hempstead Harbor,71.59194556,0,0,0,20.76333333,62,0.000434699,,Y,https://echo.epa.gov/detailed-facility-report?fid=NY0005894&sys=ICP
2018,ICIS,CT0000841,1.10001E+11,"KING INDUSTRIES, INC.",NORWALK,FAIRFIELD COUNTY,CT,Non-Major,41.108491,-73.41271,2869,2869,INDUST. ORGANIC CHEMICALS NEC,11000060202,Norwalk River-Frontal Norwalk Harbor,60.26063269,0,0,0,0.795,0.885,0.014722583,,,https://echo.epa.gov/detailed-facility-report?fid=CT0000841&sys=ICP
2018,ICIS,CT0000892,1.10002E+11,"TILCON CONNECTICUT, INC.",NORTH BRANFORD,NEW HAVEN,CT,Non-Major,41.33273,-72.79398,1429,1429,"CRUSHED AND BROKEN STONE, NEC",11000040206,Farm River,59.49259256,0,0,0,0.406666667,1.7,0.235502778,,,https://echo.epa.gov/detailed-facility-report?fid=CT0000892&sys=ICP
2018,ICIS,NY0274526,1.10063E+11,PEACH LAKE SEWER DISTRICT WWTP,"SOUTHEAST, TOWN OF",PUTNAM,NY,Non-Major,41.21159,-73.51961,4952,4952,SEWERAGE SYSTEMS,11000060401,Rippowam River,53.37317226,0,0,0,0.367843137,0.708235294,0.052727273,,,https://echo.epa.gov/detailed-facility-report?fid=NY0274526&sys=ICP
2018,ICIS,MA0000272,1.10056E+11,PAN AM RAILWAYS YARD,DEERFIELD,FRANKLIN,MA,Non-Major,42.57221,-72.56679,4011,4011,"RAILROADS, LINE HAUL OPERATING",10802010602,Russellville Brook-Connecticut River,51.56660876,0,0,0,4.581849462,6.188,0.028896997,,,https://echo.epa.gov/detailed-facility-report?fid=MA0000272&sys=ICP
2018,ICIS,CT0030473,1.10041E+11,PLAINFIELD RENEWABLE ENRGY LLC,PLAINFIELD,WINDHAM,CT,Non-Major,41.66084,-71.92495,4911,4911,ELECTRICAL SERVICES,11000010702,Mill Brook,51.34284941,0,0,0,0.1615,0.495,0.08712375,,,https://echo.epa.gov/detailed-facility-report?fid=CT0030473&sys=ICP
2018,ICIS,NY0030767,1.1002E+11,OAKRIDGE STP,SOUTH SALEM,WESTCHESTER,NY,Non-Major,41.213403,-73.518449,4952,4952,SEWERAGE SYSTEMS,11000060401,Rippowam River,45.37973986,0,0,0,0.291666667,0.411764706,0.051666667,,,https://echo.epa.gov/detailed-facility-report?fid=NY0030767&sys=ICP
2018,ICIS,CT0001376,1.10065E+11,"UNITED TECHNOLOGIES CORPORATION, PRATT AND WHITNEY DIVISION",EAST HARTFORD,HARTFORD COUNTY,CT,Major,41.740541,-72.640907,3724,3724,AIRCRAFT ENGINES & ENGINE PART,10802050505,Goff Brook-Connecticut River,33.61164753,0,0,0,1.4684375,4.9,0.065052896,,,https://echo.epa.gov/detailed-facility-report?fid=CT0001376&sys=ICP
2018,ICIS,CT0029530,1.10009E+11,TA OPERATING LLC,WILLINGTON,TOLLAND,CT,Non-Major,41.91852,-72.26036,4215,4215,"COURIER SERVICES, EXCEPT AIR",11000020104,Roaring Brook,31.89443979,0,0,0,1.81125,4.135,0.00348,,,https://echo.epa.gov/detailed-facility-report?fid=CT0029530&sys=ICP
2018,ICIS,CT0021873,1.10034E+11,GBC METALS LLC SOMERS THIN STRIP,WATERBURY,NEW HAVEN,CT,Major,41.534338,-73.032406,3351,3351,ROLL/DRAW/EXTRUDING OF COPPER,11000051205,Long Meadow Pond Brook-Naugatuck River,30.54015047,0,0,0,0.11975,0.18,0.0944835,,,https://echo.epa.gov/detailed-facility-report?fid=CT0021873&sys=ICP
2018,ICIS,MAG640022,1.10002E+11,LUDLOW WWTP,LUDLOW,HAMPDEN,MA,Non-Major,42.198576,-72.433871,4941,4941,WATER SUPPLY,10802040402,Outlet Chicopee River,27.24403697,0,0,0,0.3458,0.3458,0.175708333,,,https://echo.epa.gov/detailed-facility-report?fid=MAG640022&sys=ICP
2018,ICIS,NY0105741,1.10008E+11,FOX LANE CAMPUS,BEDFORD,WESTCHESTER,NY,Non-Major,41.18632,-73.63554,8999,8999,"SERVICES, NEC",11000060402,Mianus River,17.60164125,4.225315998,0,4.225315998,0.330098039,2.709411765,0.016125,,,https://echo.epa.gov/detailed-facility-report?fid=NY0105741&sys=ICP
2018,ICIS,MA0001350,1.1E+11,LS STARRETT PRECISION TOOLS,ATHOL,WORCESTER,MA,Major,42.595325,-72.226707,3545,3545,MACHINE TOOL ACCESSORIES,10802020204,Beaver Brook-Millers River,13.04795725,0,0,0,0.354117647,0.354117647,0.011570883,,,https://echo.epa.gov/detailed-facility-report?fid=MA0001350&sys=ICP
2018,ICIS,CT0030562,1.10002E+11,UNIVERSITY OF CONNECTICUT,GROTON,NEW LONDON,CT,Non-Major,41.315821,-72.062687,,,,11000030303,Stony Brook-Frontal Fishers Island Sound,10.68652297,0,0,0,0.04,0.07,0.0864,,,https://echo.epa.gov/detailed-facility-report?fid=CT0030562&sys=ICP
2018,ICIS,CT0026972,1.10001E+11,STERLING ENERGY WASTE TIRE INCINERATION FAC,STERLING,WINDHAM,CT,Non-Major,41.7122,-71.8212,4931,4931,ELEC & OTHER SERVICES COMBINED,11000010503,Lower Moosup River,3.081145233,0,0,0,0.382,0.4605,0.10127225,,,https://echo.epa.gov/detailed-facility-report?fid=CT0026972&sys=ICP
2018,ICIS,CT0003115,1.1E+11,NRG MONTVILLE POWER STATION,MONTVILLE (UNCASVILLE),NEW LONDON,CT,Major,41.427387,-72.102263,4911,4911,ELECTRICAL SERVICES,11000030203,Thames River-Frontal New London Harbor,2.335343929,0,0,0,0.12969697,0.21,16.5789145,,,https://echo.epa.gov/detailed-facility-report?fid=CT0003115&sys=ICP
2018,ICIS,CT0021504,1.1E+11,ROGERS CORPORATION,WOODSTOCK,WINDHAM,CT,Non-Major,41.98372,-71.97631,1752,1752,FLOOR LAY & OTHER FLOOR WORK,11000010401,Little River,1.785599968,0,0,0,0.0833,0.0833,0.006904333,,,https://echo.epa.gov/detailed-facility-report?fid=CT0021504&sys=ICP
2018,ICIS,MA0100161,1.10009E+11,ROYALSTON WASTEWATER TREATMENT PLANT,ROYALSTON,WORCESTER,MA,Non-Major,42.62896,-72.15324,4952,4952,SEWERAGE SYSTEMS,10802020204,Beaver Brook-Millers River,0.00018218,0,0,0,6.494324373,7.795268817,9.86608E-09,,,https://echo.epa.gov/detailed-facility-report?fid=MA0100161&sys=ICP
2018,ICIS,CT0003107,1.10031E+11,NRG DEVON STATION POWER PLANT,MILFORD,NEW HAVEN,CT,Major,41.209171,-73.108209,4911,4911,ELECTRICAL SERVICES,11000051302,Housatonic River-Frontal Long Island Sound,0,0,0,0,0,0,0,,,https://echo.epa.gov/detailed-facility-report?fid=CT0003107&sys=ICP
2018,ICIS,MAR053312,1.10065E+11,SAFETY-KLEEN WEST BROOKFIELD,WEST BROOKFIELD,WORCESTER,MA,Non-Major,42.21899,-72.12313,,,,10802040303,Upper Quaboag River,0,0,0,0,0,0,,,,https://echo.epa.gov/detailed-facility-report?fid=MAR053312&sys=ICP
2018,ICIS,MAR053821,1.10067E+11,"J. DONOVAN & SON, INC.",STOCKBRIDGE,BERKSHIRE,MA,Non-Major,42.27401,-73.34064,1442,1442,CONSTRUCTION SAND AND GRAVEL,11000050107,Konkapot Brook-Housatonic River,0,0,0,0,0,0,,,,https://echo.epa.gov/detailed-facility-report?fid=MAR053821&sys=ICP
2018,ICIS,NHR053131,1.10004E+11,NCES LANDFILL,BETHLEHEM,GRAFTON,NH,Non-Major,44.261426,-71.62739,,,,10801030403,Baker Brook-Ammonoosuc River,0,0,0,0,0,0,,,,https://echo.epa.gov/detailed-facility-report?fid=NHR053131&sys=ICP
2018,ICIS,MAR053769,1.10024E+11,LANE CONSTRUCTION PLANT & QUARRY,NORTHFIELD,FRANKLIN,MA,Non-Major,42.69299,-72.48533,1442,1442,CONSTRUCTION SAND AND GRAVEL,10802010501,Pauchaug Brook-Connecticut River,0,0,0,0,0,0,,,,https://echo.epa.gov/detailed-facility-report?fid=MAR053769&sys=ICP
2018,ICIS,NHR053148,1.10065E+11,"PIKE INDUSTRIES, INC. - COLUMBIA",COLUMBIA,COOS,NH,Non-Major,44.8248,-71.5501,1442,1442,CONSTRUCTION SAND AND GRAVEL,10801010404,Clough Brook-Connecticut River,0,0,0,0,0,0,,,,https://echo.epa.gov/detailed-facility-report?fid=NHR053148&sys=ICP
2018,ICIS,MAR053752,1.1E+11,SMITH & WESSON,SPRINGFIELD,HAMPDEN,MA,Non-Major,42.13722,-72.54706,3471,3471,PLATING AND POLISHING,10802040402,Outlet Chicopee River,0,0,0,0,0.3425,0.63,,,,https://echo.epa.gov/detailed-facility-report?fid=MAR053752&sys=ICP
2018,ICIS,MAR053421,1.10065E+11,GOYA QUARRY PROPERTY,WEBSTER,WORCESTER,MA,Non-Major,42.07656,-71.85909,1442,1442,CONSTRUCTION SAND AND GRAVEL,11000010203,Middle French River,0,0,0,0,0,0,,,,https://echo.epa.gov/detailed-facility-report?fid=MAR053421&sys=ICP
2018,ICIS,CT0101346,1.10009E+11,"LYNWOOD PLACE, LLC",SANDY HOOK,FAIRFIELD,CT,Non-Major,41.4322,-73.27559,4952,4952,SEWERAGE SYSTEMS,11000051001,Pootatuck River,0,0,0,0,0,0,0,,,https://echo.epa.gov/detailed-facility-report?fid=CT0101346&sys=ICP
2018,ICIS,NHR053169,1.10067E+11,"PIKE INDUSTRIES, INC. - TWIN MOUNTAIN",TWIN MOUNTAIN,COOS,NH,Non-Major,44.2987,-71.543611,1429,1429,"CRUSHED AND BROKEN STONE, NEC",10801030102,Johns River,0,0,0,0,0,0,,,,https://echo.epa.gov/detailed-facility-report?fid=NHR053169&sys=ICP
2018,ICIS,CT0030635,1.10044E+11,"TILCON CONNECTICUT, INC",GRISWOLD,NEW LONDON,CT,Non-Major,41.536192,-71.895535,,,,11000010602,Lower Pachaug River,0,0,0,0,0,0,,,,https://echo.epa.gov/detailed-facility-report?fid=CT0030635&sys=ICP
2018,ICIS,CT0030431,1.10014E+11,HYPONEX CORPORATION,LEBANON,NEW LONDON,CT,Non-Major,41.640707,-72.17095,711,711,SOIL PREPARATION SERVICES,11000030102,Susquetonscut Brook,0,0,0,0,0.81025,2.523,,,,https://echo.epa.gov/detailed-facility-report?fid=CT0030431&sys=ICP
2018,ICIS,MAR053646,1.10067E+11,"GRANBY QUARRY, SAND AND GRAVEL PROCESSING FACILITY",CHICOPEE,HAMPSHIRE,MA,Non-Major,42.163622,-72.619374,1442,1442,CONSTRUCTION SAND AND GRAVEL,10802040402,Outlet Chicopee River,0,0,0,0,0.375,0.5,,,,https://echo.epa.gov/detailed-facility-report?fid=MAR053646&sys=ICP
2018,ICIS,MAR053881,1.10008E+11,DONOVAN BROTHERS,HUNTINGTON,HAMPSHIRE,MA,Non-Major,42.2545,-72.86675,1442,1442,CONSTRUCTION SAND AND GRAVEL,10802060105,Little River-Westfield River,0,0,0,0,0,0,,,,https://echo.epa.gov/detailed-facility-report?fid=MAR053881&sys=ICP
2018,ICIS,MAR053340,1.1002E+11,SHIELD PACKAGING,DUDLEY,WORCESTER,MA,Non-Major,42.05404,-71.881367,2842,2842,"SPECIALTY CLEANING, POLISHING",11000010203,Middle French River,0,0,0,0,0.39511875,1.38,0,,,https://echo.epa.gov/detailed-facility-report?fid=MAR053340&sys=ICP
2018,ICIS,MAR05J00X,1.10071E+11,YANKEE HILL MACHINE,EASTHAMPTON,HAMPSHIRE,MA,Non-Major,42.254,-72.6935,3484,3484,SMALL ARMS,10802010609,Lower Manhan River,0,0,0,0,0,0,,,,https://echo.epa.gov/detailed-facility-report?fid=MAR05J00X&sys=ICP
2018,ICIS,MAR053406,1.10024E+11,SOUTHBRIDGE RECYCLING & DISPOSAL PARK,SOUTHBRIDGE,WORCESTER,MA,Non-Major,42.10516,-72.03195,,,,11000010103,McKinstry Brook-Quinebaug River,0,0,0,0,0,0,,,,https://echo.epa.gov/detailed-facility-report?fid=MAR053406&sys=ICP
2018,ICIS,NHG910071,1.1007E+11,RENNIE FARMS,HANOVER,,NH,Non-Major,43.747096,-72.174518,,,,10801040402,Blood Brook-Connecticut River,0,0,0,0,0,0,0.007353875,,,https://echo.epa.gov/detailed-facility-report?fid=NHG910071&sys=ICP
2018,ICIS,NHR053153,1.1E+11,STURM RUGER FIREARMS MANUFACTURING FACILITY,NEWPORT,SULLIVAN,NH,Non-Major,43.379828,-72.152415,3484,3484,SMALL ARMS,10801060405,Long Pond Brook-Sugar River,0,0,0,0,0,0,,,,https://echo.epa.gov/detailed-facility-report?fid=NHR053153&sys=ICP
2018,ICIS,MAR053558,1.10002E+11,REED NATIONAL CORP,WESTFIELD,HAMPDEN,MA,Non-Major,42.13609,-72.73927,3444,3444,SHEET METAL WORK,10802060305,Powerdmill Brook-Westfield River,0,0,0,0,0.1498125,0.38,,,,https://echo.epa.gov/detailed-facility-report?fid=MAR053558&sys=ICP
2018,ICIS,MAR053431,1.10002E+11,SUDDEKOR LLC,AGAWAM,HAMPDEN,MA,Non-Major,42.05604,-72.65584,2754,2754,"COMMERCIAL PRINTING, GRAVURE",10802050102,Pecousic Brook-Connecticut River,0,0,0,0,0,0,,,,https://echo.epa.gov/detailed-facility-report?fid=MAR053431&sys=ICP
2018,ICIS,MAR05J00A,1.1007E+11,NORTHEAST PAVING LENOXDALE PLANT,LEE,,MA,Non-Major,42.33256,-73.24387,2951,2951,PAVING MIXTURES AND BLOCKS,11000050104,Sackett Brook-Housatonic River,0,0,0,0,0,0,,,,https://echo.epa.gov/detailed-facility-report?fid=MAR05J00A&sys=ICP
2018,ICIS,MAG640046,1.1001E+11,CENTENNIAL W T P,PELHAM,HAMPSHIRE,MA,Non-Major,42.377222,-72.459722,4941,4941,WATER SUPPLY,10802010605,Fort River,0,0,0,0,0,0,0,,,https://echo.epa.gov/detailed-facility-report?fid=MAG640046&sys=ICP
2018,ICIS,MAR054027,1.1007E+11,"R.J. MCDONALD, INC.",HARDWICK,ESSEX,MA,Non-Major,42.35796,-72.14252,1442,1442,CONSTRUCTION SAND AND GRAVEL,10802040205,Winimusset Brook-Ware River,0,0,0,0,0.22925,0.686,,,,https://echo.epa.gov/detailed-facility-report?fid=MAR054027&sys=ICP
2018,ICIS,NYR00E884,1.10042E+11,DOVER MINE,DOVER PLAINS,DUTCHESS,NY,Non-Major,41.691,-73.582,1442,1442,CONSTRUCTION SAND AND GRAVEL,11000050505,Swamp River,0,0,0,0,0,0,,,,https://echo.epa.gov/detailed-facility-report?fid=NYR00E884&sys=ICP
2018,ICIS,MA0040312,1.10001E+11,PITTSFIELD SAND & GRAVEL,PITTSFIELD,BERKSHIRE ,MA,Non-Major,42.45462,-73.21171,1442,1442,CONSTRUCTION SAND AND GRAVEL,11000050103,East Branch Housatonic River,0,0,0,0,0,0,0,,,https://echo.epa.gov/detailed-facility-report?fid=MA0040312&sys=ICP
2018,ICIS,MAR053979,1.10056E+11,MEEHAN CONSTRUCTION CO INC,WESTHAMPTON,PIONEER VALLEY,MA,Non-Major,42.3149,-72.768524,1442,1442,CONSTRUCTION SAND AND GRAVEL,10802010607,North Branch Manhan River,0,0,0,0,0.433333333,0.8,,,,https://echo.epa.gov/detailed-facility-report?fid=MAR053979&sys=ICP
2018,ICIS,CT0026212,1.10011E+11,IBM CORPORATION,SOUTHBURY,NEW HAVEN,CT,Non-Major,41.469707,-73.213669,7371,7371,CUSTOM COMPUTER PROG SERVICES,11000050903,Pomperaug River,0,0,0,0,0,0,0,,,https://echo.epa.gov/detailed-facility-report?fid=CT0026212&sys=ICP
2018,ICIS,MAR053637,1.1E+11,VALLEY PLATING INCORPORATED,SPRINGFIELD,HAMPDEN,MA,Non-Major,42.12173,-72.57086,3471,3471,PLATING AND POLISHING,10802010702,Stony Brook-Connecticut River,0,0,0,0,0,0,,,,https://echo.epa.gov/detailed-facility-report?fid=MAR053637&sys=ICP
2018,ICIS,CT0030601,1.10002E+11,"SUZIO ASPHALT CO INC, L",MERIDEN,NEW HAVEN,CT,Non-Major,41.55612,-72.75622,2951,2951,PAVING MIXTURES AND BLOCKS,11000040103,Headwaters Quinnipiac River,0,0,0,0,1.4375,3.5,,,,https://echo.epa.gov/detailed-facility-report?fid=CT0030601&sys=ICP
2018,ICIS,NY0260312,1.1001E+11,"MOUNT VERNON DPW, CITY YARD",MOUNT VERNON,WESTCHESTER,NY,Non-Major,40.895833,-73.822222,7538,7538,GENERAL AUTO REPAIR SHOPS,20301020201,Hutchinson River-Eastchester Bay,0,0,0,0,0,0,0,,,https://echo.epa.gov/detailed-facility-report?fid=NY0260312&sys=ICP
2018,ICIS,NYR00F751,1.10008E+11,RIDGECREST FARMS MINE,HUNTINGTON,SUFFOLK,NY,Non-Major,40.87999,-73.425248,1442,1442,CONSTRUCTION SAND AND GRAVEL,20302010203,Huntington Harbor-Lloyd Harbor,0,0,0,0,0,0,,,,https://echo.epa.gov/detailed-facility-report?fid=NYR00F751&sys=ICP
2018,ICIS,MAR053587,1.1E+11,WESTFIELD ELECTROPLATING,WESTFIELD,HAMPDEN,MA,Non-Major,42.13126,-72.74491,3471,3471,PLATING AND POLISHING,10802060301,Moose Meadow Brook-Westfield River,0,0,0,0,4.486666667,14.2,,,,https://echo.epa.gov/detailed-facility-report?fid=MAR053587&sys=ICP
2018,ICIS,MAR05J027,1.10071E+11,SLUDGE ONLY LANDFILL,GARDNER,,MA,Non-Major,42.585,-72.0283,,,,10802020201,Otter River,0,0,0,0,0,0,,,,https://echo.epa.gov/detailed-facility-report?fid=MAR05J027&sys=ICP
2018,ICIS,NYR00G067,1.1007E+11,TACONIC YARD,CANAAN,COLUMBIA,NY,Non-Major,42.36146,-73.42636,2411,2411,LOGGING CAMPS/LOGGING CONTRACT,11000050201,Williams River,0,0,0,0,0,0,,,,https://echo.epa.gov/detailed-facility-report?fid=NYR00G067&sys=ICP
2018,ICIS,MAR053642,1.1E+11,LS STARRETT PRECISION TOOLS,ATHOL,WORCESTER,MA,Non-Major,42.595325,-72.226707,3423,3423,"HAND AND EDGE TOOLS, NEC",10802020204,Beaver Brook-Millers River,0,0,0,0,0,0,,,,https://echo.epa.gov/detailed-facility-report?fid=MAR053642&sys=ICP
2018,ICIS,MAR053644,1.10023E+11,FARMLAND FOODS CARANDO DIVISION,SPRINGFIELD,HAMPDEN,MA,Non-Major,42.145264,-72.536834,2013,2013,SAUSAGES & PREPARED MEAT PROD,10802040402,Outlet Chicopee River,0,0,0,0,0,0,,,,https://echo.epa.gov/detailed-facility-report?fid=MAR053644&sys=ICP
2018,ICIS,NYR00D814,1.10018E+11,H.O. PENN MACHINERY CO,BRONX,BRONX,NY,Non-Major,40.819,-73.837,5082,5082,CONST & MINING MACHINE & EQUIP,20301020105,Westchester Creek-East River,0,0,0,0,6.4,6.4,,,,https://echo.epa.gov/detailed-facility-report?fid=NYR00D814&sys=ICP
2018,ICIS,MAR05J009,1.1007E+11,NORTHEAST PAVING NORTHFIELD PLANT,NORTHFIELD,,MA,Non-Major,42.69299,-72.48533,,,,10802010501,Pauchaug Brook-Connecticut River,0,0,0,0,0,0,,,,https://echo.epa.gov/detailed-facility-report?fid=MAR05J009&sys=ICP
2018,ICIS,MAR053544,1.10018E+11,OCTOBER CO CHEMETAL DIVISION,EASTHAMPTON,HAMPSHIRE,MA,Non-Major,42.286131,-72.656148,3446,3446,ARCHITECTURAL METAL WORK,10802010609,Lower Manhan River,0,0,0,0,1.575,2,,,,https://echo.epa.gov/detailed-facility-report?fid=MAR053544&sys=ICP
2018,ICIS,MAR053188,1.1E+11,HYDE TOOLS,SOUTHBRIDGE,WORCESTER,MA,Non-Major,42.06861,-72.03782,3423,3423,"HAND AND EDGE TOOLS, NEC",11000010104,Cady Brook-Quinebaug River,0,0,0,0,0,0,,,,https://echo.epa.gov/detailed-facility-report?fid=MAR053188&sys=ICP
2018,ICIS,NHR053350,1.10001E+11,CANAM STEEL CORP,CLAREMONT,SULLIVAN,NH,Non-Major,43.343422,-72.3877,3441,3441,FABRICATED STRUCTURAL METAL,10801060702,Spencer Brook-Connecticut River,0,0,0,0,2.5775,6.81,,,,https://echo.epa.gov/detailed-facility-report?fid=NHR053350&sys=ICP
2018,ICIS,MAR053716,1.10003E+11,HAYDEN CORP,WEST SPRINGFIELD,HAMPDEN,MA,Non-Major,42.0992,-72.6254,3411,3411,METAL CANS,10802060305,Powerdmill Brook-Westfield River,0,0,0,0,0.1764,0.28,,,,https://echo.epa.gov/detailed-facility-report?fid=MAR053716&sys=ICP
2018,ICIS,MAR053413,1.1E+11,POLY METAL FINISHING INC,SPRINGFIELD,HAMPDEN,MA,Non-Major,42.097207,-72.561166,3471,3471,PLATING AND POLISHING,10802050101,Mill River,0,0,0,0,0.3675,1.2,,,,https://echo.epa.gov/detailed-facility-report?fid=MAR053413&sys=ICP
2018,ICIS,MAR053502,1.10007E+11,LANE CONSTRUCTION,LEE,BERKSHIRE,MA,Non-Major,42.334931,-73.242121,2951,2951,PAVING MIXTURES AND BLOCKS,11000050104,Sackett Brook-Housatonic River,0,0,0,0,0.137,0.345,,,,https://echo.epa.gov/detailed-facility-report?fid=MAR053502&sys=ICP
2018,ICIS,CT0030465,1.10031E+11,HAYNES MATERIALS COMPANY,DEEP RIVER,MIDDLESEX,CT,Non-Major,41.364706,-72.465156,1411,1411,DIMENSION STONE,10802050901,Deep River-Connecticut River,0,0,0,0,0,0,,,,https://echo.epa.gov/detailed-facility-report?fid=CT0030465&sys=ICP
2018,ICIS,MAR053641,1.10067E+11,BONDI ISLAND SANITARY LANDFILL,AGAWAM,HAMPDEN,MA,Non-Major,42.092143,-72.59052,,,,10802010702,Stony Brook-Connecticut River,0,0,0,0,2.340196079,28.08235295,,,,https://echo.epa.gov/detailed-facility-report?fid=MAR053641&sys=ICP
2018,ICIS,NY0026999,1.10001E+11,VILLAGE OF GREAT NECK STP,GREAT NECK,NASSAU,NY,Major,40.797722,-73.712139,4952,4952,SEWERAGE SYSTEMS,20302010102,Mitchells Creek-Manhassett Bay,0,0,0,0,5.310416667,6.525,,,,https://echo.epa.gov/detailed-facility-report?fid=NY0026999&sys=ICP
2018,ICIS,CT0030678,1.10063E+11,HAYNES MATERIALS COMPANY,NAUGATUCK,NEW HAVEN,CT,Non-Major,41.46777,-73.02014,,,,11000051207,Bladens River-Naugatuck River,0,0,0,0,0,0,,,,https://echo.epa.gov/detailed-facility-report?fid=CT0030678&sys=ICP
2018,ICIS,MA0001147,1.1E+11,SOLUTIA CHEMICAL MANUFACTURING PLANT,SPRINGFIELD,HAMPDEN,MA,Non-Major,42.154981,-72.526419,2821,2821,PLSTC MAT./SYN RESINS/NV ELAST,10802040402,Outlet Chicopee River,0,0,0,0,0.050509804,0.156470588,0.081434158,,,https://echo.epa.gov/detailed-facility-report?fid=MA0001147&sys=ICP
2018,ICIS,NH0021423,1.1001E+11,PINETREE POWER,BETHLEHEM,GRAFTON,NH,Non-Major,44.328297,-71.690298,4911,4911,ELECTRICAL SERVICES,10801030403,Baker Brook-Ammonoosuc River,0,0,0,0,0,0,0.0243,,,https://echo.epa.gov/detailed-facility-report?fid=NH0021423&sys=ICP
2018,ICIS,MAR053229,1.10065E+11,"BARKER STEEL LLC, A HARRIS REBAR COMPANY",SOUTH DEERFIELD,FRANKLIN,MA,Non-Major,42.47106,-72.61255,3441,3441,FABRICATED STRUCTURAL METAL,10802010604,West Brook-Mill River,0,0,0,0,0,0,,,,https://echo.epa.gov/detailed-facility-report?fid=MAR053229&sys=ICP
2018,ICIS,MAR05J00W,1.1E+11,SMITH & WESSON,SPRINGFIELD,HAMPDEN,MA,Non-Major,42.13722,-72.54706,3471,3471,PLATING AND POLISHING,10802040402,Outlet Chicopee River,0,0,0,0,0,0,,,,https://echo.epa.gov/detailed-facility-report?fid=MAR05J00W&sys=ICP
2018,ICIS,MAR053525,1.1E+11,TURF CARE SUPPLY CORP,HATFIELD,HAMPSHIRE,MA,Non-Major,42.368349,-72.632292,2875,2875,"FERTILIZERS, MIXING ONLY",10802010604,West Brook-Mill River,0,0,0,0,2.33375,11.59,,,,https://echo.epa.gov/detailed-facility-report?fid=MAR053525&sys=ICP
2018,ICIS,NHR053034,1.10001E+11,CANAM STEEL CORP,CLAREMONT,SULLIVAN,NH,Non-Major,43.343422,-72.3877,3441,3441,FABRICATED STRUCTURAL METAL,10801060702,Spencer Brook-Connecticut River,0,0,0,0,0,0,,,,https://echo.epa.gov/detailed-facility-report?fid=NHR053034&sys=ICP
2018,ICIS,MAR054041,1.1007E+11,"BILL WILLARD, INCORPORATED",FLORENCE,HAMPSHIRE,MA,Non-Major,42.30859,-72.71306,1442,1442,CONSTRUCTION SAND AND GRAVEL,10802010609,Lower Manhan River,0,0,0,0,0,0,,,,https://echo.epa.gov/detailed-facility-report?fid=MAR054041&sys=ICP
2018,ICIS,MA0101061,1.10007E+11,NORTH BROOKFIELD WASTE WATER TREATMENT PLANT,NORTH BROOKFIELD,WORCESTER,MA,Major,42.248876,-72.074475,4952,4952,SEWERAGE SYSTEMS,10802040303,Upper Quaboag River,0,0,0,0,0,0,0.362333333,,,https://echo.epa.gov/detailed-facility-report?fid=MA0101061&sys=ICP
2018,ICIS,CT0030341,1.1003E+11,ROCKVILLE WATER TREATMENT PLANT,VERNON,TOLLAND,CT,Non-Major,41.86911,-72.43475,,,,10802050401,Upper Hockanum River,0,0,0,0,0,0,0,,,https://echo.epa.gov/detailed-facility-report?fid=CT0030341&sys=ICP
2018,ICIS,NHR053111,1.10065E+11,LEBANON REGIONAL SOLID WASTE FACILITY,LEBANON,GRAFTON,NH,Non-Major,43.637946,-72.231288,,,,10801060106,Mascoma River,0,0,0,0,0,0,,,,https://echo.epa.gov/detailed-facility-report?fid=NHR053111&sys=ICP
2018,ICIS,MA0032573,1.10009E+11,NORTHFIELD MOUNT HERMON SCHOOL WASTEWATER TREATMENT PLANT,GILL,FRANKLIN,MA,Non-Major,42.63016,-72.51697,4952,4952,SEWERAGE SYSTEMS,10802010503,Dry Brook-Connecticut River,0,0,0,0,11.51,16.7,0.102083333,,,https://echo.epa.gov/detailed-facility-report?fid=MA0032573&sys=ICP
2018,ICIS,VT0101214,1.10011E+11,COLD BROOK FIRE DISTRICT NO. 1,WILMINGTON,WINDHAM,VT,Non-Major,42.89781,-72.85709,,,,10802030103,North Branch Deerfield River,0,0,0,0,0,0,0,,,https://echo.epa.gov/detailed-facility-report?fid=VT0101214&sys=ICP
2018,ICIS,NY0023311,1.10002E+11,SCSD#6 - KINGS PARK STP,KINGS PARK,SUFFOLK,NY,Major,40.895719,-73.231024,4952,4952,SEWERAGE SYSTEMS,20302010302,Nissequogue River,0,0,0,0,3.95,7.1,,,,https://echo.epa.gov/detailed-facility-report?fid=NY0023311&sys=ICP
2018,ICIS,NYR00C613,1.10033E+11,J & J LOG AND LUMBER CORP,DOVER PLAINS,DUTCHESS,NY,Non-Major,41.686,-73.565,2411,2411,LOGGING CAMPS/LOGGING CONTRACT,11000050506,Tenmile River,0,0,0,0,0,0,,,,https://echo.epa.gov/detailed-facility-report?fid=NYR00C613&sys=ICP
2018,ICIS,MA0005339,1.10001E+11,HOLYOKE WATER POWER MOUNT TOM STATION,HOLYOKE,HAMPDEN,MA,Non-Major,42.2806,-72.6054,4911,4911,ELECTRICAL SERVICES,10802010610,Dry Brook-Connecticut River,0,0,0,0,0,0,0.008833333,,,https://echo.epa.gov/detailed-facility-report?fid=MA0005339&sys=ICP
2018,ICIS,MAR053636,1.1E+11,STORMS FORGE INCORPORATED,SPRINGFIELD,HAMPDEN,MA,Non-Major,42.13927,-72.53861,3462,3462,IRON AND STEEL FORGINGS,10802040402,Outlet Chicopee River,0,0,0,0,0,0,,,,https://echo.epa.gov/detailed-facility-report?fid=MAR053636&sys=ICP
2018,ICIS,MAR053158,1.1E+11,JAMES AUSTIN (ELITE CHEMICAL),LUDLOW,HAMPDEN,MA,Non-Major,42.165068,-72.491318,2842,2842,"SPECIALTY CLEANING, POLISHING",10802040402,Outlet Chicopee River,0,0,0,0,0.345833333,0.48,,,,https://echo.epa.gov/detailed-facility-report?fid=MAR053158&sys=ICP
2018,ICIS,NYR00F586,1.10019E+11,HARLEM VALLEY SAND & GRAVEL MINE,WASSAIC,DUTCHESS,NY,Non-Major,41.78882,-73.53242,1442,1442,CONSTRUCTION SAND AND GRAVEL,11000050503,Outlet Webatuck Creek,0,0,0,0,0,0,,,,https://echo.epa.gov/detailed-facility-report?fid=NYR00F586&sys=ICP
2018,ICIS,MAR053201,1.10008E+11,EASTERN ETCHING & MANUFACTURING,CHICOPEE,HAMPDEN,MA,Non-Major,42.14963,-72.60421,3479,3479,METAL COATING & ALLIED SERVIC,10802040402,Outlet Chicopee River,0,0,0,0,0,0,,,,https://echo.epa.gov/detailed-facility-report?fid=MAR053201&sys=ICP
2018,ICIS,MAR053851,1.10068E+11,CONTECH ENGINEERED SOLUTIONS,PALMER,HAMPDEN,MA,Non-Major,42.14949,-72.31393,3444,3444,SHEET METAL WORK,10802040307,Lower Quaboag River,0,0,0,0,0.10175,0.16,,,,https://echo.epa.gov/detailed-facility-report?fid=MAR053851&sys=ICP
2018,ICIS,CT0030597,1.10008E+11,TILCON CONNECTICUT INC. - PLAINFIELD (WAUREGAN),WAUREGAN,WINDHAM,CT,Non-Major,41.741389,-71.890833,,,,11000010503,Lower Moosup River,0,0,0,0,0,0,,,,https://echo.epa.gov/detailed-facility-report?fid=CT0030597&sys=ICP
2018,ICIS,NYR00E083,1.10007E+11,AMENIA SAND & GRAVEL,AMENIA,DUTCHESS,NY,Non-Major,41.84088,-73.50957,2951,2951,PAVING MIXTURES AND BLOCKS,11000050503,Outlet Webatuck Creek,0,0,0,0,0,0,,,,https://echo.epa.gov/detailed-facility-report?fid=NYR00E083&sys=ICP
2018,ICIS,MA0102156,1.10009E+11,TEMPLETON DEVELOPMENT CENTER,TEMPLETON (BALDWINVILLE),WORCESTER,MA,Non-Major,42.591474,-72.116216,8211,8211,ELEMENTARY & SECONDARY SCHOOLS,10802020204,Beaver Brook-Millers River,0,0,0,0,0,0,,,,https://echo.epa.gov/detailed-facility-report?fid=MA0102156&sys=ICP
2018,ICIS,MAR05J00C,1.10071E+11,"GEORGE D. JUDD & SONS, LLC",GOSHEN,,MA,Non-Major,42.43678,-72.84583,1442,1442,CONSTRUCTION SAND AND GRAVEL,10802060105,Little River-Westfield River,0,0,0,0,0,0,,,,https://echo.epa.gov/detailed-facility-report?fid=MAR05J00C&sys=ICP
2018,ICIS,NY0098868,1.10033E+11,TACONIC DDSO,WASSAIC,DUTCHESS,NY,Non-Major,41.775056,-73.566972,8999,8999,"SERVICES, NEC",11000050506,Tenmile River,0,0,0,0,0,0,2.5E-05,,,https://echo.epa.gov/detailed-facility-report?fid=NY0098868&sys=ICP
2018,ICIS,MAR053490,1.1E+11,RODNEY HUNT COMPANY,ORANGE,FRANKLIN COUNTY,MA,Non-Major,42.5892,-72.3043,3441,3441,FABRICATED STRUCTURAL METAL,10802020205,Mill Brook-Millers River,0,0,0,0,0,0,,,,https://echo.epa.gov/detailed-facility-report?fid=MAR053490&sys=ICP
