"","Year","Data Source","NPDES Permit Number","FRS ID","Facility Name","City","County","State","Major/Non-Major Status","Facility Latitude","Facility Longitude","SIC Code","4-Digit SIC Code","SIC Description","HUC 12 Code","Watershed Name","Total Pounds (lb/yr)","Load Over Limit","Total TWPE (lb-eq/yr)","TWPE Over Limit","Avg Concentration (mg/L)","Max Concentration (mg/L)","Average Flow (MGD)","Links to TRI ID","Contains Potential Outliers?","Link to DFR"
"1",2007,"ICIS","NY0026191",1.10013e+11,"HUNTS POINT WATER POLLUTION CONTROL PLANT","BRONX","BRONX","NY","Major",40.803694,-73.885083,4952,4952,"SEWERAGE SYSTEMS",20301020105,"Westchester Creek-East River",6872600,0,0,0,0,0,NA,NA,NA,"https://echo.epa.gov/detailed-facility-report?fid=NY0026191&sys=ICP"
"2",2007,"ICIS","NY0026158",1.10001e+11,"NYCDEP - BOWERY BAY WPCP","ASTORIA","QUEENS","NY","Major",40.778405,-73.89459,4952,4952,"SEWERAGE SYSTEMS",20301020105,"Westchester Creek-East River",5943600,0,0,0,0,0,NA,NA,NA,"https://echo.epa.gov/detailed-facility-report?fid=NY0026158&sys=ICP"
"3",2007,"ICIS","MA0101613",1.10008e+11,"SPRINGFIELD REGIONAL WASTEWATER TREATMENT PLANT","AGAWAM","HAMPDEN","MA","Major",42.087793,-72.588998,4952,4952,"SEWERAGE SYSTEMS",10802010702,"Stony Brook-Connecticut River",3756314.782,0,0,0,13.36054167,133,43.28333333,NA,"Y","https://echo.epa.gov/detailed-facility-report?fid=MA0101613&sys=ICP"
"4",2007,"ICIS","NY0026239",1.10002e+11,"TALLMAN ISLAND WASTEWATER TREATMENT PLANT","COLLEGE POINT","QUEENS","NY","Major",40.795556,-73.839333,4952,4952,"SEWERAGE SYSTEMS",20301020105,"Westchester Creek-East River",2764700,0,0,0,16.27731316,17.97284303,55.75,NA,NA,"https://echo.epa.gov/detailed-facility-report?fid=NY0026239&sys=ICP"
"5",2007,"ICIS","CT0003760",1.10001e+11,"PSEG FOSSIL LLC/ POWER CT LLC","NEW HAVEN","NEW HAVEN","CT","Major",41.283986,-72.904546,4911,4911,"ELECTRICAL SERVICES",11000040208,"Indian River-Frontal Long Island Sound",2639085.937,0,0,0,1.1925,5.95,58.33994283,NA,NA,"https://echo.epa.gov/detailed-facility-report?fid=CT0003760&sys=ICP"
"6",2007,"ICIS","NY0026697",1.10019e+11,"NEW ROCHELLE STP","NEW ROCHELLE","WESTCHESTER","NY","Major",40.913,-73.769361,4952,4952,"SEWERAGE SYSTEMS",20301020203,"East Creek-Mamaroneck Harbor",625587,0,0,0,0,0,0.019517544,NA,NA,"https://echo.epa.gov/detailed-facility-report?fid=NY0026697&sys=ICP"
"7",2007,"ICIS","MA0101508",1.10001e+11,"CHICOPEE WATER POLLUTION CONTROL","CHICOPEE","HAMPDEN","MA","Major",42.15376,-72.62166,4952,4952,"SEWERAGE SYSTEMS",10802040402,"Outlet Chicopee River",565069.2842,0,0,0,6.487612385,9.320970631,9.505833333,NA,NA,"https://echo.epa.gov/detailed-facility-report?fid=MA0101508&sys=ICP"
"8",2007,"ICIS","MA0101681",1.10007e+11,"PITTSFIELD WASTEWATER TREATMENT FACILITY","PITTSFIELD","BERKSHIRE","MA","Major",42.407678,-73.24276,4952,4952,"SEWERAGE SYSTEMS",11000050104,"Sackett Brook-Housatonic River",459277.826,0,0,0,4.430416667,6.218333333,11.35833333,NA,NA,"https://echo.epa.gov/detailed-facility-report?fid=MA0101681&sys=ICP"
"9",2007,"ICIS","NY0026701",1.10019e+11,"MAMARONECK (V) SANITARY SD","MAMARONECK","WESTCHESTER","NY","Major",40.946833,-73.733694,4952,4952,"SEWERAGE SYSTEMS",20301020202,"Sheldrake River-Mamaroneck River",433700.544,0,0,0,0,0,15.09671233,NA,"Y","https://echo.epa.gov/detailed-facility-report?fid=NY0026701&sys=ICP"
"10",2007,"ICIS","CT0100510",1.10001e+11,"SOUTH WINDSOR WATER POLLUTION CONTROL FACILITY","SOUTH WINDSOR","HARTFORD","CT","Major",41.829512,-72.635461,4952,4952,"SEWERAGE SYSTEMS",10802050502,"Stoughton Brook-Connecticut River",396786.8443,0,0,0,54.90166667,403,1.771666667,NA,NA,"https://echo.epa.gov/detailed-facility-report?fid=CT0100510&sys=ICP"
"11",2007,"ICIS","CT0101249",1.10007e+11,"NORWALK WASTEWATER TREATMENT PLANT","NORWALK","FAIRFIELD","CT","Major",41.102216,-73.412604,4952,4952,"SEWERAGE SYSTEMS",11000060202,"Norwalk River-Frontal Norwalk Harbor",355483,0,0,0,8.513020469,10.56031455,14.11666667,NA,NA,"https://echo.epa.gov/detailed-facility-report?fid=CT0101249&sys=ICP"
"12",2007,"ICIS","MA0101630",1.10001e+11,"HOLYOKE WATER POLLUTION CONTROL FACILITY","HOLYOKE","HAMPDEN","MA","Major",42.191041,-72.612574,4952,4952,"SEWERAGE SYSTEMS",10802010702,"Stony Brook-Connecticut River",294031.1833,0,0,0,4.579416667,7.15,10.53333333,NA,NA,"https://echo.epa.gov/detailed-facility-report?fid=MA0101630&sys=ICP"
"13",2007,"ICIS","MA0100994",1.10044e+11,"GARDNER WWTF","EAST TEMPLETON","WORCESTER","MA","Major",42.5698,-72.0201,4952,4952,"SEWERAGE SYSTEMS",10802020201,"Otter River",290687.9001,0,0,0,10.62083333,14.5,3.391666667,NA,NA,"https://echo.epa.gov/detailed-facility-report?fid=MA0100994&sys=ICP"
"14",2007,"ICIS","CT0101087",1.10056e+11,"STAMFORD WATER POLLUTION CONTROL FACILITY","STAMFORD","FAIRFIELD","CT","Major",41.046247,-73.52996,4952,4952,"SEWERAGE SYSTEMS",11000060404,"Fivemile River",255327.3008,0,0,0,4.675,6.8,17.49166667,NA,NA,"https://echo.epa.gov/detailed-facility-report?fid=CT0101087&sys=ICP"
"15",2007,"ICIS","NY0026786",1.10001e+11,"PORT CHESTER  WASTEWATER TREATMENT PLANT","PORT CHESTER","WESTCHESTER","NY","Major",40.992028,-73.658556,4952,4952,"SEWERAGE SYSTEMS",11000060403,"Byram River",245014,0,0,0,0,0,4.647945205,NA,NA,"https://echo.epa.gov/detailed-facility-report?fid=NY0026786&sys=ICP"
"16",2007,"ICIS","MA0100218",1.1001e+11,"AMHERST WASTEWATER TREATMENT PLANT","HADLEY","HAMPSHIRE","MA","Major",42.387696,-72.537382,4952,4952,"SEWERAGE SYSTEMS",10802010603,"Doolittle Brook-Mill River",236964.4247,0,0,0,10.54583333,22.05,3.739666667,NA,NA,"https://echo.epa.gov/detailed-facility-report?fid=MA0100218&sys=ICP"
"17",2007,"ICIS","CT0101036",1.10001e+11,"STRATFORD WATER POLLUTION CONTROL FACILITY","STRATFORD","FAIRFIELD","CT","Major",41.17816,-73.1257,4952,4952,"SEWERAGE SYSTEMS",11000051302,"Housatonic River-Frontal Long Island Sound",226097.215,0,0,0,10.0875,16.9,7.536666667,NA,NA,"https://echo.epa.gov/detailed-facility-report?fid=CT0101036&sys=ICP"
"18",2007,"ICIS","MA0101818",1.10002e+11,"NORTHAMPTON WASTEWATER TREATMENT PLANT","NORTHAMPTON","HAMPSHIRE","MA","Major",42.313056,-72.623333,4952,4952,"SEWERAGE SYSTEMS",10802010610,"Dry Brook-Connecticut River",197054.87,0,0,0,3.730666058,11.68527039,2.170833333,NA,NA,"https://echo.epa.gov/detailed-facility-report?fid=MA0101818&sys=ICP"
"19",2007,"ICIS","MA0101168",1.1001e+11,"PALMER WATER POLLUTION CONTROL FACILITY","PALMER (THREE RIVERS)","HAMPDEN","MA","Major",42.185311,-72.362228,4952,4952,"SEWERAGE SYSTEMS",10802040207,"Danforth Brook-Ware River",181802.3433,0,0,0,6.162444444,8.246666667,2.441666667,NA,NA,"https://echo.epa.gov/detailed-facility-report?fid=MA0101168&sys=ICP"
"20",2007,"ICIS","NY0026778",1.10002e+11,"WATER POLL CONTR DIST","PORT WASHINGTON","NASSAU","NY","Major",40.83944,-73.69721,4952,4952,"SEWERAGE SYSTEMS",20302010102,"Mitchells Creek-Manhassett Bay",179078.1607,0,0,0,3.501666667,7.836666667,2.791666667,NA,NA,"https://echo.epa.gov/detailed-facility-report?fid=NY0026778&sys=ICP"
"21",2007,"ICIS","MA0100439",1.10024e+11,"WEBSTER WASTWATER TREATMENT FACILITY","WEBSTER","WORCESTER","MA","Major",42.038576,-71.888022,4952,4952,"SEWERAGE SYSTEMS",11000010203,"Middle French River",151292.9651,0,0,0,5.526944444,7.733333333,3.042833333,NA,NA,"https://echo.epa.gov/detailed-facility-report?fid=MA0100439&sys=ICP"
"22",2007,"ICIS","CT0100641",1.10001e+11,"NAUGATUCK WATER POLLUTION CONTROL FACILITY","NAUGATUCK","NEW HAVEN","CT","Major",41.472975,-73.053986,4952,4952,"SEWERAGE SYSTEMS",11000051205,"Long Meadow Pond Brook-Naugatuck River",135135.6319,0,0,0,9.2,18.3,4.666666667,NA,NA,"https://echo.epa.gov/detailed-facility-report?fid=CT0100641&sys=ICP"
"23",2007,"ICIS","MA0101214",1.10024e+11,"GREENFIELD WATER POLLUTION CONTROL FACILITY","GREENFIELD","FRANKLIN","MA","Major",42.571367,-72.598121,4952,4952,"SEWERAGE SYSTEMS",10802030402,"Lower Green River",133435.6971,0,0,0,14.9375914,19.81066667,3.177483333,NA,NA,"https://echo.epa.gov/detailed-facility-report?fid=MA0101214&sys=ICP"
"24",2007,"ICIS","NY0026719",1.10001e+11,"BLIND BROOK SD WWTP","RYE","WESTCHESTER","NY","Major",40.96475,-73.690778,4952,4952,"SEWERAGE SYSTEMS",11000060405,"Blind Brook-Horseneck Brook",118931,0,0,0,10.72160424,13.86945421,3.700833333,NA,NA,"https://echo.epa.gov/detailed-facility-report?fid=NY0026719&sys=ICP"
"25",2007,"ICIS","MA0100455",1.10001e+11,"SOUTH HADLEY WASTEWATER TREATMENT FACILITY","CHICOPEE","HAMPDEN","MA","Major",42.205371,-72.58814,4952,4952,"SEWERAGE SYSTEMS",10802010702,"Stony Brook-Connecticut River",115591.2144,0,0,0,8.470818182,15.0195,2.309166667,NA,NA,"https://echo.epa.gov/detailed-facility-report?fid=MA0100455&sys=ICP"
"26",2007,"ICIS","CT0003875",1.10002e+11,"CRRA MID-CONN FACILITY","HARTFORD","HARTFORD","CT","Major",41.748663,-72.650764,4911,4911,"ELECTRICAL SERVICES",10802050505,"Goff Brook-Connecticut River",107905.0636,0,0,0,0.271666667,0.386666667,14.04824642,NA,NA,"https://echo.epa.gov/detailed-facility-report?fid=CT0003875&sys=ICP"
"27",2007,"ICIS","NY0026841",1.10007e+11,"BELGRAVE WPCP","GREAT NECK","NASSAU","NY","Major",40.778861,-73.7425,4952,4952,"SEWERAGE SYSTEMS",20302010101,"Alley Creek-Little Neck Bay",102139.4594,0,0,0,7.177194444,8.034666667,1.555,NA,NA,"https://echo.epa.gov/detailed-facility-report?fid=NY0026841&sys=ICP"
"28",2007,"ICIS","NY0022128",1.10065e+11,"GREAT NECK (V) WPCP","GREAT NECK","NASSAU","NY","Major",40.797539,-73.713261,4952,4952,"SEWERAGE SYSTEMS",20302010102,"Mitchells Creek-Manhassett Bay",94325,0,0,0,0,0,0.919936986,NA,NA,"https://echo.epa.gov/detailed-facility-report?fid=NY0022128&sys=ICP"
"29",2007,"ICIS","NHG580099",1.10002e+11,"HANOVER WASTEWATER TREATMENT FACILITY","HANOVER","GRAFTON","NH","Non-Major",43.69523,-72.297549,4952,4952,"SEWERAGE SYSTEMS",10801040401,"Mink Brook",79138.79831,0,0,0,59.20860215,75.48387097,1.352833333,NA,NA,"https://echo.epa.gov/detailed-facility-report?fid=NHG580099&sys=ICP"
"30",2007,"ICIS","NH0001562",1.1e+11,"GROVETON PAPER BOARD MILL (FORMER)","NORTHUMBERLAND","COOS","NH","Major",44.598865,-71.510138,2621,2621,"PAPER MILLS",10801010707,"Upper Ammonoosuc River",79107.1923,0,0,0,4.783333333,8.325,1.047333333,NA,NA,"https://echo.epa.gov/detailed-facility-report?fid=NH0001562&sys=ICP"
"31",2007,"ICIS","NY0026620",1.10001e+11,"GLEN COVE WASTEWATER TREATMENT FACILITY","GLEN COVE","NASSAU","NY","Major",40.858722,-73.641667,4952,4952,"SEWERAGE SYSTEMS",20302010103,"Glen Cove Creek-Hempstead Harbor",77222.47257,0,0,0,1.301,3.026666667,3.208333333,NA,NA,"https://echo.epa.gov/detailed-facility-report?fid=NY0026620&sys=ICP"
"32",2007,"ICIS","CT0003263",1.10017e+11,"DOMINION MILLSTONE NUCLEAR POWER STATION","WATERFORD","NEW LONDON","CT","Major",41.307765,-72.165617,4911,4911,"ELECTRICAL SERVICES",11000030305,"Fenger Brook-Frontal Lond Island Sound",76615.7918,0,0,0,0.03,0.05,108.6769906,NA,NA,"https://echo.epa.gov/detailed-facility-report?fid=CT0003263&sys=ICP"
"33",2007,"ICIS","MA0101524",1.10001e+11,"GREAT BARRINGTON WASTEWATER TREATMENT FACILITY","GREAT BARRINGTON","BERKSHIRE","MA","Major",42.18994,-73.35709,4952,4952,"SEWERAGE SYSTEMS",11000050204,"Ironwork Brook-Housatonic River",75469.36838,0,0,0,3.798166667,8.311666667,1.63025,NA,NA,"https://echo.epa.gov/detailed-facility-report?fid=MA0101524&sys=ICP"
"34",2007,"ICIS","MA0100005",1.10007e+11,"ATHOL WASTEWATER TREATMENT FACILITY","ATHOL","WORCESTER","MA","Major",42.586234,-72.242982,4952,4952,"SEWERAGE SYSTEMS",10802020204,"Beaver Brook-Millers River",75330.6425,0,0,0,11.30691881,25.74170231,1.069833333,NA,NA,"https://echo.epa.gov/detailed-facility-report?fid=MA0100005&sys=ICP"
"35",2007,"ICIS","MA0000671",1.10002e+11,"CRANE WASTEWATER TREATEMENT PLANT","DALTON","BERKSHIRE","MA","Major",42.46776,-73.18482,2621,2621,"PAPER MILLS",11000050103,"East Branch Housatonic River",55353.95639,0,0,0,2.7075,4.6,3.41225,NA,NA,"https://echo.epa.gov/detailed-facility-report?fid=MA0000671&sys=ICP"
"36",2007,"ICIS","MA0101800",1.10024e+11,"WESTFIELD WASTEWATER TREATMENT PLANT","WESTFIELD","HAMPDEN","MA","Non-Major",42.125314,-72.730211,4952,4952,"SEWERAGE SYSTEMS",10802060301,"Moose Meadow Brook-Westfield River",52508.20702,0,0,0,4.828181818,17,3.668636364,NA,NA,"https://echo.epa.gov/detailed-facility-report?fid=MA0101800&sys=ICP"
"37",2007,"ICIS","MA0101516",1.10001e+11,"ERVING WASTEWATER TREATMENT PLANT #1","ERVING","FRANKLIN","MA","Major",42.588774,-72.49445,4952,4952,"SEWERAGE SYSTEMS",10802020207,"Lyons Brook-Millers River",49242.39166,0,0,0,32.81912097,45.225,0.398416667,NA,NA,"https://echo.epa.gov/detailed-facility-report?fid=MA0101516&sys=ICP"
"38",2007,"ICIS","CT0100625",1.10002e+11,"WATERBURY WATER POLLUTION CONTROL FACILITY","WATERBURY","NEW HAVEN","CT","Major",41.52161,-73.04427,4952,4952,"SEWERAGE SYSTEMS",11000051205,"Long Meadow Pond Brook-Naugatuck River",43030.73802,0,0,0,0.75,1.12,21.00833333,NA,NA,"https://echo.epa.gov/detailed-facility-report?fid=CT0100625&sys=ICP"
"39",2007,"ICIS","MA0100099",1.1001e+11,"HADLEY WASTEWATER TREATMENT PLANT","HADLEY","HAMPSHIRE","MA","Non-Major",42.32859,-72.586487,4952,4952,"SEWERAGE SYSTEMS",10802010610,"Dry Brook-Connecticut River",36182.16877,0,0,0,24.45134409,38.33333333,0.36385,NA,NA,"https://echo.epa.gov/detailed-facility-report?fid=MA0100099&sys=ICP"
"40",2007,"ICIS","MA0100935",1.10009e+11,"LENOX CENTER WASTEWATER TREATMENT FACILITY","LENOX","BERKSHIRE","MA","Major",42.34831,-73.24545,4952,4952,"SEWERAGE SYSTEMS",11000050104,"Sackett Brook-Housatonic River",34534.05448,0,0,0,5.0775,9.063333333,0.74975,NA,NA,"https://echo.epa.gov/detailed-facility-report?fid=MA0100935&sys=ICP"
"41",2007,"ICIS","CT0100617",1.10001e+11,"WALLINGFORD WATER POLLUTION CONTROL FACILITY","WALLINGFORD","NEW HAVEN","CT","Major",41.446099,-72.837583,4952,4952,"SEWERAGE SYSTEMS",11000040105,"Outlet Quinnipiac River",34205.26451,0,0,0,2.075,6.2,5.365,NA,NA,"https://echo.epa.gov/detailed-facility-report?fid=CT0100617&sys=ICP"
"42",2007,"ICIS","MA0101061",1.10007e+11,"NORTH BROOKFIELD WASTE WATER TREATMENT PLANT","NORTH BROOKFIELD","WORCESTER","MA","Major",42.248876,-72.074475,4952,4952,"SEWERAGE SYSTEMS",10802040303,"Upper Quaboag River",30519.81,0,0,0,11.58972035,34.02002431,0.443916667,NA,NA,"https://echo.epa.gov/detailed-facility-report?fid=MA0101061&sys=ICP"
"43",2007,"ICIS","MA0100153",1.10001e+11,"LEE WASTEWATER TREATMENT FACILITY","LEE","BERKSHIRE","MA","Major",42.286286,-73.241279,4952,4952,"SEWERAGE SYSTEMS",11000050105,"Goose Pond Brook-Housatonic River",29501.74597,0,0,0,4.339722222,12.15666667,0.752416667,NA,NA,"https://echo.epa.gov/detailed-facility-report?fid=MA0100153&sys=ICP"
"44",2007,"ICIS","NH0100200",1.10007e+11,"NEWPORT WASTEWATER TREATMENT FACILITY","NEWPORT","SULLIVAN","NH","Major",43.376645,-72.181957,4952,4952,"SEWERAGE SYSTEMS",10801060405,"Long Pond Brook-Sugar River",29193.37798,0,0,0,14.63333333,24,0.656666667,NA,NA,"https://echo.epa.gov/detailed-facility-report?fid=NH0100200&sys=ICP"
"45",2007,"ICIS","MA0100137",1.10001e+11,"MONTAGUE WASTEWATER TREATMENT FACILITY","MONTAGUE","FRANKLIN","MA","Major",42.5808,-72.57232,4952,4952,"SEWERAGE SYSTEMS",10802010602,"Russellville Brook-Connecticut River",28748.28612,0,0,0,3.795416667,6.95,1.049833333,NA,NA,"https://echo.epa.gov/detailed-facility-report?fid=MA0100137&sys=ICP"
"46",2007,"ICIS","MA0110264",1.10007e+11,"AUSTRALIS AQUACULTURE, LLC","MONTAGUE (TURNERS FALLS)","FRANKLIN","MA","Non-Major",42.59159,-72.5291,921,921,"FISH HATCHERIES AND PRESERVES",10802010503,"Dry Brook-Connecticut River",27942.56502,0,0,0,26.205,73.795,0.04375,NA,NA,"https://echo.epa.gov/detailed-facility-report?fid=MA0110264&sys=ICP"
"47",2007,"ICIS","MA0101257",1.10007e+11,"ORANGE WASTEWATER TREATMENT PLANT","ORANGE","FRANKLIN","MA","Major",42.59606,-72.33146,4952,4952,"SEWERAGE SYSTEMS",10802020205,"Mill Brook-Millers River",27826.41144,0,0,0,13.14075,24.2515,1.005181818,NA,NA,"https://echo.epa.gov/detailed-facility-report?fid=MA0101257&sys=ICP"
"48",2007,"ICIS","CT0025305",1.1e+11,"UNIMETAL SURFACE FINISHING, LLC","THOMASTON","LITCHFIELD","CT","Major",41.66935,-73.07774,3471,3471,"PLATING AND POLISHING",11000051105,"Northfield Brook-Naugatuck River",25792.31768,0,0,0,25.390625,38.275,0.041512708,NA,NA,"https://echo.epa.gov/detailed-facility-report?fid=CT0025305&sys=ICP"
"49",2007,"ICIS","NY0206644",1.1001e+11,"SUFFOLK CO SD#21 SUNY","STONY BROOK","SUFFOLK","NY","Major",40.924472,-73.121139,4952,4952,"SEWERAGE SYSTEMS",20302010304,"Mt Sinai Harbor-Port Jefferson Harbor",24861.63676,0,0,0,0.833333333,2.216666667,0.812666667,NA,NA,"https://echo.epa.gov/detailed-facility-report?fid=NY0206644&sys=ICP"
"50",2007,"ICIS","CT0100455",1.10056e+11,"PLAINVILLE WPCF","PLAINVILLE","HARTFORD","CT","Major",41.68032,-72.86501,4952,4952,"SEWERAGE SYSTEMS",10802070404,"Pequabuck River",24649.62022,5448.729776,0,5448.729776,3.8925,6.34,2.088333333,NA,NA,"https://echo.epa.gov/detailed-facility-report?fid=CT0100455&sys=ICP"
"51",2007,"ICIS","MA0100862",1.10001e+11,"WINCHENDON WATER POLLUTION CONTROL FACILITY","WINCHENDON","WORCESTER","MA","Major",42.68367,-72.08202,4952,4952,"SEWERAGE SYSTEMS",10802020103,"Torbell Brook-Millers River",23833.15979,0,0,0,7.420201726,18,0.26625,NA,NA,"https://echo.epa.gov/detailed-facility-report?fid=MA0100862&sys=ICP"
"52",2007,"ICIS","NY0021750",1.10008e+11,"NATIONAL GRID - PORT JEFFERSON POWER STATION","PORT JEFFERSON","SUFFOLK","NY","Major",40.94969,-73.078431,4952,4952,"SEWERAGE SYSTEMS",20302010304,"Mt Sinai Harbor-Port Jefferson Harbor",23706,0,0,0,5.222652915,18.87033456,0.365708333,NA,NA,"https://echo.epa.gov/detailed-facility-report?fid=NY0021750&sys=ICP"
"53",2007,"ICIS","CT0101320",1.1004e+11,"UNIVERSITY OF CT WATER POLLUTION CONTROL FACILITY","STORRS","TOLLAND","CT","Major",41.811635,-72.263126,8221,8221,"COLLEGES, UNIV & PROF SCHOOLS",11000020108,"Nelson Brook-Willimantic River",23186.60652,0,0,0,7.155833333,11.75,1.043083333,NA,NA,"https://echo.epa.gov/detailed-facility-report?fid=CT0101320&sys=ICP"
"54",2007,"ICIS","MA0100889",1.10007e+11,"WARE WASTEWATER TREATMENT PLANT","WARE","HAMPSHIRE","MA","Major",42.25194,-72.25514,4952,4952,"SEWERAGE SYSTEMS",10802040207,"Danforth Brook-Ware River",22535.47786,0,0,0,6.613332786,11.34777106,0.623666667,NA,NA,"https://echo.epa.gov/detailed-facility-report?fid=MA0100889&sys=ICP"
"55",2007,"ICIS","MA0101052",1.10023e+11,"ERVING WASTEWATER TREATMENT PLANT #2","ERVING","FRANKLIN","MA","Major",42.5975,-72.3879,4952,4952,"SEWERAGE SYSTEMS",10802020207,"Lyons Brook-Millers River",22168.93755,0,0,0,1.158493905,3.461111111,1.6845,NA,NA,"https://echo.epa.gov/detailed-facility-report?fid=MA0101052&sys=ICP"
"56",2007,"ICIS","CT0100315",1.10001e+11,"MERIDEN WATER POLLUTION CONTROL FACILITY","MERIDEN","NEW HAVEN","CT","Major",41.513431,-72.827878,4952,4952,"SEWERAGE SYSTEMS",11000040105,"Outlet Quinnipiac River",22166.90199,0,0,0,0.635,1.54,10.26666667,NA,NA,"https://echo.epa.gov/detailed-facility-report?fid=CT0100315&sys=ICP"
"57",2007,"ICIS","CT0003212",1.10033e+11,"KIMBERLY-CLARK TISSUE MILL","NEW MILFORD","LITCHFIELD","CT","Major",41.5567,-73.4102,2676,2676,"SANITARY PAPER PRODUCTS",11000050604,"Great Brook-Housatonic River",20473.5132,0,0,0,2.387819691,3.345087721,1.300833333,NA,NA,"https://echo.epa.gov/detailed-facility-report?fid=CT0003212&sys=ICP"
"58",2007,"ICIS","CT0100218",1.10001e+11,"FARMINGTON WPCF","FARMINGTON","HARTFORD","CT","Major",41.728989,-72.828711,4952,4952,"SEWERAGE SYSTEMS",10802070405,"Roaring Brook-Farmington River",20214.09742,0,0,0,2.08,5.8,3.875,NA,NA,"https://echo.epa.gov/detailed-facility-report?fid=CT0100218&sys=ICP"
"59",2007,"ICIS","MA0003697",1.10001e+11,"BARNHARDT MANUFACTURING","COLRAIN","FRANKLIN","MA","Major",42.655709,-72.714796,2269,2269,"FINISHERS OF TEXTILES, NEC",10802030302,"Taylor Brook-North River",19888.4678,0,0,0,13.80916667,28,0.23,NA,"Y","https://echo.epa.gov/detailed-facility-report?fid=MA0003697&sys=ICP"
"60",2007,"ICIS","MA0103152",1.10007e+11,"BARRE WASTEWATER TREATMENT FACILITY","BARRE","WORCESTER","MA","Non-Major",42.37624,-72.12048,4952,4952,"SEWERAGE SYSTEMS",10802040205,"Winimusset Brook-Ware River",19167.24,0,0,0,45.29930973,111.7010958,0.21458,NA,NA,"https://echo.epa.gov/detailed-facility-report?fid=MA0103152&sys=ICP"
"61",2007,"ICIS","CT0100579",1.1003e+11,"TORRINGTON WATER POLLUTION CONTROL FACILITY","TORRINGTON","LITCHFIELD","CT","Major",41.780542,-73.116477,4952,4952,"SEWERAGE SYSTEMS",11000051105,"Northfield Brook-Naugatuck River",19128.08178,1362.180149,0,1362.180149,1.014285714,3.05,4.7075,NA,NA,"https://echo.epa.gov/detailed-facility-report?fid=CT0100579&sys=ICP"
"62",2007,"ICIS","NH0100544",1.10002e+11,"SUNAPEE WASTEWATER TREATMENT FACILITY","SUNAPEE","SULLIVAN","NH","Major",43.379784,-72.113507,4952,4952,"SEWERAGE SYSTEMS",10801060405,"Long Pond Brook-Sugar River",18382.33414,0,0,0,49.28719355,88.5483871,0.348541667,NA,NA,"https://echo.epa.gov/detailed-facility-report?fid=NH0100544&sys=ICP"
"63",2007,"ICIS","MA0101141",1.10002e+11,"CHARLTON WASTEWATER TREATMENT FACILITY","CHARLTON","WORCESTER","MA","Major",42.141435,-71.995382,4952,4952,"SEWERAGE SYSTEMS",11000010104,"Cady Brook-Quinebaug River",18109.50468,0,0,0,23.22546659,55.51,0.19,NA,NA,"https://echo.epa.gov/detailed-facility-report?fid=MA0101141&sys=ICP"
"64",2007,"ICIS","NH0100145",1.10007e+11,"LANCASTER WASTEWATER TREATMENT FACILITY","LANCASTER","COOS","NH","Major",44.484948,-71.595363,4952,4952,"SEWERAGE SYSTEMS",10801010903,"Mink Brook-Connecticut River",17794.80739,0,0,0,28.52,28.52,0.981416667,NA,NA,"https://echo.epa.gov/detailed-facility-report?fid=NH0100145&sys=ICP"
"65",2007,"ICIS","CT0100404",1.10002e+11,"NORTH HAVEN WATER POLLUTION CONTROL FACILITY","NORTH HAVEN","NEW HAVEN","CT","Major",41.364329,-72.871671,4952,4952,"SEWERAGE SYSTEMS",11000040104,"Muddy River",17528.90455,0,0,0,1.808333333,6.7,3.243333333,NA,NA,"https://echo.epa.gov/detailed-facility-report?fid=CT0100404&sys=ICP"
"66",2007,"ICIS","CT0000434",1.10036e+11,"AHLSTROM NONWOVENS","WINDSOR LOCKS","HARTFORD","CT","Major",41.925376,-72.625924,2621,2621,"PAPER MILLS",10802050105,"Freshwater Brook-Connecticut River",17209.45352,0,0,0,1.321666667,2.16,0.828781338,NA,NA,"https://echo.epa.gov/detailed-facility-report?fid=CT0000434&sys=ICP"
"67",2007,"ICIS","MA0101290",1.1001e+11,"HATFIELD WASTEWATER TREATMENT FACILITY","HATFIELD","HAMPSHIRE","MA","Non-Major",42.394226,-72.592828,4952,4952,"SEWERAGE SYSTEMS",10802010602,"Russellville Brook-Connecticut River",16712.17024,0,0,0,43.32847715,54.97,0.201,NA,NA,"https://echo.epa.gov/detailed-facility-report?fid=MA0101290&sys=ICP"
"68",2007,"ICIS","MA0100919",1.10001e+11,"SPENCER WASTEWATER TREATMENT PLANT","SPENCER","WORCESTER","MA","Major",42.231774,-72.013348,4952,4952,"SEWERAGE SYSTEMS",10802040301,"Sevenmile River",16117.52727,0,0,0,2.32618865,8.565436005,0.369166667,NA,NA,"https://echo.epa.gov/detailed-facility-report?fid=MA0100919&sys=ICP"
"69",2007,"ICIS","NH0100790",1.10002e+11,"KEENE WASTEWATER TREATMENT FACILITY","KEENE","CHESHIRE","NH","Major",42.89049,-72.27547,4952,4952,"SEWERAGE SYSTEMS",10802010303,"South Branch Ashuelot River",15985.2,0,0,0,1.355453031,6.19317376,3.2985,NA,NA,"https://echo.epa.gov/detailed-facility-report?fid=NH0100790&sys=ICP"
"70",2007,"ICIS","MA0100421",1.10002e+11,"STURBRIDGE WATER POLLUTION CONTROL FACILITY","STURBRIDGE","WORCESTER","MA","Major",42.104697,-72.088066,4952,4952,"SEWERAGE SYSTEMS",11000010103,"McKinstry Brook-Quinebaug River",15638.49812,0,0,0,2.787777778,5.136666667,0.617083333,NA,"Y","https://echo.epa.gov/detailed-facility-report?fid=MA0100421&sys=ICP"
"71",2007,"ICIS","NY0109584",1.1002e+11,"NORTH CASTLE (T) SD#2","ARMONK","WESTCHESTER","NY","Non-Major",41.120361,-73.710806,4952,4952,"SEWERAGE SYSTEMS",11000060403,"Byram River",15590.52,0,0,0,9.136727273,20.86,0.29429589,NA,NA,"https://echo.epa.gov/detailed-facility-report?fid=NY0109584&sys=ICP"
"72",2007,"ICIS","MA0100901",1.10024e+11,"SOUTHBRIDGE WASTEWTER TREATMENT FACILITY","SOUTHBRIDGE","WORCESTER","MA","Major",42.06969,-72.0063,4952,4952,"SEWERAGE SYSTEMS",11000010104,"Cady Brook-Quinebaug River",14960.98623,0,0,0,1.457142857,5.6,2.296666667,NA,NA,"https://echo.epa.gov/detailed-facility-report?fid=MA0100901&sys=ICP"
"73",2007,"ICIS","CT0101273",1.1004e+11,"NEW CANAAN WASTEWATER TREATMENT PLANT","NEW CANAAN","FAIRFIELD","CT","Major",41.14066,-73.48368,4952,4952,"SEWERAGE SYSTEMS",11000060404,"Fivemile River",14880.75506,0,0,0,4.566666667,6.7,1.036916667,NA,NA,"https://echo.epa.gov/detailed-facility-report?fid=CT0101273&sys=ICP"
"74",2007,"ICIS","MA0101567",1.10001e+11,"WARREN WASTEWATER TREATMENT PLANT","WARREN","WORCESTER","MA","Major",42.210084,-72.24737,4952,4952,"SEWERAGE SYSTEMS",10802040305,"Middle Quaboag River",14408,0,0,0,7.383321699,11.44338321,0.323333333,NA,NA,"https://echo.epa.gov/detailed-facility-report?fid=MA0101567&sys=ICP"
"75",2007,"ICIS","MA0001716",1.10008e+11,"MEADWESTVACO CUSTOM PAPERS LAUREL MILL","LEE","BERKSHIRE","MA","Major",42.278795,-73.264413,2621,2621,"PAPER MILLS",11000050107,"Konkapot Brook-Housatonic River",13217.2745,0,0,0,1.456111111,3.033333333,0.525,NA,NA,"https://echo.epa.gov/detailed-facility-report?fid=MA0001716&sys=ICP"
"76",2007,"ICIS","MA0101087",1.1001e+11,"STOCKBRIDGE WASTEWATER TREATMENT PLANT","STOCKBRIDGE","BERKSHIRE","MA","Non-Major",42.293751,-73.325903,4952,4952,"SEWERAGE SYSTEMS",11000050107,"Konkapot Brook-Housatonic River",12975.59817,0,0,0,6.068333333,9.75,0.226308333,NA,NA,"https://echo.epa.gov/detailed-facility-report?fid=MA0101087&sys=ICP"
"77",2007,"ICIS","CT0100145",1.10001e+11,"DANBURY WATER POLLUTION CONTROL FACILITY","DANBURY","FAIRFIELD","CT","Major",41.402711,-73.418112,4952,4952,"SEWERAGE SYSTEMS",11000050802,"Limekiln Brook-Still River",12913.81667,0,0,0,0.461666667,1.78,8.833333333,NA,NA,"https://echo.epa.gov/detailed-facility-report?fid=CT0100145&sys=ICP"
"78",2007,"ICIS","MA0102148",1.10002e+11,"BELCHERTOWN WATER RECLAMATION FACILITY","BELCHERTOWN","HAMPSHIRE","MA","Major",42.281579,-72.42563,4952,4952,"SEWERAGE SYSTEMS",10802010701,"Batchelor Brook",11967.07564,0,0,0,5.162083333,10.25,0.37575,NA,NA,"https://echo.epa.gov/detailed-facility-report?fid=MA0102148&sys=ICP"
"79",2007,"ICIS","MA0001848",1.10011e+11,"ONYX SPECIALTY PAPERS INC - WILLOW MILL","LEE","BERKSHIRE","MA","Major",42.274705,-73.286202,2621,2621,"PAPER MILLS",11000050107,"Konkapot Brook-Housatonic River",11416.15712,0,0,0,1.249166667,2.166666667,1,NA,NA,"https://echo.epa.gov/detailed-facility-report?fid=MA0001848&sys=ICP"
"80",2007,"ICIS","NHG580501",1.10028e+11,"BETHLEHEM VILLAGE WASTEWATER TREATMENT PLANT","BETHLEHEM","GRAFTON","NH","Non-Major",44.28789,-71.6821,NA,NA,NA,10801030403,"Baker Brook-Ammonoosuc River",11001.39803,0,0,0,55.2,55.2,0.180833333,NA,NA,"https://echo.epa.gov/detailed-facility-report?fid=NHG580501&sys=ICP"
"81",2007,"ICIS","NY0024881",1.10009e+11,"NORTHPORT (V) STP","NORTHPORT","SUFFOLK","NY","Non-Major",40.889667,-73.355417,4952,4952,"SEWERAGE SYSTEMS",20302010204,"Northport Bay",10857.34528,0,0,0,3.146666667,5.12,0.370833333,NA,NA,"https://echo.epa.gov/detailed-facility-report?fid=NY0024881&sys=ICP"
"82",2007,"ICIS","NH0100153",1.10001e+11,"LITTLETON WASTEWATER TREATMENT PLANT","LITTLETON","GRAFTON","NH","Major",44.30882,-71.79048,4952,4952,"SEWERAGE SYSTEMS",10801030403,"Baker Brook-Ammonoosuc River",10666.82492,0,0,0,11.62420968,23.80645161,0.84275,NA,NA,"https://echo.epa.gov/detailed-facility-report?fid=NH0100153&sys=ICP"
"83",2007,"ICIS","VT0100579",1.10011e+11,"ST JOHNSBURY","ST JOHNSBURY","CALEDONIA","VT","Major",44.410639,-72.016572,NA,NA,NA,10801020403,"Water Andric-Passumpsic River",10665.84,0,0,0,3.254654155,5.282494342,1.18725,NA,NA,"https://echo.epa.gov/detailed-facility-report?fid=VT0100579&sys=ICP"
"84",2007,"ICIS","CT0101133",1.10011e+11,"HERITAGE VILLAGE COMPANY","SOUTHBURY","NEW HAVEN","CT","Non-Major",41.48477,-73.22364,6514,6514,"OPER OF DWELL OTHER THAN APART",11000050903,"Pomperaug River",10509.4,899,0,899,8.472323856,19.70626444,0.411,NA,NA,"https://echo.epa.gov/detailed-facility-report?fid=CT0101133&sys=ICP"
"85",2007,"ICIS","NH0100765",1.10007e+11,"CHARLESTOWN WASTEWATER TREATMENT PLANT","CHARLESTOWN","SULLIVAN","NH","Major",43.225795,-72.432518,4952,4952,"SEWERAGE SYSTEMS",10801060703,"Jabes Hackett Brook-Connecticut River",10420.19115,0,0,0,34.61,63.7,0.292,NA,NA,"https://echo.epa.gov/detailed-facility-report?fid=NH0100765&sys=ICP"
"86",2007,"ICIS","MA0101648",1.10007e+11,"SOUTH DEERFIELD WASTEWATER TREATMENT PLANT","DEERFIELD","FRANKLIN","MA","Non-Major",42.46829,-72.58914,4952,4952,"SEWERAGE SYSTEMS",10802010602,"Russellville Brook-Connecticut River",9761.737064,0,0,0,8.786210275,16.95322581,0.408083333,NA,NA,"https://echo.epa.gov/detailed-facility-report?fid=MA0101648&sys=ICP"
"87",2007,"ICIS","CT0000086",1.10051e+11,"ALLNEX USA RESINS AND ADDITIVES MANUFACTURING FACILITY","WALLINGFORD","NEW HAVEN","CT","Major",41.435,-72.836389,2821,2821,"PLSTC MAT./SYN RESINS/NV ELAST",11000040105,"Outlet Quinnipiac River",9234.567663,0,0,0,29.4297038,67.99725615,0.098035986,NA,NA,"https://echo.epa.gov/detailed-facility-report?fid=CT0000086&sys=ICP"
"88",2007,"ICIS","CT0100447",1.1003e+11,"PLAINFIELD NORTH WATER POLLUTION CONTROL FACILITY","PLAINFIELD","WINDHAM","CT","Major",41.71937,-71.91721,4952,4952,"SEWERAGE SYSTEMS",11000010503,"Lower Moosup River",9195.122468,0,0,0,6.248,7.5,0.68225,NA,NA,"https://echo.epa.gov/detailed-facility-report?fid=CT0100447&sys=ICP"
"89",2007,"ICIS","MA0101940",1.10002e+11,"OLD DEERFIELD WASTEWATER TREATMENT PLANT","DEERFIELD","FRANKLIN","MA","Non-Major",42.551231,-72.61107,4952,4952,"SEWERAGE SYSTEMS",10802030502,"Bear River-Deerfield River",8657.364208,0,0,0,12.18356119,14.64086022,0.156888889,NA,NA,"https://echo.epa.gov/detailed-facility-report?fid=MA0101940&sys=ICP"
"90",2007,"ICIS","CT0101222",1.10007e+11,"WINSTED WPCF","WINSTED","LITCHFIELD","CT","Major",41.941792,-73.053825,4952,4952,"SEWERAGE SYSTEMS",10802070103,"Still River",8330.217969,0,0,0,1.691666667,4.2,1.341666667,NA,NA,"https://echo.epa.gov/detailed-facility-report?fid=CT0101222&sys=ICP"
"91",2007,"ICIS","MA0100200",1.1001e+11,"NORTHFIELD WWTF","NORTHFIELD","FRANKLIN","MA","Non-Major",42.701976,-72.458138,4952,4952,"SEWERAGE SYSTEMS",10802010501,"Pauchaug Brook-Connecticut River",7922.601323,0,0,0,24.27185292,37.09677419,0.105583333,NA,NA,"https://echo.epa.gov/detailed-facility-report?fid=MA0100200&sys=ICP"
"92",2007,"ICIS","CT0100293",1.10014e+11,"HOCKANUM RIVER WATER POLLUTION CONTROL FACILITY","MANCHESTER","HARTFORD","CT","Major",41.777345,-72.561071,4952,4952,"SEWERAGE SYSTEMS",10802050402,"Lower Hockanum River",7421.692973,0,0,0,0.381428571,1.41,5.9125,NA,NA,"https://echo.epa.gov/detailed-facility-report?fid=CT0100293&sys=ICP"
"93",2007,"ICIS","CT0100463",1.10006e+11,"PLYMOUTH WPCF","PEQUABUCK","LITCHFIELD","CT","Major",41.668987,-72.991771,4952,4952,"SEWERAGE SYSTEMS",10802070404,"Pequabuck River",7166.155892,4088.248023,0,4088.248023,2.650833333,23.2,1.010666667,NA,NA,"https://echo.epa.gov/detailed-facility-report?fid=CT0100463&sys=ICP"
"94",2007,"ICIS","MA0110043",1.10007e+11,"MCLAUGHLIN STATE TROUT HATCHERY","BELCHERTOWN","HAMPSHIRE","MA","Non-Major",42.267471,-72.338576,921,921,"FISH HATCHERIES AND PRESERVES",10802040106,"Quabbin Reservoir-Swift River",6670.430481,0,0,0,0.627078853,1.625806452,5.289166667,NA,NA,"https://echo.epa.gov/detailed-facility-report?fid=MA0110043&sys=ICP"
"95",2007,"ICIS","CT0100536",1.10009e+11,"SOUTHINGTON WPCF","SOUTHINGTON (PLANTSVILLE)","HARTFORD","CT","Major",41.566931,-72.883694,4952,4952,"SEWERAGE SYSTEMS",11000040103,"Headwaters Quinnipiac River",6564.117704,0,0,0,0.331428571,1.76,4.62,NA,NA,"https://echo.epa.gov/detailed-facility-report?fid=CT0100536&sys=ICP"
"96",2007,"ICIS","CT0101214",1.10002e+11,"STAFFORD / WPCF","STAFFORD SPRINGS","TOLLAND","CT","Major",41.94688,-72.30454,4952,4952,"SEWERAGE SYSTEMS",11000020108,"Nelson Brook-Willimantic River",6382.028696,0,0,0,1.6,3,1.2475,NA,NA,"https://echo.epa.gov/detailed-facility-report?fid=CT0101214&sys=ICP"
"97",2007,"ICIS","MA0102776",1.1001e+11,"ERVING WASTEWATER TREATMENT PLANT #3","ERVING","FRANKLIN","MA","Non-Major",42.598361,-72.43875,4952,4952,"SEWERAGE SYSTEMS",10802020207,"Lyons Brook-Millers River",6260.840031,0,0,0,166.7903053,323.5172095,0.004333333,NA,NA,"https://echo.epa.gov/detailed-facility-report?fid=MA0102776&sys=ICP"
"98",2007,"ICIS","NH0100510",1.1001e+11,"WHITEFIELD WASTEWATER TREATMENT FACILITY","WHITEFIELD","COOS","NH","Non-Major",44.376294,-71.622598,4952,4952,"SEWERAGE SYSTEMS",10801030101,"Bog Brook",6187.870683,0,0,0,16.84666667,28,0.123666667,NA,NA,"https://echo.epa.gov/detailed-facility-report?fid=NH0100510&sys=ICP"
"99",2007,"ICIS","MA0100340",1.10024e+11,"TEMPLETON WASTEWATER TREATMENT FACILITY","TEMPLETON (BALDWINVILLE)","WORCESTER","MA","Major",42.601436,-72.073756,4952,4952,"SEWERAGE SYSTEMS",10802020201,"Otter River",5811.889057,470.9872547,0,470.9872547,3.505666219,10,0.275333333,NA,NA,"https://echo.epa.gov/detailed-facility-report?fid=MA0100340&sys=ICP"
"100",2007,"ICIS","MA0101079",1.1001e+11,"SUNDERLAND WASTEWATER TREATMENT FACILITY","SUNDERLAND","FRANKLIN","MA","Non-Major",42.452405,-72.584683,4952,4952,"SEWERAGE SYSTEMS",10802010602,"Russellville Brook-Connecticut River",5621.706917,0,0,0,11.98419355,18.9,0.168916667,NA,NA,"https://echo.epa.gov/detailed-facility-report?fid=MA0101079&sys=ICP"
"101",2007,"ICIS","MA0100102",1.1001e+11,"HARDWICK WATER POLLUTION CONTROL FACILITY","GILBERTVILLE","WORCESTER","MA","Non-Major",42.300309,-72.214159,4952,4952,"SEWERAGE SYSTEMS",10802040207,"Danforth Brook-Ware River",5407.02,0,0,0,7.998880699,13.63273427,0.087881818,NA,NA,"https://echo.epa.gov/detailed-facility-report?fid=MA0100102&sys=ICP"
"102",2007,"ICIS","MA0101044",1.1001e+11,"SHELBURNE WASTEWATER TREATMENT FACILITY","SHELBURNE","FRANKLIN","MA","Non-Major",42.595262,-72.731942,4952,4952,"SEWERAGE SYSTEMS",10802030502,"Bear River-Deerfield River",5171.246047,0,0,0,12.05447017,15.43928571,0.18305,NA,NA,"https://echo.epa.gov/detailed-facility-report?fid=MA0101044&sys=ICP"
"103",2007,"ICIS","CT0026476",1.10025e+11,"ALGONQUIN POWER COGENERATION FACILITY","WINDSOR LOCKS","HARTFORD","CT","Non-Major",41.930031,-72.62676,2621,2621,"PAPER MILLS",10802050105,"Freshwater Brook-Connecticut River",5127.691808,0,0,0,0.091818182,0.14,14.85454545,NA,NA,"https://echo.epa.gov/detailed-facility-report?fid=CT0026476&sys=ICP"
"104",2007,"ICIS","NHG580421",1.1001e+11,"LISBON WASTEWATER TREATMENT FACILITY","LISBON","GRAFTON","NH","Non-Major",44.20149,-71.928419,NA,NA,NA,10801030503,"Pearl Lake Brook-Ammonoosuc River",5021.576154,0,0,0,46,46,0.122416667,NA,NA,"https://echo.epa.gov/detailed-facility-report?fid=NHG580421&sys=ICP"
"105",2007,"ICIS","CT0100374",1.10002e+11,"BRISTOL WATER RECLAMATION FACILITY","BRISTOL","HARTFORD","CT","Major",41.66049,-72.9197,4952,4952,"SEWERAGE SYSTEMS",10802070404,"Pequabuck River",4903.64573,0,0,0,0.180833333,0.4,7.831666667,NA,NA,"https://echo.epa.gov/detailed-facility-report?fid=CT0100374&sys=ICP"
"106",2007,"ICIS","NH0101150",1.1001e+11,"WEST SWANZY WWTP","SWANZEY","CHESHIRE","NH","Non-Major",42.8682,-72.32657,4952,4952,"SEWERAGE SYSTEMS",10802010401,"Wheelock Brook-Ashuelot River",4650.114472,0,0,0,9.94375,38,0.133708333,NA,NA,"https://echo.epa.gov/detailed-facility-report?fid=NH0101150&sys=ICP"
"107",2007,"ICIS","CT0100081",1.10001e+11,"CHESIRE,WATER POLLUTION CONTROL FACILITY","CHESHIRE","NEW HAVEN","CT","Major",41.53378,-72.86655,4952,4952,"SEWERAGE SYSTEMS",11000040103,"Headwaters Quinnipiac River",4066.43261,0,0,0,0.578333333,1.5,2.445833333,NA,NA,"https://echo.epa.gov/detailed-facility-report?fid=CT0100081&sys=ICP"
"108",2007,"ICIS","MA0005282",1.10065e+11,"USM CORP TEXON DIV-RUSSELL","RUSSELL","HAMPDEN","MA","Major",42.2233,-72.86853,2621,2621,"PAPER MILLS",10802060301,"Moose Meadow Brook-Westfield River",3965.336228,0,0,0,0.810791667,2.261,0.610416667,NA,NA,"https://echo.epa.gov/detailed-facility-report?fid=MA0005282&sys=ICP"
"109",2007,"ICIS","NH0101052",1.1001e+11,"TROY WASTEWATER TREATMENT FACILITY","TROY","CHESHIRE","NH","Non-Major",42.835252,-72.178076,4952,4952,"SEWERAGE SYSTEMS",10802010303,"South Branch Ashuelot River",3584.4,328.6,0,328.6,14.32905781,38.85717466,0.075583333,NA,NA,"https://echo.epa.gov/detailed-facility-report?fid=NH0101052&sys=ICP"
"110",2007,"ICIS","NH0101257",1.10007e+11,"CLAREMONT WASTEWATER TREATMENT FACILITY","CLAREMONT","SULLIVAN","NH","Major",43.38962,-72.379045,4952,4952,"SEWERAGE SYSTEMS",10801060407,"Sugar River",3563.55,0,0,0,0.818913185,2.036922211,1.46625,NA,NA,"https://echo.epa.gov/detailed-facility-report?fid=NH0101257&sys=ICP"
"111",2007,"ICIS","CT0003883",1.1e+11,"NRG MIDDLETOWN POWER STATION","MIDDLETOWN","MIDDLESEX","CT","Major",41.554782,-72.58358,4911,4911,"ELECTRICAL SERVICES",10802050702,"Mill Creek-Connecticut River",3554.446647,0,0,0,0.372916667,2.363333333,21.22468267,NA,NA,"https://echo.epa.gov/detailed-facility-report?fid=CT0003883&sys=ICP"
"112",2007,"ICIS","CT0002127",1.10044e+11,"CELLU TISSUE","EAST HARTFORD","HARTFORD","CT","Major",41.776151,-72.606406,2679,2679,"CONV PAPER & PAPERBRD PRODUCTS",10802050402,"Lower Hockanum River",3057.362705,0,0,0,0.545,0.966666667,0.612,NA,NA,"https://echo.epa.gov/detailed-facility-report?fid=CT0002127&sys=ICP"
"113",2007,"ICIS","CT0003778",1.1e+11,"PSEG POWER CONNECTICUT LLC","BRIDGEPORT","FAIRFIELD","CT","Major",41.17067,-73.18408,4911,4911,"ELECTRICAL SERVICES",11000060303,"Rooster River-Frontal Long Island Sound",2948.395304,0,0,0,2.029444444,7.333333333,35.52613457,NA,NA,"https://echo.epa.gov/detailed-facility-report?fid=CT0003778&sys=ICP"
"114",2007,"ICIS","NH0101168",1.10011e+11,"MERIDEN VILLAGE WATER DISTRICT","MERIDEN","SULLIVAN","NH","Non-Major",43.54017,-72.26377,4952,4952,"SEWERAGE SYSTEMS",10801060301,"Bloods Brook",2876.372976,0,0,0,68.44247312,104.2666667,0.04675,NA,NA,"https://echo.epa.gov/detailed-facility-report?fid=NH0101168&sys=ICP"
"115",2007,"ICIS","CT0003824",1.10011e+11,"ELECTRIC BOAT CORP","GROTON","NEW LONDON","CT","Major",41.350752,-72.082098,3731,3731,"SHIP BUILDING AND REPAIRING",11000030203,"Thames River-Frontal New London Harbor",2639.655085,0,0,0,12.00416667,22.26,2.016757022,NA,NA,"https://echo.epa.gov/detailed-facility-report?fid=CT0003824&sys=ICP"
"116",2007,"ICIS","CT0101788",1.10002e+11,"NEWTOWN /WPCF","NEWTOWN","FAIRFIELD","CT","Non-Major",41.41472,-73.28424,4952,4952,"SEWERAGE SYSTEMS",11000051001,"Pootatuck River",2619.166256,0,0,0,1.653636364,10.8,0.431583333,NA,NA,"https://echo.epa.gov/detailed-facility-report?fid=CT0101788&sys=ICP"
"117",2007,"ICIS","NY0105741",1.10008e+11,"FOX LANE CAMPUS","BEDFORD","WESTCHESTER","NY","Non-Major",41.18632,-73.63554,8999,8999,"SERVICES, NEC",11000060402,"Mianus River",2561.978251,0,0,0,27.74404175,136.8652752,0.028958333,NA,NA,"https://echo.epa.gov/detailed-facility-report?fid=NY0105741&sys=ICP"
"118",2007,"ICIS","CT0100439",1.1001e+11,"PLAINFIELD VILLAGE SEWAGE TREATMENT PLANT","PLAINFIELD","WINDHAM","CT","Non-Major",41.669458,-71.928107,4952,4952,"SEWERAGE SYSTEMS",11000010702,"Mill Brook",2557.037855,0,0,0,2.95,3.6,0.382166667,NA,NA,"https://echo.epa.gov/detailed-facility-report?fid=CT0100439&sys=ICP"
"119",2007,"ICIS","NHG580404",1.10028e+11,"WINCHESTER WASTEWATER TREATMENT PLANT","WINCHESTER","CHESHIRE","NH","Non-Major",42.770205,-72.389345,NA,NA,NA,10802010403,"Ashuelot River",2338.488125,0,0,0,13.8,13.8,0.203466667,NA,NA,"https://echo.epa.gov/detailed-facility-report?fid=NHG580404&sys=ICP"
"120",2007,"ICIS","CT0101681",1.10007e+11,"LEDYARD WATER POLLUTION CONTROL FACILITY","LEDYARD","NEW LONDON","CT","Non-Major",41.43364,-71.96512,4952,4952,"SEWERAGE SYSTEMS",11000030301,"Mystic River-Frontal Fishers Island Sound",1888.599368,0,0,0,3.941666667,6.2,0.1575,NA,NA,"https://echo.epa.gov/detailed-facility-report?fid=CT0101681&sys=ICP"
"121",2007,"ICIS","CT0001376",1.10065e+11,"UNITED TECHNOLOGIES CORPORATION, PRATT AND WHITNEY DIVISION","EAST HARTFORD","HARTFORD COUNTY","CT","Major",41.740541,-72.640907,3724,3724,"AIRCRAFT ENGINES & ENGINE PART",10802050505,"Goff Brook-Connecticut River",1887.126218,0,0,0,0.237279125,3.597122302,0.742059523,NA,NA,"https://echo.epa.gov/detailed-facility-report?fid=CT0001376&sys=ICP"
"122",2007,"ICIS","MA0101796",1.10007e+11,"LEICESTER WATER SUPPLY WWTF","LEICESTER","WORCESTER","MA","Non-Major",42.240643,-71.917223,4952,4952,"SEWERAGE SYSTEMS",11000010201,"Upper French River",1780.825339,0,0,0,2.382857143,9.45,0.232175,NA,NA,"https://echo.epa.gov/detailed-facility-report?fid=MA0101796&sys=ICP"
"123",2007,"ICIS","NH0101044",1.10008e+11,"FRANKLIN PIERCE UNIVERSITY","RINDGE","CHESHIRE","NH","Non-Major",42.770818,-72.057847,8221,8221,"COLLEGES, UNIV & PROF SCHOOLS",10802020103,"Torbell Brook-Millers River",1602.63,664.72,0,664.72,10.57159878,40.47702104,0.040083333,NA,NA,"https://echo.epa.gov/detailed-facility-report?fid=NH0101044&sys=ICP"
"124",2007,"ICIS","CT0100501",1.10002e+11,"SEYMOUR WPCF","SEYMOUR","NEW HAVEN","CT","Major",41.366379,-73.087313,4952,4952,"SEWERAGE SYSTEMS",11000051207,"Bladens River-Naugatuck River",1571.49094,0,0,0,0.548,1.6,1.143333333,NA,NA,"https://echo.epa.gov/detailed-facility-report?fid=CT0100501&sys=ICP"
"125",2007,"ICIS","CT0100609",1.10056e+11,"VERNON WPCF","VERNON","TOLLAND","CT","Major",41.86545,-72.48457,4952,4952,"SEWERAGE SYSTEMS",10802050401,"Upper Hockanum River",1489.648713,0,0,0,0.115,0.33,3.5975,NA,NA,"https://echo.epa.gov/detailed-facility-report?fid=CT0100609&sys=ICP"
"126",2007,"ICIS","NY0020079",1.10002e+11,"GREENPORT POWER PLANT","GREENPORT","SUFFOLK","NY","Major",41.108361,-72.38575,4952,4952,"SEWERAGE SYSTEMS",20302010402,"Goldsmith Inlet-Mattituck Creek",1426.84688,0,0,0,420.0454545,950,0.139110417,NA,NA,"https://echo.epa.gov/detailed-facility-report?fid=NY0020079&sys=ICP"
"127",2007,"ICIS","CT0101770",1.1001e+11,"REDDING WASTEWATER TREATMENT FACILITY","REDDING","FAIRFIELD","CT","Non-Major",41.258249,-73.429303,4952,4952,"SEWERAGE SYSTEMS",11000060202,"Norwalk River-Frontal Norwalk Harbor",1400.007219,870.79,0,870.79,8.284315043,50.20414154,0.050666667,NA,NA,"https://echo.epa.gov/detailed-facility-report?fid=CT0101770&sys=ICP"
"128",2007,"ICIS","CT0000957",1.1e+11,"PFIZER GROTON CAMPUS","GROTON","NEW LONDON","CT","Non-Major",41.3309,-72.0771,2834,2834,"PHARMACEUTICAL PREPARATIONS",11000030203,"Thames River-Frontal New London Harbor",1316.266316,0,0,0,0.282218986,1.962260587,4.711610844,NA,NA,"https://echo.epa.gov/detailed-facility-report?fid=CT0000957&sys=ICP"
"129",2007,"ICIS","CT0001341",1.10001e+11,"PHARMACIA & UPJOHN (FORMER)","NORTH HAVEN","NEW HAVEN","CT","Non-Major",41.375384,-72.878626,2869,2869,"INDUST. ORGANIC CHEMICALS NEC",11000040105,"Outlet Quinnipiac River",836.7701702,0,0,0,0.5169625,1.3,0.224635167,NA,NA,"https://echo.epa.gov/detailed-facility-report?fid=CT0001341&sys=ICP"
"130",2007,"ICIS","CT0090182",1.10003e+11,"NATIONAL MARINE FISHERIES","MILFORD","NEW HAVEN","CT","Non-Major",41.21171,-73.05407,8731,8731,"COMMERCIAL PHYSICAL RESEARCH",11000040303,"Milford Harbor-Frontal Long Island Sound",803.9754741,0,0,0,0.46975,0.85,0.605,NA,NA,"https://echo.epa.gov/detailed-facility-report?fid=CT0090182&sys=ICP"
"131",2007,"ICIS","MA0103110",1.1001e+11,"WEST STOCKBRIDGE WASTEWATER TREAMENT FACILITY","WEST STOCKBRIDGE","BERKSHIRE","MA","Non-Major",42.33241,-73.36937,4952,4952,"SEWERAGE SYSTEMS",11000050201,"Williams River",768.3416401,0,0,0,3.588402778,9.03,0.011673833,NA,NA,"https://echo.epa.gov/detailed-facility-report?fid=MA0103110&sys=ICP"
"132",2007,"ICIS","MA0100170",1.1001e+11,"OXFORD ROCHDALE WASTEWATER TREATMENT PLANT","NORTH OXFORD","WORCESTER COUNTY","MA","Non-Major",42.183647,-71.894113,4952,4952,"SEWERAGE SYSTEMS",11000010201,"Upper French River",710.9583516,0,0,0,0.828571429,3,0.199666667,NA,NA,"https://echo.epa.gov/detailed-facility-report?fid=MA0100170&sys=ICP"
"133",2007,"ICIS","CT0100498",1.10007e+11,"TOWN OF SALISBURY WPCF","SALISBURY","LITCHFIELD","CT","Non-Major",42.014536,-73.431065,4952,4952,"SEWERAGE SYSTEMS",11000050305,"Salmon Creek",709.6406493,0,0,0,0.718,1.6,0.3625,NA,NA,"https://echo.epa.gov/detailed-facility-report?fid=CT0100498&sys=ICP"
"134",2007,"ICIS","CT0100781",1.10056e+11,"THOMASTON WPCF","THOMASTON","LITCHFIELD","CT","Major",41.645097,-73.079553,4952,4952,"SEWERAGE SYSTEMS",11000051104,"Branch Brook",707.1631614,0,0,0,0.258333333,0.49,0.86375,NA,NA,"https://echo.epa.gov/detailed-facility-report?fid=CT0100781&sys=ICP"
"135",2007,"ICIS","CT0101231",1.10001e+11,"TOWN OF NORFOLK WPCF","NORFOLK","LITCHFIELD","CT","Non-Major",41.99983,-73.21633,4952,4952,"SEWERAGE SYSTEMS",11000050303,"Blackberry River",705.0437138,0,0,0,0.52,0.6,0.555833333,NA,NA,"https://echo.epa.gov/detailed-facility-report?fid=CT0101231&sys=ICP"
"136",2007,"ICIS","MA0102156",1.10009e+11,"TEMPLETON DEVELOPMENT CENTER","TEMPLETON (BALDWINVILLE)","WORCESTER","MA","Non-Major",42.591474,-72.116216,8211,8211,"ELEMENTARY & SECONDARY SCHOOLS",10802020204,"Beaver Brook-Millers River",681.3767837,9.500333346,0,9.500333346,3.611833333,12.4,0.022087273,NA,NA,"https://echo.epa.gov/detailed-facility-report?fid=MA0102156&sys=ICP"
"137",2007,"ICIS","NY0066028",1.10009e+11,"SCSD#22 /HAUPPAUGE CTY CTR STP","HAUPPAUGE","SUFFOLK","NY","Non-Major",40.826333,-73.227917,4952,4952,"SEWERAGE SYSTEMS",20302010302,"Nissequogue River",588.6998501,0,0,0,2.341666667,4.4,0.085333333,NA,NA,"https://echo.epa.gov/detailed-facility-report?fid=NY0066028&sys=ICP"
"138",2007,"ICIS","VT0100145",1.10009e+11,"LUDLOW WASTEWATER TREATMENT FACILITY","LUDLOW","WINDSOR","VT","Major",43.392349,-72.679281,NA,NA,NA,10801060502,"Branch Brook-Black River",584.8904361,0,0,0,0.98,1.24,0.350416667,NA,NA,"https://echo.epa.gov/detailed-facility-report?fid=VT0100145&sys=ICP"
"139",2007,"ICIS","CT0003921",1.10007e+11,"US NAVAL SUBMARINE BASE","GROTON","NEW LONDON","CT","Major",41.400139,-72.087081,9711,9711,"NATIONAL SECURITY",11000030203,"Thames River-Frontal New London Harbor",563.3420004,0,0,0,0.131555556,1.654666667,1.896666667,NA,"Y","https://echo.epa.gov/detailed-facility-report?fid=CT0003921&sys=ICP"
"140",2007,"ICIS","NH0100366",1.10002e+11,"LEBANON WASTEWATER TREATMENT FACILITY","LEBANON","GRAFTON","NH","Major",43.636805,-72.320541,4952,4952,"SEWERAGE SYSTEMS",10801060106,"Mascoma River",457.7834672,0,0,0,0.368,0.368,1.736266667,NA,NA,"https://echo.epa.gov/detailed-facility-report?fid=NH0100366&sys=ICP"
"141",2007,"ICIS","NY0005941",1.10001e+11,"NATIONAL GRID - NORTHPORT POWER STATION","NORTHPORT","SUFFOLK","NY","Major",40.923488,-73.342561,4911,4911,"ELECTRICAL SERVICES",20302010301,"Crab Meadow-Fresh Pond",408.1157561,0,0,0,0.631323529,1.95,10.58974822,NA,NA,"https://echo.epa.gov/detailed-facility-report?fid=NY0005941&sys=ICP"
"142",2007,"ICIS","MA0102431",1.1001e+11,"HARDWICK WWTP","HARDWICK (WHEELWRIGHT)","WORCESTER","MA","Non-Major",42.350037,-72.139237,4952,4952,"SEWERAGE SYSTEMS",10802040205,"Winimusset Brook-Ware River",390.6,0,0,0,4.708735836,5.643646363,0.0131,NA,NA,"https://echo.epa.gov/detailed-facility-report?fid=MA0102431&sys=ICP"
"143",2007,"ICIS","CT0101761",1.10009e+11,"EAST HADDAM WATER POLLUTION CONTROL FACILITY","EAST HADDAM","MIDDLESEX","CT","Non-Major",41.4504,-72.45851,4952,4952,"SEWERAGE SYSTEMS",10802050901,"Deep River-Connecticut River",381.9,0,0,0,8.149845898,13.97887792,0.015416667,NA,NA,"https://echo.epa.gov/detailed-facility-report?fid=CT0101761&sys=ICP"
"144",2007,"ICIS","CT0001457",1.1e+11,"WHYCO FINISHING TECH INC","THOMASTON","LITCHFIELD","CT","Major",41.64315,-73.07792,3471,3471,"PLATING AND POLISHING",11000051105,"Northfield Brook-Naugatuck River",298.9461825,0,0,0,2.328373567,7.829440227,0.043039903,NA,NA,"https://echo.epa.gov/detailed-facility-report?fid=CT0001457&sys=ICP"
"145",2007,"ICIS","CT0100854",1.10001e+11,"RIDGEFIELD WATER POLLUTION CONTROL FACILITY","RIDGEFIELD","FAIRFIELD","CT","Major",41.290159,-73.490438,4952,4952,"SEWERAGE SYSTEMS",11000060202,"Norwalk River-Frontal Norwalk Harbor",255.6113603,0,0,0,0.108571429,0.21,0.807,NA,NA,"https://echo.epa.gov/detailed-facility-report?fid=CT0100854&sys=ICP"
"146",2007,"ICIS","CT0021873",1.10034e+11,"GBC METALS LLC SOMERS THIN STRIP","WATERBURY","NEW HAVEN","CT","Major",41.534338,-73.032406,3351,3351,"ROLL/DRAW/EXTRUDING OF COPPER",11000051205,"Long Meadow Pond Brook-Naugatuck River",161.2116503,0,0,0,0.5525,0.8,0.074142807,NA,NA,"https://echo.epa.gov/detailed-facility-report?fid=CT0021873&sys=ICP"
"147",2007,"ICIS","NY0088510",1.10019e+11,"SEAWANHAKA-CORINTHIAN YACHT CLUB PROPERT","CENTRE ISLAND","NASSAU","NY","Non-Major",40.902056,-73.511194,8999,8999,"SERVICES, NEC",20302010201,"Mill Neck Creek-Oyster Bay Harbor",158.7351394,0,0,0,15.35806501,24.00111828,0.001668182,NA,NA,"https://echo.epa.gov/detailed-facility-report?fid=NY0088510&sys=ICP"
"148",2007,"ICIS","NY0005932",1.10008e+11,"NATIONAL GRID - PORT JEFFERSON POWER STATION","PORT JEFFERSON","SUFFOLK","NY","Non-Major",40.94969,-73.078431,4911,4911,"ELECTRICAL SERVICES",20302010304,"Mt Sinai Harbor-Port Jefferson Harbor",147.7825065,0,0,0,0.308333333,1.3,13.89841918,NA,NA,"https://echo.epa.gov/detailed-facility-report?fid=NY0005932&sys=ICP"
"149",2007,"ICIS","CT0020800",1.1001e+11,"HIGH TOWERS TRADING, LLC","GREENWICH","FAIRFIELD","CT","Non-Major",41.07411,-73.70177,NA,NA,NA,11000060405,"Blind Brook-Horseneck Brook",123.7717369,0,0,0,11,11,0.004005833,NA,NA,"https://echo.epa.gov/detailed-facility-report?fid=CT0020800&sys=ICP"
"150",2007,"ICIS","CT0101818",1.10011e+11,"CONVENT OF THE SACRED HEART SCHOOL GREENWICH, INC.","GREENWICH","FAIRFIELD","CT","Non-Major",41.06406,-73.69544,4952,4952,"SEWERAGE SYSTEMS",11000060405,"Blind Brook-Horseneck Brook",119.4417509,0,0,0,5.486666667,9.88,0.006343,NA,NA,"https://echo.epa.gov/detailed-facility-report?fid=CT0101818&sys=ICP"
"151",2007,"ICIS","CT0028631",1.10002e+11,"UNIVERSITY OF CONNECTICUT","GROTON","NEW LONDON","CT","Non-Major",41.315821,-72.062687,8221,8221,"COLLEGES, UNIV & PROF SCHOOLS",11000030303,"Stony Brook-Frontal Fishers Island Sound",108.0569001,0,0,0,0.636666667,0.88,0.1318465,NA,NA,"https://echo.epa.gov/detailed-facility-report?fid=CT0028631&sys=ICP"
"152",2007,"ICIS","NY0030767",1.1002e+11,"OAKRIDGE STP","SOUTH SALEM","WESTCHESTER","NY","Non-Major",41.213403,-73.518449,4952,4952,"SEWERAGE SYSTEMS",11000060401,"Rippowam River",98.14807803,0,0,0,0.789215687,0.823529412,0.040833333,NA,NA,"https://echo.epa.gov/detailed-facility-report?fid=NY0030767&sys=ICP"
"153",2007,"ICIS","NHG581249",1.10028e+11,"LANCASTER GRANGE WASTEWATER TREATMENT PLANT","LANCASTER","COOS","NH","Non-Major",44.481841,-71.528227,4952,4952,"SEWERAGE SYSTEMS",10801010805,"Otter Brook",87.83919144,0,0,0,39.86666667,39.86666667,0.0136258,NA,NA,"https://echo.epa.gov/detailed-facility-report?fid=NHG581249&sys=ICP"
"154",2007,"ICIS","NH0000744",1.10011e+11,"NH DES","WHITEFIELD","COOS","NH","Non-Major",44.323049,-71.560259,921,921,"FISH HATCHERIES AND PRESERVES",10801030102,"Johns River",82.4672,0,0,0,0.655993294,2.140765304,0.01111553,NA,NA,"https://echo.epa.gov/detailed-facility-report?fid=NH0000744&sys=ICP"
"155",2007,"ICIS","CT0024805",1.1001e+11,"LAKE WARAMAUG RESTORATION SYS","WASHINGTON","LITCHFIELD","CT","Non-Major",41.698067,-73.373371,9999,9999,"NONCLASSIFIABLE ESTABLISHMENTS",11000050602,"East Aspetuck River",68.80574624,0,0,0,1.2125,1.66,0.496946667,NA,"Y","https://echo.epa.gov/detailed-facility-report?fid=CT0024805&sys=ICP"
"156",2007,"ICIS","NH0100382",1.10002e+11,"HINSDALE WASTEWATER TREATMENT PLANT","HINSDALE","CHESHIRE","NH","Major",42.780338,-72.49205,4952,4952,"SEWERAGE SYSTEMS",10802010403,"Ashuelot River",60.92231473,0,0,0,0.582666667,0.582666667,0.236725,NA,NA,"https://echo.epa.gov/detailed-facility-report?fid=NH0100382&sys=ICP"
"157",2007,"ICIS","NY0005894",1.10007e+11,"GLENWOOD ENERGY CENTER - OLD TURB","GLENWOOD LANDING","NASSAU","NY","Non-Major",40.82517,-73.64703,4911,4911,"ELECTRICAL SERVICES",20302010103,"Glen Cove Creek-Hempstead Harbor",52.12005125,0,0,0,2.545,5.7,0.001117096,NA,NA,"https://echo.epa.gov/detailed-facility-report?fid=NY0005894&sys=ICP"
"158",2007,"ICIS","CT0100528",1.10002e+11,"SOUTHBURY TRAINING SCHOOL","SOUTHBURY","NEW HAVEN","CT","Non-Major",41.493017,-73.259234,8249,8249,"VOCATIONAL SCHOOLS, NEC",11000050903,"Pomperaug River",35.83070852,0,0,0,0.161666667,0.4,0.12365,NA,NA,"https://echo.epa.gov/detailed-facility-report?fid=CT0100528&sys=ICP"
"159",2007,"ICIS","CT0003751",1.10055e+11,"FUSION PAPERBOARD CT LLC","VERSAILLES","NEW LONDON","CT","Non-Major",41.619983,-72.042277,2631,2631,"PAPERBOARD MILLS",11000020302,"Little River",31.046841,0,0,0,0.025,0.1,2.516666667,NA,NA,"https://echo.epa.gov/detailed-facility-report?fid=CT0003751&sys=ICP"
"160",2007,"ICIS","CT0003093",1.10001e+11,"NRG NORWALK HARBOR POWER STATION","NORWALK","FAIRFIELD","CT","Major",41.072972,-73.410237,4911,4911,"ELECTRICAL SERVICES",11000060202,"Norwalk River-Frontal Norwalk Harbor",27.29001347,0,0,0,0.91225,1.643333333,32.86695029,NA,NA,"https://echo.epa.gov/detailed-facility-report?fid=CT0003093&sys=ICP"
"161",2007,"ICIS","CT0101419",1.10007e+11,"SCHOOL SISTERS OF NOTRE DAME","WILTON","FAIRFIELD","CT","Non-Major",41.1725,-73.43844,8051,8051,"SKILLED NURSING CARE FACILITIE",11000060202,"Norwalk River-Frontal Norwalk Harbor",26.20595412,0,0,0,0.618333333,1.9,0.014083333,NA,NA,"https://echo.epa.gov/detailed-facility-report?fid=CT0101419&sys=ICP"
"162",2007,"ICIS","CT0021300",1.1e+11,"HUTCHINSON PRECISION SEALING","DANIELSON","WINDHAM","CT","Major",41.79293,-71.88494,3559,3559,"SPECIAL INDUSTRY MACHINERY,NEC",11000010403,"Fall Brook-Quinebaug River",19.99043436,0,0,0,2.746333333,3.466666667,0.01845725,NA,NA,"https://echo.epa.gov/detailed-facility-report?fid=CT0021300&sys=ICP"
"163",2007,"ICIS","CT0026212",1.10011e+11,"IBM CORPORATION","SOUTHBURY","NEW HAVEN","CT","Non-Major",41.469707,-73.213669,7371,7371,"CUSTOM COMPUTER PROG SERVICES",11000050903,"Pomperaug River",16.69814283,0,0,0,0.154166667,0.45,0.0191,NA,NA,"https://echo.epa.gov/detailed-facility-report?fid=CT0026212&sys=ICP"
"164",2007,"ICIS","CT0003131",1.10065e+11,"TRINSEO LLC","LEDYARD","NEW LONDON","CT","Major",41.44167,-72.07892,2819,2819,"INDUSTRIAL INORGANIC CHEMICALS",11000030203,"Thames River-Frontal New London Harbor",15.05210942,0,0,0,0.44,1.2,0.01283975,NA,NA,"https://echo.epa.gov/detailed-facility-report?fid=CT0003131&sys=ICP"
"165",2007,"ICIS","CT0000159",1.10001e+11,"ATLANTIC WIRE COMPANY LLC","BRANFORD","NEW HAVEN","CT","Major",41.27745,-72.8094,3315,3315,"STEEL WIRE DRAW & STEEL NAILS",11000040208,"Indian River-Frontal Long Island Sound",14.63082649,0,0,0,3.825833333,5.8,0.011888333,NA,NA,"https://echo.epa.gov/detailed-facility-report?fid=CT0000159&sys=ICP"
"166",2007,"ICIS","CT0101052",1.1001e+11,"SHARON WATER POLLUTION CONTROL FACILITY","SHARON","LITCHFIELD","CT","Non-Major",41.88358,-73.48861,4952,4952,"SEWERAGE SYSTEMS",11000050502,"Mudge Pond Brook",13.83367114,0,0,0,0.126,0.19,0.054583333,NA,NA,"https://echo.epa.gov/detailed-facility-report?fid=CT0101052&sys=ICP"
"167",2007,"ICIS","CT0003701",1.10041e+11,"ALLEGHENY LUDLUM STEEL STRIP PLANT","WALLINGFORD","NEW HAVEN","CT","Major",41.45405,-72.8345,3316,3316,"COLD ROLLED STEEL SHEET/STRIP",11000040105,"Outlet Quinnipiac River",13.24675565,0,0,0,0.0125,0.1,0.06631364,NA,NA,"https://echo.epa.gov/detailed-facility-report?fid=CT0003701&sys=ICP"
"168",2007,"ICIS","CT0001180",1.1e+11,"SUMMIT CORP OF AMERICA","THOMASTON","LITCHFIELD","CT","Major",41.623153,-73.064553,3471,3471,"PLATING AND POLISHING",11000051105,"Northfield Brook-Naugatuck River",10.36401452,0,0,0,0.8714025,1.7,0.11463,NA,NA,"https://echo.epa.gov/detailed-facility-report?fid=CT0001180&sys=ICP"
"169",2007,"ICIS","CT0003441",1.1001e+11,"WINDSOR-STEVENS, INC.","WINDSOR","HARTFORD","CT","Non-Major",41.912483,-72.687101,2611,2611,"PULP MILLS",10802070602,"Mill Brook-Farmington River",7.652693807,0,0,0,0.14,0.28,0.219251917,NA,NA,"https://echo.epa.gov/detailed-facility-report?fid=CT0003441&sys=ICP"
"170",2007,"ICIS","CT0000841",1.10001e+11,"KING INDUSTRIES, INC.","NORWALK","FAIRFIELD COUNTY","CT","Non-Major",41.108491,-73.41271,2869,2869,"INDUST. ORGANIC CHEMICALS NEC",11000060202,"Norwalk River-Frontal Norwalk Harbor",6.037516424,0,0,0,94.12470024,94.12470024,0.021241583,NA,NA,"https://echo.epa.gov/detailed-facility-report?fid=CT0000841&sys=ICP"
"171",2007,"ICIS","CT0025267",1.1001e+11,"ERICKSON METALS","CHESHIRE","NEW HAVEN","CT","Non-Major",41.562936,-72.909427,3471,3471,"PLATING AND POLISHING",11000040102,"Tenmile River",4.103065378,0,0,0,0.03,0.03,0.045491667,NA,NA,"https://echo.epa.gov/detailed-facility-report?fid=CT0025267&sys=ICP"
"172",2007,"ICIS","CT0026298",1.1e+11,"AES THAMES POWER PLANT","MONTVILLE (UNCASVILLE)","NEW LONDON","CT","Major",41.43423,-72.0976,4931,4931,"ELEC & OTHER SERVICES COMBINED",11000030203,"Thames River-Frontal New London Harbor",2.820556671,0,0,0,0.1175,0.32,40.99485146,NA,NA,"https://echo.epa.gov/detailed-facility-report?fid=CT0026298&sys=ICP"
"173",2007,"ICIS","CT0003107",1.10031e+11,"NRG DEVON STATION POWER PLANT","MILFORD","NEW HAVEN","CT","Major",41.209171,-73.108209,4911,4911,"ELECTRICAL SERVICES",11000051302,"Housatonic River-Frontal Long Island Sound",2.341537953,0,0,0,0.282666667,0.506666667,0.01696425,NA,NA,"https://echo.epa.gov/detailed-facility-report?fid=CT0003107&sys=ICP"
"174",2007,"ICIS","CT0003115",1.1e+11,"NRG MONTVILLE POWER STATION","MONTVILLE (UNCASVILLE)","NEW LONDON","CT","Major",41.427387,-72.102263,4911,4911,"ELECTRICAL SERVICES",11000030203,"Thames River-Frontal New London Harbor",1.867044037,0,0,0,0.114848485,0.373333333,25.2504285,NA,NA,"https://echo.epa.gov/detailed-facility-report?fid=CT0003115&sys=ICP"
"175",2007,"ICIS","MA0027871",1.10007e+11,"MAPLES, THE","WORTHINGTON","HAMPSHIRE","MA","Non-Major",42.41346,-72.93702,6513,6513,"OPERATORS OF APART BUILDINGS",10802060105,"Little River-Westfield River",0.993699214,0.214223203,0,0.214223203,0.648,1.69,5e-04,NA,NA,"https://echo.epa.gov/detailed-facility-report?fid=MA0027871&sys=ICP"
"176",2007,"ICIS","CT0000787",1.10003e+11,"SILGAN PLASTICS CORPORATION","DEEP RIVER","MIDDLESEX","CT","Non-Major",41.390293,-72.423903,3081,3081,"UNSUPPORTED PLSTICS FILM/SHEET",10802050901,"Deep River-Connecticut River",0.694726498,0,0,0,0.0405,0.19,0.000933292,NA,NA,"https://echo.epa.gov/detailed-facility-report?fid=CT0000787&sys=ICP"
"177",2007,"ICIS","MAG450004",1.10012e+11,"IPG PHOTONICS CORPORATION","OXFORD","WORCESTER","MA","Non-Major",42.081383,-71.881184,3674,3674,"SEMICONDUCTORS & RELATED DEVIC",11000010203,"Middle French River",0.616229718,0,0,0,0.040833333,0.28,0.000841667,NA,NA,"https://echo.epa.gov/detailed-facility-report?fid=MAG450004&sys=ICP"
"178",2007,"ICIS","CT0020826",1.10001e+11,"AUTOSWAGE PRODUCTS","SHELTON","FAIRFIELD","CT","Major",41.26943,-73.09172,3559,3559,"SPECIAL INDUSTRY MACHINERY,NEC",11000051302,"Housatonic River-Frontal Long Island Sound",0.501172319,0,0,0,0.75,2.2,0.013630125,NA,NA,"https://echo.epa.gov/detailed-facility-report?fid=CT0020826&sys=ICP"
"179",2007,"ICIS","CT0020940",1.10011e+11,"AMERBELLE TEXTILES","VERNON ROCKVILLE","TOLLAND","CT","Non-Major",41.867613,-72.442389,2261,2261,"FINISH OF BRD WOV FAB OF COTTN",10802050401,"Upper Hockanum River",0.26606409,0,0,0,0.066666667,0.11,0.032901918,NA,"Y","https://echo.epa.gov/detailed-facility-report?fid=CT0020940&sys=ICP"
"180",2007,"ICIS","CT0021504",1.1e+11,"ROGERS CORPORATION","WOODSTOCK","WINDHAM","CT","Non-Major",41.98372,-71.97631,1752,1752,"FLOOR LAY & OTHER FLOOR WORK",11000010401,"Little River",0.023942357,0,0,0,0.51,0.51,0.045,NA,NA,"https://echo.epa.gov/detailed-facility-report?fid=CT0021504&sys=ICP"
"181",2007,"ICIS","CT0026123",1.10012e+11,"MERIDEN MUNICIPAL LANDFILL","MERIDEN","NEW HAVEN","CT","Non-Major",41.511446,-72.82824,4953,4953,"REFUSE SYSTEMS",11000040105,"Outlet Quinnipiac River",0.019124854,0,0,0,0.838333333,21.7,5.93333e-05,NA,NA,"https://echo.epa.gov/detailed-facility-report?fid=CT0026123&sys=ICP"
"182",2007,"ICIS","MA0040207",1.10022e+11,"CHANG FARMS INC","DEERFIELD","FRANKLIN","MA","Non-Major",42.522248,-72.571247,182,182,"FOOD CROPS GROWN UNDER COVER",10802010602,"Russellville Brook-Connecticut River",0,0,0,0,0,0,0,NA,NA,"https://echo.epa.gov/detailed-facility-report?fid=MA0040207&sys=ICP"
"183",2007,"ICIS","VT0100706",1.10011e+11,"WILMINGTON WWTP","WILMINGTON","WINDHAM","VT","Non-Major",42.86939,-72.88061,NA,NA,NA,10802030103,"North Branch Deerfield River",0,0,0,0,0,0,0,NA,NA,"https://echo.epa.gov/detailed-facility-report?fid=VT0100706&sys=ICP"
"184",2007,"ICIS","CT0003298",1.10064e+11,"NORWALK CENTER LLC","NORWALK","FAIRFIELD","CT","Non-Major",41.11015,-73.39438,3663,3663,"RADIO & TV COMMUNICATION EQUIP",11000060103,"Outlet Saugatuck River-Frontal Long Island Sound",0,0,0,0,0,0,0.079816925,NA,NA,"https://echo.epa.gov/detailed-facility-report?fid=CT0003298&sys=ICP"
"185",2007,"ICIS","NHG580536",1.10024e+11,"STRATFORD VILLAGE SYSTEM","NORTH STRATFORD","COOS","NH","Non-Major",44.74926,-71.629411,4952,4952,"SEWERAGE SYSTEMS",10801010603,"Dennis Pond Brook-Connecticut River",0,0,0,0,0,0,0.016797873,NA,NA,"https://echo.epa.gov/detailed-facility-report?fid=NHG580536&sys=ICP"
"186",2007,"ICIS","NYR00E884",1.10042e+11,"DOVER MINE","DOVER PLAINS","DUTCHESS","NY","Non-Major",41.691,-73.582,1442,1442,"CONSTRUCTION SAND AND GRAVEL",11000050505,"Swamp River",0,0,0,0,0,0,NA,NA,NA,"https://echo.epa.gov/detailed-facility-report?fid=NYR00E884&sys=ICP"
"187",2007,"ICIS","NH0000621",1.1001e+11,"BERLIN STATE FISH HATCHERY","BERLIN","COOS","NH","Non-Major",44.505428,-71.334325,921,921,"FISH HATCHERIES AND PRESERVES",10801010701,"Headwaters Upper Ammonoosuc River",0,0,0,0,0,0,1.875,NA,NA,"https://echo.epa.gov/detailed-facility-report?fid=NH0000621&sys=ICP"
"188",2007,"ICIS","MA0110035",1.10008e+11,"MCLAUGHLIN STATE FISH HATCHERY/SUNDERLAND","SUNDERLAND","FRANKLIN","MA","Non-Major",42.437028,-72.552917,921,921,"FISH HATCHERIES AND PRESERVES",10802010602,"Russellville Brook-Connecticut River",0,0,0,0,0,0,1.915833333,NA,NA,"https://echo.epa.gov/detailed-facility-report?fid=MA0110035&sys=ICP"
"189",2007,"ICIS","NY0021822",1.10002e+11,"OYSTER BAY WPCP","OYSTER BAY","NASSAU","NY","Major",40.878222,-73.526778,4952,4952,"SEWERAGE SYSTEMS",20302010201,"Mill Neck Creek-Oyster Bay Harbor",0,0,0,0,7.279166667,11.37,NA,NA,NA,"https://echo.epa.gov/detailed-facility-report?fid=NY0021822&sys=ICP"
"190",2007,"ICIS","NH0100307",1.10019e+11,"NEWPORT INDUSTRIAL LAGOON SYSTEM (CLOSED)","NEWPORT (GUILD)","SULLIVAN","NH","Major",43.374313,-72.144599,4952,4952,"SEWERAGE SYSTEMS",10801060405,"Long Pond Brook-Sugar River",0,0,0,0,0.105,0.21,0.075,NA,NA,"https://echo.epa.gov/detailed-facility-report?fid=NH0100307&sys=ICP"
"191",2007,"ICIS","NYR00D814",1.10018e+11,"H.O. PENN MACHINERY CO","BRONX","BRONX","NY","Non-Major",40.819,-73.837,5082,5082,"CONST & MINING MACHINE & EQUIP",20301020105,"Westchester Creek-East River",0,0,0,0,6.7,6.7,NA,NA,NA,"https://echo.epa.gov/detailed-facility-report?fid=NYR00D814&sys=ICP"
"192",2007,"ICIS","NHG580315",1.10028e+11,"COLEBROOK WASTEWATER TREATMENT PLANT","COLEBROOK","COOS","NH","Non-Major",44.901096,-71.498637,NA,NA,NA,10801010305,"Willard Stream-Connecticut River",0,0,0,0,0,0,0.219,NA,NA,"https://echo.epa.gov/detailed-facility-report?fid=NHG580315&sys=ICP"
"193",2007,"ICIS","MA0029327",1.1e+11,"AGRI MARK INC","WEST SPRINGFIELD","HAMPDEN","MA","Non-Major",42.13065,-72.627313,2023,2023,"CONDENSED AND EVAPORATED MILK",10802010702,"Stony Brook-Connecticut River",0,0,0,0,0,0,0,NA,NA,"https://echo.epa.gov/detailed-facility-report?fid=MA0029327&sys=ICP"
"194",2007,"ICIS","CT0001716",1.1e+11,"SIKORSKY AIRCRAFT MAIN PLANT","STRATFORD","FAIRFIELD","CT","Non-Major",41.2484,-73.09765,3721,3721,"AIRCRAFT",11000051302,"Housatonic River-Frontal Long Island Sound",0,0,0,0,0,0,0.021558312,NA,NA,"https://echo.epa.gov/detailed-facility-report?fid=CT0001716&sys=ICP"
"195",2007,"ICIS","MA0110051",1.1001e+11,"MCLAUGHLIN STATE TROUT HATCHERY BITZER TROUT HATCHERY","MONTAGUE","FRANKLIN","MA","Non-Major",42.559611,-72.549889,921,921,"FISH HATCHERIES AND PRESERVES",10802010602,"Russellville Brook-Connecticut River",0,0,0,0,0.826666667,0.92,1.455,NA,NA,"https://echo.epa.gov/detailed-facility-report?fid=MA0110051&sys=ICP"
"196",2007,"ICIS","CT0003387",1.10001e+11,"ROGERS ELASTOMER COMPONENTS DIVISON","WINDHAM","WINDHAM","CT","Non-Major",41.68743,-72.1753,3081,3081,"UNSUPPORTED PLSTICS FILM/SHEET",11000020303,"Beaver Brook-Shetucket River",0,0,0,0,0,0,0,NA,NA,"https://echo.epa.gov/detailed-facility-report?fid=CT0003387&sys=ICP"
"197",2007,"ICIS","VT0101044",1.10011e+11,"WHITINGHAM (JACKSONVILLE)","JACKSONVILLE","WINDHAM COUNTY","VT","Non-Major",42.7853,-72.81453,NA,NA,NA,10802030301,"East Branch North River",0,0,0,0,0,0,0,NA,NA,"https://echo.epa.gov/detailed-facility-report?fid=VT0101044&sys=ICP"
"198",2007,"ICIS","NHG581231",1.1001e+11,"TOWN OF PIERMONT","PIERMONT","GRAFTON","NH","Non-Major",43.978212,-72.049088,NA,NA,NA,10801040201,"Eastman Brook",0,0,0,0,0,0,0.00280231,NA,NA,"https://echo.epa.gov/detailed-facility-report?fid=NHG581231&sys=ICP"
"199",2007,"ICIS","CT0030465",1.10031e+11,"HAYNES MATERIALS COMPANY","DEEP RIVER","MIDDLESEX","CT","Non-Major",41.364706,-72.465156,1411,1411,"DIMENSION STONE",10802050901,"Deep River-Connecticut River",0,0,0,0,0,0,0,NA,NA,"https://echo.epa.gov/detailed-facility-report?fid=CT0030465&sys=ICP"
"200",2007,"ICIS","MA0100161",1.10009e+11,"ROYALSTON WASTEWATER TREATMENT PLANT","ROYALSTON","WORCESTER","MA","Non-Major",42.62896,-72.15324,4952,4952,"SEWERAGE SYSTEMS",10802020204,"Beaver Brook-Millers River",0,0,0,0,0,0,0.004769176,NA,NA,"https://echo.epa.gov/detailed-facility-report?fid=MA0100161&sys=ICP"
"201",2007,"ICIS","NY0165891",1.1001e+11,"PAWLING JOINT SEWER COMM WWTP","PAWLING","DUTCHESS","NY","Non-Major",41.573667,-73.594194,4952,4952,"SEWERAGE SYSTEMS",11000050505,"Swamp River",0,0,0,0,1.001960785,3.376470589,0.258556164,NA,NA,"https://echo.epa.gov/detailed-facility-report?fid=NY0165891&sys=ICP"
"202",2007,"ICIS","NHG581214",1.10024e+11,"STRATFORD-MILL HOUSE","NORTH STRATFORD","COOS","NH","Non-Major",44.869834,-71.526999,4952,4952,"SEWERAGE SYSTEMS",10801010404,"Clough Brook-Connecticut River",0,0,0,0,0,0,0.026913667,NA,NA,"https://echo.epa.gov/detailed-facility-report?fid=NHG581214&sys=ICP"
"203",2007,"ICIS","MA0032573",1.10009e+11,"NORTHFIELD MOUNT HERMON SCHOOL WASTEWATER TREATMENT PLANT","GILL","FRANKLIN","MA","Non-Major",42.63016,-72.51697,4952,4952,"SEWERAGE SYSTEMS",10802010503,"Dry Brook-Connecticut River",0,0,0,0,17.29,17.42,0.08775,NA,NA,"https://echo.epa.gov/detailed-facility-report?fid=MA0032573&sys=ICP"
"204",2007,"ICIS","MA0005011",1.10002e+11,"PAPERLOGIC TURNERS FALLS MILL","MONTAGUE (TURNERS FALLS)","FRANKLIN","MA","Major",42.609152,-72.560239,2621,2621,"PAPER MILLS",10802010503,"Dry Brook-Connecticut River",0,0,0,0,0,0,0.400708333,NA,NA,"https://echo.epa.gov/detailed-facility-report?fid=MA0005011&sys=ICP"
"205",2007,"ICIS","NY0021342",1.10007e+11,"HUNTINGTON SEWER DISTRICT STP","HUNTINGTON","SUFFOLK","NY","Major",40.88122,-73.42209,4952,4952,"SEWERAGE SYSTEMS",20302010203,"Huntington Harbor-Lloyd Harbor",0,0,0,0,8.098333333,19.1,NA,NA,NA,"https://echo.epa.gov/detailed-facility-report?fid=NY0021342&sys=ICP"
"206",2007,"ICIS","NY0026999",1.10001e+11,"VILLAGE OF GREAT NECK STP","GREAT NECK","NASSAU","NY","Major",40.797722,-73.712139,4952,4952,"SEWERAGE SYSTEMS",20302010102,"Mitchells Creek-Manhassett Bay",0,0,0,0,11.16127273,26.57,NA,NA,NA,"https://echo.epa.gov/detailed-facility-report?fid=NY0026999&sys=ICP"
"207",2007,"ICIS","NYR00C613",1.10033e+11,"J & J LOG AND LUMBER CORP","DOVER PLAINS","DUTCHESS","NY","Non-Major",41.686,-73.565,2411,2411,"LOGGING CAMPS/LOGGING CONTRACT",11000050506,"Tenmile River",0,0,0,0,0.31,0.83,NA,NA,NA,"https://echo.epa.gov/detailed-facility-report?fid=NYR00C613&sys=ICP"
"208",2007,"ICIS","NH0021423",1.1001e+11,"PINETREE POWER","BETHLEHEM","GRAFTON","NH","Non-Major",44.328297,-71.690298,4911,4911,"ELECTRICAL SERVICES",10801030403,"Baker Brook-Ammonoosuc River",0,0,0,0,0,0,0,NA,NA,"https://echo.epa.gov/detailed-facility-report?fid=NH0021423&sys=ICP"
"209",2007,"ICIS","NY0023311",1.10002e+11,"SCSD#6 - KINGS PARK STP","KINGS PARK","SUFFOLK","NY","Major",40.895719,-73.231024,4952,4952,"SEWERAGE SYSTEMS",20302010302,"Nissequogue River",0,0,0,0,22.86666667,34.9,NA,NA,NA,"https://echo.epa.gov/detailed-facility-report?fid=NY0023311&sys=ICP"
"210",2007,"ICIS","CT0000744",1.1e+11,"CHROMIUM PROCESS COMPANY","SHELTON","FAIRFIELD","CT","Major",41.317041,-73.091775,3471,3471,"PLATING AND POLISHING",11000051003,"Halfway River-Housatonic River",0,0,0,0,0,0,0.0676845,NA,NA,"https://echo.epa.gov/detailed-facility-report?fid=CT0000744&sys=ICP"
"211",2007,"ICIS","CT0030279",1.10038e+11,"CITY OF STAMFORD","STAMFORD","FAIRFIELD","CT","Non-Major",41.05123,-73.54227,4939,4939,"COMBINATION UTILITIES, NEC",11000060404,"Fivemile River",0,0,0,0,0,0,NA,NA,NA,"https://echo.epa.gov/detailed-facility-report?fid=CT0030279&sys=ICP"
"212",2007,"ICIS","CT0029629",1.10009e+11,"NEW BOSTON EXCHANGE LTD","FARMINGTON","HARTFORD","CT","Non-Major",41.733318,-72.799523,5311,5311,"DEPARTMENT STORES",10802050301,"Trout Brook",0,0,0,0,0,0,0,NA,NA,"https://echo.epa.gov/detailed-facility-report?fid=CT0029629&sys=ICP"
"213",2007,"ICIS","MA0101478",1.10001e+11,"EASTHAMPTON WASTEWATER TREATMENT PLANT","EASTHAMPTON","HAMPSHIRE","MA","Major",42.277698,-72.648897,4952,4952,"SEWERAGE SYSTEMS",10802010609,"Lower Manhan River",0,0,0,0,0,0,1.140694444,NA,NA,"https://echo.epa.gov/detailed-facility-report?fid=MA0101478&sys=ICP"
"214",2007,"ICIS","CT0020389",1.1e+11,"ANOCOIL CORP ROCKVILLE","VERNON ROCKVILLE","TOLLAND","CT","Non-Major",41.866752,-72.440917,3471,3471,"PLATING AND POLISHING",10802050401,"Upper Hockanum River",0,0,0,0,0,0,0.317048,NA,NA,"https://echo.epa.gov/detailed-facility-report?fid=CT0020389&sys=ICP"
"215",2007,"ICIS","NHG580226",1.10028e+11,"GROVETON WASTEWATER TREATMENT PLANT","NORTHUMBERLAND","COOS","NH","Non-Major",44.59855,-71.51745,NA,NA,NA,10801010707,"Upper Ammonoosuc River",0,0,0,0,0,0,0.203083333,NA,NA,"https://echo.epa.gov/detailed-facility-report?fid=NHG580226&sys=ICP"
"216",2007,"ICIS","CT0029530",1.10009e+11,"TA OPERATING LLC","WILLINGTON","TOLLAND","CT","Non-Major",41.91852,-72.26036,4215,4215,"COURIER SERVICES, EXCEPT AIR",11000020104,"Roaring Brook",0,0,0,0,2.03,2.03,NA,NA,NA,"https://echo.epa.gov/detailed-facility-report?fid=CT0029530&sys=ICP"
"217",2007,"ICIS","NYR00E083",1.10007e+11,"AMENIA SAND & GRAVEL","AMENIA","DUTCHESS","NY","Non-Major",41.84088,-73.50957,2951,2951,"PAVING MIXTURES AND BLOCKS",11000050503,"Outlet Webatuck Creek",0,0,0,0,0.32,0.32,NA,NA,NA,"https://echo.epa.gov/detailed-facility-report?fid=NYR00E083&sys=ICP"
"218",2007,"ICIS","CT0001406",1.10001e+11,"PRATT & WHITNEY MIDDLETOWN","MIDDLETOWN","MIDDLESEX","CT","Non-Major",41.536812,-72.561543,3724,3724,"AIRCRAFT ENGINES & ENGINE PART",10802050702,"Mill Creek-Connecticut River",0,0,0,0,0,0,22.28765583,NA,NA,"https://echo.epa.gov/detailed-facility-report?fid=CT0001406&sys=ICP"
"219",2007,"ICIS","NH0001619",1.10001e+11,"ARMY COLD REGIONS RESEARCH & ENGINEERING LAB","HANOVER","GRAFTON","NH","Non-Major",43.72469,-72.27294,9711,9711,"NATIONAL SECURITY",10801040402,"Blood Brook-Connecticut River",0,0,0,0,0,0,0.782583333,NA,NA,"https://echo.epa.gov/detailed-facility-report?fid=NH0001619&sys=ICP"
"220",2007,"ICIS","NY0098868",1.10033e+11,"TACONIC DDSO","WASSAIC","DUTCHESS","NY","Non-Major",41.775056,-73.566972,8999,8999,"SERVICES, NEC",11000050506,"Tenmile River",0,0,0,0,0.5675,2.2,0.012,NA,NA,"https://echo.epa.gov/detailed-facility-report?fid=NY0098868&sys=ICP"
"221",2007,"ICIS","NYR00E127",1.10004e+11,"NEW YORK ORGANIC FERTILIZER CO","BRONX","BRONX","NY","Non-Major",40.809036,-73.893918,2875,2875,"FERTILIZERS, MIXING ONLY",20301020105,"Westchester Creek-East River",0,0,0,0,0,0,NA,NA,NA,"https://echo.epa.gov/detailed-facility-report?fid=NYR00E127&sys=ICP"
"222",2007,"ICIS","MAG580001",1.10002e+11,"OLD DEERFIELD WASTEWATER TREATMENT PLANT","DEERFIELD","FRANKLIN","MA","Non-Major",42.551231,-72.61107,NA,NA,NA,10802030502,"Bear River-Deerfield River",0,0,0,0,0,0,0.142333333,NA,NA,"https://echo.epa.gov/detailed-facility-report?fid=MAG580001&sys=ICP"
"223",2007,"ICIS","VT0100633",1.1004e+11,"DANVILLE WATER POLLUTION CONTROL FACILITY","DANVILLE","CALEDONIA","VT","Non-Major",44.411176,-72.147228,NA,NA,NA,10801020402,"Joes Brook",0,0,0,0,0,0,0,NA,NA,"https://echo.epa.gov/detailed-facility-report?fid=VT0100633&sys=ICP"
"224",2007,"ICIS","CT0000850",1.10018e+11,"GIVAUDAN FLAVORS CORPORATION","NEW MILFORD","LITCHFIELD","CT","Major",41.58967,-73.442,2033,2033,"CANNED FRUITS, VEG, PRES, JAM",11000050604,"Great Brook-Housatonic River",0,0,0,0,0,0,0,NA,NA,"https://echo.epa.gov/detailed-facility-report?fid=CT0000850&sys=ICP"
"225",2007,"ICIS","CT0029327",1.1001e+11,"SOUTHINGTON WATER WORKS","SOUTHINGTON","HARTFORD","CT","Non-Major",41.587558,-72.898486,4941,4941,"WATER SUPPLY",11000040101,"Eightmile River",0,0,0,0,0,0,0.003300833,NA,NA,"https://echo.epa.gov/detailed-facility-report?fid=CT0029327&sys=ICP"
"226",2007,"ICIS","NYR00F018",1.10044e+11,"MAGELLAN AEROSPACE NY CORONA","CORONA","QUEENS","NY","Non-Major",40.742,-73.865,3471,3471,"PLATING AND POLISHING",20301020104,"Flushing Creek-Flushing Bay",0,0,0,0,0,0,NA,NA,NA,"https://echo.epa.gov/detailed-facility-report?fid=NYR00F018&sys=ICP"
"227",2007,"ICIS","CT0101346",1.10009e+11,"LYNWOOD PLACE, LLC","SANDY HOOK","FAIRFIELD","CT","Non-Major",41.4322,-73.27559,4952,4952,"SEWERAGE SYSTEMS",11000051001,"Pootatuck River",0,0,0,0,0,0,0.001189,NA,NA,"https://echo.epa.gov/detailed-facility-report?fid=CT0101346&sys=ICP"
"228",2007,"ICIS","NH0021415",1.10004e+11,"NEW ENGLAND ELECTRIC TRANS CO","MONROE","GRAFTON","NH","Non-Major",44.316728,-71.991204,4911,4911,"ELECTRICAL SERVICES",10801030205,"McIndoe Falls-Connecticut River",0,0,0,0,0,0,0.000902667,NA,NA,"https://echo.epa.gov/detailed-facility-report?fid=NH0021415&sys=ICP"
"229",2008,"ICIS","NY0026191",1.10013e+11,"HUNTS POINT WATER POLLUTION CONTROL PLANT","BRONX","BRONX","NY","Major",40.803694,-73.885083,4952,4952,"SEWERAGE SYSTEMS",20301020105,"Westchester Creek-East River",7424500,0,0,0,0,0,NA,NA,NA,"https://echo.epa.gov/detailed-facility-report?fid=NY0026191&sys=ICP"
"230",2008,"ICIS","NY0026158",1.10001e+11,"NYCDEP - BOWERY BAY WPCP","ASTORIA","QUEENS","NY","Major",40.778405,-73.89459,4952,4952,"SEWERAGE SYSTEMS",20301020105,"Westchester Creek-East River",6316500,0,0,0,0,0,NA,NA,NA,"https://echo.epa.gov/detailed-facility-report?fid=NY0026158&sys=ICP"
"231",2008,"ICIS","NY0026239",1.10002e+11,"TALLMAN ISLAND WASTEWATER TREATMENT PLANT","COLLEGE POINT","QUEENS","NY","Major",40.795556,-73.839333,4952,4952,"SEWERAGE SYSTEMS",20301020105,"Westchester Creek-East River",3284300,0,0,0,18.64672508,21.65149512,57.83333333,NA,NA,"https://echo.epa.gov/detailed-facility-report?fid=NY0026239&sys=ICP"
"232",2008,"ICIS","MA0101290",1.1001e+11,"HATFIELD WASTEWATER TREATMENT FACILITY","HATFIELD","HAMPSHIRE","MA","Non-Major",42.394226,-72.592828,4952,4952,"SEWERAGE SYSTEMS",10802010602,"Russellville Brook-Connecticut River",1819817.61,0,0,0,4728.235513,18798.65715,0.258833333,NA,NA,"https://echo.epa.gov/detailed-facility-report?fid=MA0101290&sys=ICP"
"233",2008,"ICIS","CT0030309",1.10013e+11,"MILFORD POWER STATION","MILFORD","NEW HAVEN","CT","Major",41.223948,-73.099068,NA,NA,NA,11000051302,"Housatonic River-Frontal Long Island Sound",659402.0084,0,0,0,79.18184556,556.5962712,0.902363636,NA,"Y","https://echo.epa.gov/detailed-facility-report?fid=CT0030309&sys=ICP"
"234",2008,"ICIS","NY0026697",1.10019e+11,"NEW ROCHELLE STP","NEW ROCHELLE","WESTCHESTER","NY","Major",40.913,-73.769361,4952,4952,"SEWERAGE SYSTEMS",20301020203,"East Creek-Mamaroneck Harbor",629566,0,0,0,0,0,0.002508224,NA,NA,"https://echo.epa.gov/detailed-facility-report?fid=NY0026697&sys=ICP"
"235",2008,"ICIS","MA0101508",1.10001e+11,"CHICOPEE WATER POLLUTION CONTROL","CHICOPEE","HAMPDEN","MA","Major",42.15376,-72.62166,4952,4952,"SEWERAGE SYSTEMS",10802040402,"Outlet Chicopee River",610641.4,0,0,0,6.865071764,10.28160735,9.853333333,NA,NA,"https://echo.epa.gov/detailed-facility-report?fid=MA0101508&sys=ICP"
"236",2008,"ICIS","MA0101613",1.10008e+11,"SPRINGFIELD REGIONAL WASTEWATER TREATMENT PLANT","AGAWAM","HAMPDEN","MA","Major",42.087793,-72.588998,4952,4952,"SEWERAGE SYSTEMS",10802010702,"Stony Brook-Connecticut River",590165.236,0,0,0,2.235083333,3.155,43.29166667,NA,NA,"https://echo.epa.gov/detailed-facility-report?fid=MA0101613&sys=ICP"
"237",2008,"ICIS","NY0026701",1.10019e+11,"MAMARONECK (V) SANITARY SD","MAMARONECK","WESTCHESTER","NY","Major",40.946833,-73.733694,4952,4952,"SEWERAGE SYSTEMS",20301020202,"Sheldrake River-Mamaroneck River",501077,0,0,0,0,0,16.03080808,NA,NA,"https://echo.epa.gov/detailed-facility-report?fid=NY0026701&sys=ICP"
"238",2008,"ICIS","MA0101681",1.10007e+11,"PITTSFIELD WASTEWATER TREATMENT FACILITY","PITTSFIELD","BERKSHIRE","MA","Major",42.407678,-73.24276,4952,4952,"SEWERAGE SYSTEMS",11000050104,"Sackett Brook-Housatonic River",435349.9491,0,0,0,4.022222222,5.718333333,11.8,NA,NA,"https://echo.epa.gov/detailed-facility-report?fid=MA0101681&sys=ICP"
"239",2008,"ICIS","MA0101818",1.10002e+11,"NORTHAMPTON WASTEWATER TREATMENT PLANT","NORTHAMPTON","HAMPSHIRE","MA","Major",42.313056,-72.623333,4952,4952,"SEWERAGE SYSTEMS",10802010610,"Dry Brook-Connecticut River",405340.6364,0,0,0,8.045689349,12.39676848,2.266666667,NA,NA,"https://echo.epa.gov/detailed-facility-report?fid=MA0101818&sys=ICP"
"240",2008,"ICIS","CT0003760",1.10001e+11,"PSEG FOSSIL LLC/ POWER CT LLC","NEW HAVEN","NEW HAVEN","CT","Major",41.283986,-72.904546,4911,4911,"ELECTRICAL SERVICES",11000040208,"Indian River-Frontal Long Island Sound",316777.3284,0,0,0,0.306041667,0.73,43.40170838,NA,NA,"https://echo.epa.gov/detailed-facility-report?fid=CT0003760&sys=ICP"
"241",2008,"ICIS","CT0101249",1.10007e+11,"NORWALK WASTEWATER TREATMENT PLANT","NORWALK","FAIRFIELD","CT","Major",41.102216,-73.412604,4952,4952,"SEWERAGE SYSTEMS",11000060202,"Norwalk River-Frontal Norwalk Harbor",313179,0,0,0,7.280727836,8.087779365,14.275,NA,NA,"https://echo.epa.gov/detailed-facility-report?fid=CT0101249&sys=ICP"
"242",2008,"ICIS","CT0101087",1.10056e+11,"STAMFORD WATER POLLUTION CONTROL FACILITY","STAMFORD","FAIRFIELD","CT","Major",41.046247,-73.52996,4952,4952,"SEWERAGE SYSTEMS",11000060404,"Fivemile River",285844.9601,0,0,0,2.302222222,4.6,17.18333333,NA,NA,"https://echo.epa.gov/detailed-facility-report?fid=CT0101087&sys=ICP"
"243",2008,"ICIS","CT0101036",1.10001e+11,"STRATFORD WATER POLLUTION CONTROL FACILITY","STRATFORD","FAIRFIELD","CT","Major",41.17816,-73.1257,4952,4952,"SEWERAGE SYSTEMS",11000051302,"Housatonic River-Frontal Long Island Sound",275400.5858,0,0,0,14,15.49,9.803333333,NA,NA,"https://echo.epa.gov/detailed-facility-report?fid=CT0101036&sys=ICP"
"244",2008,"ICIS","NY0026786",1.10001e+11,"PORT CHESTER  WASTEWATER TREATMENT PLANT","PORT CHESTER","WESTCHESTER","NY","Major",40.992028,-73.658556,4952,4952,"SEWERAGE SYSTEMS",11000060403,"Byram River",227262,0,0,0,0,0,4.403287671,NA,NA,"https://echo.epa.gov/detailed-facility-report?fid=NY0026786&sys=ICP"
"245",2008,"ICIS","MA0100994",1.10044e+11,"GARDNER WWTF","EAST TEMPLETON","WORCESTER","MA","Major",42.5698,-72.0201,4952,4952,"SEWERAGE SYSTEMS",10802020201,"Otter River",207944.3116,0,0,0,9.218333333,26.47,3.325,NA,NA,"https://echo.epa.gov/detailed-facility-report?fid=MA0100994&sys=ICP"
"246",2008,"ICIS","CT0100641",1.10001e+11,"NAUGATUCK WATER POLLUTION CONTROL FACILITY","NAUGATUCK","NEW HAVEN","CT","Major",41.472975,-73.053986,4952,4952,"SEWERAGE SYSTEMS",11000051205,"Long Meadow Pond Brook-Naugatuck River",189396.8302,0,0,0,11.29166667,23.2,5.566666667,NA,NA,"https://echo.epa.gov/detailed-facility-report?fid=CT0100641&sys=ICP"
"247",2008,"ICIS","NY0026778",1.10002e+11,"WATER POLL CONTR DIST","PORT WASHINGTON","NASSAU","NY","Major",40.83944,-73.69721,4952,4952,"SEWERAGE SYSTEMS",20302010102,"Mitchells Creek-Manhassett Bay",170329.8468,0,0,0,7,8.7,2.666666667,NA,NA,"https://echo.epa.gov/detailed-facility-report?fid=NY0026778&sys=ICP"
"248",2008,"ICIS","MA0100218",1.1001e+11,"AMHERST WASTEWATER TREATMENT PLANT","HADLEY","HAMPSHIRE","MA","Major",42.387696,-72.537382,4952,4952,"SEWERAGE SYSTEMS",10802010603,"Doolittle Brook-Mill River",166259.5433,0,0,0,5.954166667,9.25,4.562916667,NA,NA,"https://echo.epa.gov/detailed-facility-report?fid=MA0100218&sys=ICP"
"249",2008,"ICIS","MA0101630",1.10001e+11,"HOLYOKE WATER POLLUTION CONTROL FACILITY","HOLYOKE","HAMPDEN","MA","Major",42.191041,-72.612574,4952,4952,"SEWERAGE SYSTEMS",10802010702,"Stony Brook-Connecticut River",156199.7075,0,0,0,2.917375,5.53,8.691666667,NA,NA,"https://echo.epa.gov/detailed-facility-report?fid=MA0101630&sys=ICP"
"250",2008,"ICIS","MA0100439",1.10024e+11,"WEBSTER WASTWATER TREATMENT FACILITY","WEBSTER","WORCESTER","MA","Major",42.038576,-71.888022,4952,4952,"SEWERAGE SYSTEMS",11000010203,"Middle French River",136283.8849,0,0,0,5.1375,9.366666667,2.91325,NA,NA,"https://echo.epa.gov/detailed-facility-report?fid=MA0100439&sys=ICP"
"251",2008,"ICIS","MA0101214",1.10024e+11,"GREENFIELD WATER POLLUTION CONTROL FACILITY","GREENFIELD","FRANKLIN","MA","Major",42.571367,-72.598121,4952,4952,"SEWERAGE SYSTEMS",10802030402,"Lower Green River",128305.1366,0,0,0,3.217777778,4.466666667,4.3775,NA,NA,"https://echo.epa.gov/detailed-facility-report?fid=MA0101214&sys=ICP"
"252",2008,"ICIS","MA0100455",1.10001e+11,"SOUTH HADLEY WASTEWATER TREATMENT FACILITY","CHICOPEE","HAMPDEN","MA","Major",42.205371,-72.58814,4952,4952,"SEWERAGE SYSTEMS",10802010702,"Stony Brook-Connecticut River",120236.5542,0,0,0,5.192291667,9.8875,4.125,NA,NA,"https://echo.epa.gov/detailed-facility-report?fid=MA0100455&sys=ICP"
"253",2008,"ICIS","MA0101168",1.1001e+11,"PALMER WATER POLLUTION CONTROL FACILITY","PALMER (THREE RIVERS)","HAMPDEN","MA","Major",42.185311,-72.362228,4952,4952,"SEWERAGE SYSTEMS",10802040207,"Danforth Brook-Ware River",119735.4874,0,0,0,5.057972222,7.156666667,2.175,NA,NA,"https://echo.epa.gov/detailed-facility-report?fid=MA0101168&sys=ICP"
"254",2008,"ICIS","CT0100510",1.10001e+11,"SOUTH WINDSOR WATER POLLUTION CONTROL FACILITY","SOUTH WINDSOR","HARTFORD","CT","Major",41.829512,-72.635461,4952,4952,"SEWERAGE SYSTEMS",10802050502,"Stoughton Brook-Connecticut River",110012.5252,0,0,0,19.22363636,23.2,1.944333333,NA,NA,"https://echo.epa.gov/detailed-facility-report?fid=CT0100510&sys=ICP"
"255",2008,"ICIS","CT0003875",1.10002e+11,"CRRA MID-CONN FACILITY","HARTFORD","HARTFORD","CT","Major",41.748663,-72.650764,4911,4911,"ELECTRICAL SERVICES",10802050505,"Goff Brook-Connecticut River",108851.5566,0,0,0,0.235833333,0.266666667,15.96435914,NA,NA,"https://echo.epa.gov/detailed-facility-report?fid=CT0003875&sys=ICP"
"256",2008,"ICIS","NY0026719",1.10001e+11,"BLIND BROOK SD WWTP","RYE","WESTCHESTER","NY","Major",40.96475,-73.690778,4952,4952,"SEWERAGE SYSTEMS",11000060405,"Blind Brook-Horseneck Brook",108286,0,0,0,9.725938924,13.21679822,3.69,NA,NA,"https://echo.epa.gov/detailed-facility-report?fid=NY0026719&sys=ICP"
"257",2008,"ICIS","MA0101478",1.10001e+11,"EASTHAMPTON WASTEWATER TREATMENT PLANT","EASTHAMPTON","HAMPSHIRE","MA","Major",42.277698,-72.648897,4952,4952,"SEWERAGE SYSTEMS",10802010609,"Lower Manhan River",104055.33,0,0,0,16.36583879,45.01769255,1.699222222,NA,NA,"https://echo.epa.gov/detailed-facility-report?fid=MA0101478&sys=ICP"
"258",2008,"ICIS","NY0026841",1.10007e+11,"BELGRAVE WPCP","GREAT NECK","NASSAU","NY","Major",40.778861,-73.7425,4952,4952,"SEWERAGE SYSTEMS",20302010101,"Alley Creek-Little Neck Bay",100565.5075,0,0,0,7.571416667,8.723666667,1.453333333,NA,NA,"https://echo.epa.gov/detailed-facility-report?fid=NY0026841&sys=ICP"
"259",2008,"ICIS","NY0022128",1.10065e+11,"GREAT NECK (V) WPCP","GREAT NECK","NASSAU","NY","Major",40.797539,-73.713261,4952,4952,"SEWERAGE SYSTEMS",20302010102,"Mitchells Creek-Manhassett Bay",98010,0,0,0,0,0,0.884441096,NA,NA,"https://echo.epa.gov/detailed-facility-report?fid=NY0022128&sys=ICP"
"260",2008,"ICIS","NHG580099",1.10002e+11,"HANOVER WASTEWATER TREATMENT FACILITY","HANOVER","GRAFTON","NH","Non-Major",43.69523,-72.297549,4952,4952,"SEWERAGE SYSTEMS",10801040401,"Mink Brook",87427.70395,0,0,0,46.09354839,78.38709677,1.508916667,NA,NA,"https://echo.epa.gov/detailed-facility-report?fid=NHG580099&sys=ICP"
"261",2008,"ICIS","MA0100005",1.10007e+11,"ATHOL WASTEWATER TREATMENT FACILITY","ATHOL","WORCESTER","MA","Major",42.586234,-72.242982,4952,4952,"SEWERAGE SYSTEMS",10802020204,"Beaver Brook-Millers River",78255.23333,0,0,0,5.500866167,14.61195552,1.581416667,NA,NA,"https://echo.epa.gov/detailed-facility-report?fid=MA0100005&sys=ICP"
"262",2008,"ICIS","MA0000671",1.10002e+11,"CRANE WASTEWATER TREATEMENT PLANT","DALTON","BERKSHIRE","MA","Major",42.46776,-73.18482,2621,2621,"PAPER MILLS",11000050103,"East Branch Housatonic River",76280.04525,0,0,0,3.745,7.25,3.330916667,NA,NA,"https://echo.epa.gov/detailed-facility-report?fid=MA0000671&sys=ICP"
"263",2008,"ICIS","CT0003263",1.10017e+11,"DOMINION MILLSTONE NUCLEAR POWER STATION","WATERFORD","NEW LONDON","CT","Major",41.307765,-72.165617,4911,4911,"ELECTRICAL SERVICES",11000030305,"Fenger Brook-Frontal Lond Island Sound",68290.63146,0,0,0,0.02,0.03,112.8182752,NA,NA,"https://echo.epa.gov/detailed-facility-report?fid=CT0003263&sys=ICP"
"264",2008,"ICIS","NY0026620",1.10001e+11,"GLEN COVE WASTEWATER TREATMENT FACILITY","GLEN COVE","NASSAU","NY","Major",40.858722,-73.641667,4952,4952,"SEWERAGE SYSTEMS",20302010103,"Glen Cove Creek-Hempstead Harbor",59392.76525,0,0,0,1.138212121,2.903333333,2.875,NA,NA,"https://echo.epa.gov/detailed-facility-report?fid=NY0026620&sys=ICP"
"265",2008,"ICIS","CT0100455",1.10056e+11,"PLAINVILLE WPCF","PLAINVILLE","HARTFORD","CT","Major",41.68032,-72.86501,4952,4952,"SEWERAGE SYSTEMS",10802070404,"Pequabuck River",56010.16659,15342.24966,0,15342.24966,7.872083333,14.75,2.340833333,NA,NA,"https://echo.epa.gov/detailed-facility-report?fid=CT0100455&sys=ICP"
"266",2008,"ICIS","MA0101524",1.10001e+11,"GREAT BARRINGTON WASTEWATER TREATMENT FACILITY","GREAT BARRINGTON","BERKSHIRE","MA","Major",42.18994,-73.35709,4952,4952,"SEWERAGE SYSTEMS",11000050204,"Ironwork Brook-Housatonic River",51499.71717,0,0,0,3.964444444,5.941666667,1.5295,NA,NA,"https://echo.epa.gov/detailed-facility-report?fid=MA0101524&sys=ICP"
"267",2008,"ICIS","CT0100315",1.10001e+11,"MERIDEN WATER POLLUTION CONTROL FACILITY","MERIDEN","NEW HAVEN","CT","Major",41.513431,-72.827878,4952,4952,"SEWERAGE SYSTEMS",11000040105,"Outlet Quinnipiac River",50840.79621,0,0,0,1.1825,3.32,12.275,NA,NA,"https://echo.epa.gov/detailed-facility-report?fid=CT0100315&sys=ICP"
"268",2008,"ICIS","MA0110264",1.10007e+11,"AUSTRALIS AQUACULTURE, LLC","MONTAGUE (TURNERS FALLS)","FRANKLIN","MA","Non-Major",42.59159,-72.5291,921,921,"FISH HATCHERIES AND PRESERVES",10802010503,"Dry Brook-Connecticut River",49921.09864,0,0,0,22.56416667,63.195,0.093333333,NA,NA,"https://echo.epa.gov/detailed-facility-report?fid=MA0110264&sys=ICP"
"269",2008,"ICIS","NH0100145",1.10007e+11,"LANCASTER WASTEWATER TREATMENT FACILITY","LANCASTER","COOS","NH","Major",44.484948,-71.595363,4952,4952,"SEWERAGE SYSTEMS",10801010903,"Mink Brook-Connecticut River",48751.52072,0,0,0,14.47240279,15.75813891,0.974833333,NA,NA,"https://echo.epa.gov/detailed-facility-report?fid=NH0100145&sys=ICP"
"270",2008,"ICIS","MA0100137",1.10001e+11,"MONTAGUE WASTEWATER TREATMENT FACILITY","MONTAGUE","FRANKLIN","MA","Major",42.5808,-72.57232,4952,4952,"SEWERAGE SYSTEMS",10802010602,"Russellville Brook-Connecticut River",43642.87681,0,0,0,3.451664767,7.75,1.133833333,NA,NA,"https://echo.epa.gov/detailed-facility-report?fid=MA0100137&sys=ICP"
"271",2008,"ICIS","MA0101516",1.10001e+11,"ERVING WASTEWATER TREATMENT PLANT #1","ERVING","FRANKLIN","MA","Major",42.588774,-72.49445,4952,4952,"SEWERAGE SYSTEMS",10802020207,"Lyons Brook-Millers River",43269.63687,0,0,0,27.96279316,40.79290737,0.190916667,NA,NA,"https://echo.epa.gov/detailed-facility-report?fid=MA0101516&sys=ICP"
"272",2008,"ICIS","MA0100889",1.10007e+11,"WARE WASTEWATER TREATMENT PLANT","WARE","HAMPSHIRE","MA","Major",42.25194,-72.25514,4952,4952,"SEWERAGE SYSTEMS",10802040207,"Danforth Brook-Ware River",42025.71121,0,0,0,7.595,60.85,0.805416667,NA,"Y","https://echo.epa.gov/detailed-facility-report?fid=MA0100889&sys=ICP"
"273",2008,"ICIS","MA0101257",1.10007e+11,"ORANGE WASTEWATER TREATMENT PLANT","ORANGE","FRANKLIN","MA","Major",42.59606,-72.33146,4952,4952,"SEWERAGE SYSTEMS",10802020205,"Mill Brook-Millers River",41915.97582,0,0,0,17.98229896,30.6215,1.287333333,NA,NA,"https://echo.epa.gov/detailed-facility-report?fid=MA0101257&sys=ICP"
"274",2008,"ICIS","MA0101052",1.10023e+11,"ERVING WASTEWATER TREATMENT PLANT #2","ERVING","FRANKLIN","MA","Major",42.5975,-72.3879,4952,4952,"SEWERAGE SYSTEMS",10802020207,"Lyons Brook-Millers River",35738.24436,0,0,0,2.214323606,4.15483871,1.738833333,NA,NA,"https://echo.epa.gov/detailed-facility-report?fid=MA0101052&sys=ICP"
"275",2008,"ICIS","CT0100617",1.10001e+11,"WALLINGFORD WATER POLLUTION CONTROL FACILITY","WALLINGFORD","NEW HAVEN","CT","Major",41.446099,-72.837583,4952,4952,"SEWERAGE SYSTEMS",11000040105,"Outlet Quinnipiac River",33651.66261,0,0,0,1.5,3.8,6.27,NA,NA,"https://echo.epa.gov/detailed-facility-report?fid=CT0100617&sys=ICP"
"276",2008,"ICIS","MA0101061",1.10007e+11,"NORTH BROOKFIELD WASTE WATER TREATMENT PLANT","NORTH BROOKFIELD","WORCESTER","MA","Major",42.248876,-72.074475,4952,4952,"SEWERAGE SYSTEMS",10802040303,"Upper Quaboag River",30828.18,0,0,0,5.86632795,16.86582009,0.458083333,NA,NA,"https://echo.epa.gov/detailed-facility-report?fid=MA0101061&sys=ICP"
"277",2008,"ICIS","CT0025305",1.1e+11,"UNIMETAL SURFACE FINISHING, LLC","THOMASTON","LITCHFIELD","CT","Major",41.66935,-73.07774,3471,3471,"PLATING AND POLISHING",11000051105,"Northfield Brook-Naugatuck River",29477.29849,0,0,0,28.595271,52.59596298,0.023847812,NA,NA,"https://echo.epa.gov/detailed-facility-report?fid=CT0025305&sys=ICP"
"278",2008,"ICIS","NH0100790",1.10002e+11,"KEENE WASTEWATER TREATMENT FACILITY","KEENE","CHESHIRE","NH","Major",42.89049,-72.27547,4952,4952,"SEWERAGE SYSTEMS",10802010303,"South Branch Ashuelot River",29359,0,0,0,2.485473958,9.351570638,3.5515,NA,NA,"https://echo.epa.gov/detailed-facility-report?fid=NH0100790&sys=ICP"
"279",2008,"ICIS","MA0100421",1.10002e+11,"STURBRIDGE WATER POLLUTION CONTROL FACILITY","STURBRIDGE","WORCESTER","MA","Major",42.104697,-72.088066,4952,4952,"SEWERAGE SYSTEMS",11000010103,"McKinstry Brook-Quinebaug River",28693.3116,0,0,0,4.683888889,6.003333333,0.667,NA,NA,"https://echo.epa.gov/detailed-facility-report?fid=MA0100421&sys=ICP"
"280",2008,"ICIS","NH0100200",1.10007e+11,"NEWPORT WASTEWATER TREATMENT FACILITY","NEWPORT","SULLIVAN","NH","Major",43.376645,-72.181957,4952,4952,"SEWERAGE SYSTEMS",10801060405,"Long Pond Brook-Sugar River",28650.47555,0,0,0,13.66666667,28,0.694166667,NA,NA,"https://echo.epa.gov/detailed-facility-report?fid=NH0100200&sys=ICP"
"281",2008,"ICIS","MA0100862",1.10001e+11,"WINCHENDON WATER POLLUTION CONTROL FACILITY","WINCHENDON","WORCESTER","MA","Major",42.68367,-72.08202,4952,4952,"SEWERAGE SYSTEMS",10802020103,"Torbell Brook-Millers River",28371.16572,570,0,570,7.770661199,16,0.311166667,NA,NA,"https://echo.epa.gov/detailed-facility-report?fid=MA0100862&sys=ICP"
"282",2008,"ICIS","NH0100153",1.10001e+11,"LITTLETON WASTEWATER TREATMENT PLANT","LITTLETON","GRAFTON","NH","Major",44.30882,-71.79048,4952,4952,"SEWERAGE SYSTEMS",10801030403,"Baker Brook-Ammonoosuc River",28330.60796,0,0,0,28.28430108,45.5,0.951,NA,NA,"https://echo.epa.gov/detailed-facility-report?fid=NH0100153&sys=ICP"
"283",2008,"ICIS","MA0100935",1.10009e+11,"LENOX CENTER WASTEWATER TREATMENT FACILITY","LENOX","BERKSHIRE","MA","Major",42.34831,-73.24545,4952,4952,"SEWERAGE SYSTEMS",11000050104,"Sackett Brook-Housatonic River",26305.6618,0,0,0,3.314848485,5.46,0.923916667,NA,NA,"https://echo.epa.gov/detailed-facility-report?fid=MA0100935&sys=ICP"
"284",2008,"ICIS","CT0003212",1.10033e+11,"KIMBERLY-CLARK TISSUE MILL","NEW MILFORD","LITCHFIELD","CT","Major",41.5567,-73.4102,2676,2676,"SANITARY PAPER PRODUCTS",11000050604,"Great Brook-Housatonic River",25096.67055,0,0,0,2.93091803,4.878775539,1.455416667,NA,NA,"https://echo.epa.gov/detailed-facility-report?fid=CT0003212&sys=ICP"
"285",2008,"ICIS","NY0206644",1.1001e+11,"SUFFOLK CO SD#21 SUNY","STONY BROOK","SUFFOLK","NY","Major",40.924472,-73.121139,4952,4952,"SEWERAGE SYSTEMS",20302010304,"Mt Sinai Harbor-Port Jefferson Harbor",23781.99079,0,0,0,0.722222222,2.516666667,0.892083333,NA,NA,"https://echo.epa.gov/detailed-facility-report?fid=NY0206644&sys=ICP"
"286",2008,"ICIS","CT0100145",1.10001e+11,"DANBURY WATER POLLUTION CONTROL FACILITY","DANBURY","FAIRFIELD","CT","Major",41.402711,-73.418112,4952,4952,"SEWERAGE SYSTEMS",11000050802,"Limekiln Brook-Still River",23335.64863,0,0,0,0.818333333,3.54,9.4,NA,NA,"https://echo.epa.gov/detailed-facility-report?fid=CT0100145&sys=ICP"
"287",2008,"ICIS","CT0100625",1.10002e+11,"WATERBURY WATER POLLUTION CONTROL FACILITY","WATERBURY","NEW HAVEN","CT","Major",41.52161,-73.04427,4952,4952,"SEWERAGE SYSTEMS",11000051205,"Long Meadow Pond Brook-Naugatuck River",22501.41501,0,0,0,0.341666667,0.54,23.25833333,NA,NA,"https://echo.epa.gov/detailed-facility-report?fid=CT0100625&sys=ICP"
"288",2008,"ICIS","CT0100218",1.10001e+11,"FARMINGTON WPCF","FARMINGTON","HARTFORD","CT","Major",41.728989,-72.828711,4952,4952,"SEWERAGE SYSTEMS",10802070405,"Roaring Brook-Farmington River",21590.97474,0,0,0,1.88,2.9,4.3,NA,NA,"https://echo.epa.gov/detailed-facility-report?fid=CT0100218&sys=ICP"
"289",2008,"ICIS","CT0101320",1.1004e+11,"UNIVERSITY OF CT WATER POLLUTION CONTROL FACILITY","STORRS","TOLLAND","CT","Major",41.811635,-72.263126,8221,8221,"COLLEGES, UNIV & PROF SCHOOLS",11000020108,"Nelson Brook-Willimantic River",21381.8645,0,0,0,6.404166667,7.9,1.108083333,NA,NA,"https://echo.epa.gov/detailed-facility-report?fid=CT0101320&sys=ICP"
"290",2008,"ICIS","CT0000434",1.10036e+11,"AHLSTROM NONWOVENS","WINDSOR LOCKS","HARTFORD","CT","Major",41.925376,-72.625924,2621,2621,"PAPER MILLS",10802050105,"Freshwater Brook-Connecticut River",20957.33508,0,0,0,1.592,2.1,0.868240683,NA,NA,"https://echo.epa.gov/detailed-facility-report?fid=CT0000434&sys=ICP"
"291",2008,"ICIS","MA0101567",1.10001e+11,"WARREN WASTEWATER TREATMENT PLANT","WARREN","WORCESTER","MA","Major",42.210084,-72.24737,4952,4952,"SEWERAGE SYSTEMS",10802040305,"Middle Quaboag River",19802.3,0,0,0,10.62770635,18.07302611,0.309083333,NA,NA,"https://echo.epa.gov/detailed-facility-report?fid=MA0101567&sys=ICP"
"292",2008,"ICIS","MA0100099",1.1001e+11,"HADLEY WASTEWATER TREATMENT PLANT","HADLEY","HAMPSHIRE","MA","Non-Major",42.32859,-72.586487,4952,4952,"SEWERAGE SYSTEMS",10802010610,"Dry Brook-Connecticut River",19636.67625,0,0,0,23.19180108,24.53333333,0.401833333,NA,NA,"https://echo.epa.gov/detailed-facility-report?fid=MA0100099&sys=ICP"
"293",2008,"ICIS","MA0101800",1.10024e+11,"WESTFIELD WASTEWATER TREATMENT PLANT","WESTFIELD","HAMPDEN","MA","Non-Major",42.125314,-72.730211,4952,4952,"SEWERAGE SYSTEMS",10802060301,"Moose Meadow Brook-Westfield River",19331.8113,0,0,0,1.6725,7.21,4.138666667,NA,NA,"https://echo.epa.gov/detailed-facility-report?fid=MA0101800&sys=ICP"
"294",2008,"ICIS","MA0100919",1.10001e+11,"SPENCER WASTEWATER TREATMENT PLANT","SPENCER","WORCESTER","MA","Major",42.231774,-72.013348,4952,4952,"SEWERAGE SYSTEMS",10802040301,"Sevenmile River",17021.485,0,0,0,16.78275419,40.08063418,0.515,NA,NA,"https://echo.epa.gov/detailed-facility-report?fid=MA0100919&sys=ICP"
"295",2008,"ICIS","MA0100901",1.10024e+11,"SOUTHBRIDGE WASTEWTER TREATMENT FACILITY","SOUTHBRIDGE","WORCESTER","MA","Major",42.06969,-72.0063,4952,4952,"SEWERAGE SYSTEMS",11000010104,"Cady Brook-Quinebaug River",16965.93399,0,0,0,2.004285714,10,2.935833333,NA,NA,"https://echo.epa.gov/detailed-facility-report?fid=MA0100901&sys=ICP"
"296",2008,"ICIS","CT0100404",1.10002e+11,"NORTH HAVEN WATER POLLUTION CONTROL FACILITY","NORTH HAVEN","NEW HAVEN","CT","Major",41.364329,-72.871671,4952,4952,"SEWERAGE SYSTEMS",11000040104,"Muddy River",16854.9878,0,0,0,1.441666667,4,3.668333333,NA,NA,"https://echo.epa.gov/detailed-facility-report?fid=CT0100404&sys=ICP"
"297",2008,"ICIS","MA0101648",1.10007e+11,"SOUTH DEERFIELD WASTEWATER TREATMENT PLANT","DEERFIELD","FRANKLIN","MA","Non-Major",42.46829,-72.58914,4952,4952,"SEWERAGE SYSTEMS",10802010602,"Russellville Brook-Connecticut River",16776.77346,0,0,0,14.66629032,28.02933333,0.52275,NA,NA,"https://echo.epa.gov/detailed-facility-report?fid=MA0101648&sys=ICP"
"298",2008,"ICIS","MA0101087",1.1001e+11,"STOCKBRIDGE WASTEWATER TREATMENT PLANT","STOCKBRIDGE","BERKSHIRE","MA","Non-Major",42.293751,-73.325903,4952,4952,"SEWERAGE SYSTEMS",11000050107,"Konkapot Brook-Housatonic River",15897.94315,0,0,0,6.695833333,14.01333333,0.25245,NA,NA,"https://echo.epa.gov/detailed-facility-report?fid=MA0101087&sys=ICP"
"299",2008,"ICIS","MA0101141",1.10002e+11,"CHARLTON WASTEWATER TREATMENT FACILITY","CHARLTON","WORCESTER","MA","Major",42.141435,-71.995382,4952,4952,"SEWERAGE SYSTEMS",11000010104,"Cady Brook-Quinebaug River",15392.60021,0,0,0,19.81300701,62.91612903,0.186833333,NA,NA,"https://echo.epa.gov/detailed-facility-report?fid=MA0101141&sys=ICP"
"300",2008,"ICIS","MA0102148",1.10002e+11,"BELCHERTOWN WATER RECLAMATION FACILITY","BELCHERTOWN","HAMPSHIRE","MA","Major",42.281579,-72.42563,4952,4952,"SEWERAGE SYSTEMS",10802010701,"Batchelor Brook",14282.57383,0,0,0,4.615,5.85,0.511416667,NA,NA,"https://echo.epa.gov/detailed-facility-report?fid=MA0102148&sys=ICP"
"301",2008,"ICIS","NH0100544",1.10002e+11,"SUNAPEE WASTEWATER TREATMENT FACILITY","SUNAPEE","SULLIVAN","NH","Major",43.379784,-72.113507,4952,4952,"SEWERAGE SYSTEMS",10801060405,"Long Pond Brook-Sugar River",13451.76715,0,0,0,15.06,25,0.3577,NA,NA,"https://echo.epa.gov/detailed-facility-report?fid=NH0100544&sys=ICP"
"302",2008,"ICIS","CT0101273",1.1004e+11,"NEW CANAAN WASTEWATER TREATMENT PLANT","NEW CANAAN","FAIRFIELD","CT","Major",41.14066,-73.48368,4952,4952,"SEWERAGE SYSTEMS",11000060404,"Fivemile River",13395.51676,0,0,0,4.391666667,6.7,0.981166667,NA,NA,"https://echo.epa.gov/detailed-facility-report?fid=CT0101273&sys=ICP"
"303",2008,"ICIS","MA0001848",1.10011e+11,"ONYX SPECIALTY PAPERS INC - WILLOW MILL","LEE","BERKSHIRE","MA","Major",42.274705,-73.286202,2621,2621,"PAPER MILLS",11000050107,"Konkapot Brook-Housatonic River",13371.09825,0,0,0,1.384444444,3.87,1.016666667,NA,NA,"https://echo.epa.gov/detailed-facility-report?fid=MA0001848&sys=ICP"
"304",2008,"ICIS","MA0110043",1.10007e+11,"MCLAUGHLIN STATE TROUT HATCHERY","BELCHERTOWN","HAMPSHIRE","MA","Non-Major",42.267471,-72.338576,921,921,"FISH HATCHERIES AND PRESERVES",10802040106,"Quabbin Reservoir-Swift River",12790.58575,0,0,0,2.214936636,4.210714286,5.251666667,NA,NA,"https://echo.epa.gov/detailed-facility-report?fid=MA0110043&sys=ICP"
"305",2008,"ICIS","NH0100765",1.10007e+11,"CHARLESTOWN WASTEWATER TREATMENT PLANT","CHARLESTOWN","SULLIVAN","NH","Major",43.225795,-72.432518,4952,4952,"SEWERAGE SYSTEMS",10801060703,"Jabes Hackett Brook-Connecticut River",12698.15797,0,0,0,50.3,54.6,0.358583333,NA,NA,"https://echo.epa.gov/detailed-facility-report?fid=NH0100765&sys=ICP"
"306",2008,"ICIS","MA0005011",1.10002e+11,"PAPERLOGIC TURNERS FALLS MILL","MONTAGUE (TURNERS FALLS)","FRANKLIN","MA","Major",42.609152,-72.560239,2621,2621,"PAPER MILLS",10802010503,"Dry Brook-Connecticut River",12626.71685,0,0,0,4.225,11,0.392083333,NA,NA,"https://echo.epa.gov/detailed-facility-report?fid=MA0005011&sys=ICP"
"307",2008,"ICIS","CT0100447",1.1003e+11,"PLAINFIELD NORTH WATER POLLUTION CONTROL FACILITY","PLAINFIELD","WINDHAM","CT","Major",41.71937,-71.91721,4952,4952,"SEWERAGE SYSTEMS",11000010503,"Lower Moosup River",12207.75409,409.3676213,0,409.3676213,7.64,10.5,0.76175,NA,NA,"https://echo.epa.gov/detailed-facility-report?fid=CT0100447&sys=ICP"
